{
  "version": 0.6,
  "generator": "Overpass API 0.7.62.11 87bfad18",
  "osm3s": {
    "timestamp_osm_base": "2026-04-24T20:51:16Z",
    "timestamp_areas_base": "2026-04-24T15:53:36Z",
    "copyright": "The data included in this document is from www.openstreetmap.org. The data is made available under ODbL."
  },
  "elements": [
    {
      "type": "way",
      "id": 39994852,
      "center": {
        "lat": 32.8055128,
        "lon": -86.444788
      },
      "tags": {
        "height": "32.3088",
        "name": "Mitchell Dam",
        "operator": "Alabama Power",
        "operator:wikidata": "Q4705296",
        "plant:output:electricity": "170 MW",
        "plant:source": "hydro",
        "power": "plant",
        "ref:US:EIA": "17",
        "ref:US:NID": "AL01424",
        "source": "U.S. Energy Information Administration - EIA-860 - 2020",
        "start_date": "1949-11",
        "waterway": "dam",
        "wikidata": "Q11989635"
      },
      "lat": 32.8055128,
      "lon": -86.444788
    },
    {
      "type": "way",
      "id": 164658814,
      "center": {
        "lat": 32.3810799,
        "lon": -86.5742286
      },
      "tags": {
        "landuse": "industrial",
        "name": "E B Harris Electric Generating Plant",
        "operator": "Southern Power",
        "plant:method": "combustion",
        "plant:output:electricity": "1304 MW",
        "plant:source": "gas",
        "plant:type": "combined_cycle",
        "power": "plant",
        "ref:US:EIA": "7897",
        "source": "U.S. Energy Information Administration - EIA-860 - 2021",
        "start_date": "2003-06",
        "wikidata": "Q11966327"
      },
      "lat": 32.3810799,
      "lon": -86.5742286
    },
    {
      "type": "way",
      "id": 183946505,
      "center": {
        "lat": 33.9406191,
        "lon": -87.1078816
      },
      "tags": {
        "building": "industrial",
        "name": "Lewis Smith Dam",
        "operator": "Alabama Power",
        "operator:wikidata": "Q4705296",
        "plant:method": "water-storage",
        "plant:output:electricity": "181 MW",
        "plant:source": "hydro",
        "power": "plant",
        "ref:US:EIA": "18",
        "source": "U.S. Energy Information Administration - EIA-860 - 2020",
        "start_date": "1961-09",
        "wikidata": "Q11983872"
      },
      "lat": 33.9406191,
      "lon": -87.1078816
    },
    {
      "type": "way",
      "id": 186030003,
      "center": {
        "lat": 32.9633271,
        "lon": -86.5191702
      },
      "tags": {
        "building": "yes",
        "name": "Lay Dam",
        "operator": "Alabama Power",
        "operator:wikidata": "Q4705296",
        "plant:method": "water-storage",
        "plant:output:electricity": "177 MW",
        "plant:source": "hydro",
        "power": "plant",
        "ref:US:EIA": "15",
        "source": "U.S. Energy Information Administration - EIA-860 - 2020",
        "start_date": "1967-02",
        "wikidata": "Q6505339"
      },
      "lat": 32.9633271,
      "lon": -86.5191702
    },
    {
      "type": "way",
      "id": 190492028,
      "center": {
        "lat": 32.6799959,
        "lon": -85.911458
      },
      "tags": {
        "building": "yes",
        "name": "Martin Powerhouse",
        "operator": "Alabama Power",
        "operator:wikidata": "Q4705296",
        "plant:method": "water-storage",
        "plant:output:electricity": "210.6 MW",
        "plant:source": "hydro",
        "power": "plant",
        "ref:US:EIA": "16",
        "source": "U.S. Energy Information Administration - EIA-860 - 2020",
        "start_date": "1927-01",
        "wikidata": "Q6775250"
      },
      "lat": 32.6799959,
      "lon": -85.911458
    },
    {
      "type": "way",
      "id": 256619212,
      "center": {
        "lat": 33.0008871,
        "lon": -85.9043724
      },
      "tags": {
        "landuse": "industrial",
        "name": "Hillabee Energy Center",
        "operator": "CER Generation LLC",
        "plant:method": "combustion",
        "plant:output:electricity": "822.8 MW",
        "plant:source": "gas",
        "plant:type": "combined_cycle",
        "power": "plant",
        "ref:US:EIA": "55411",
        "source": "U.S. Energy Information Administration - EIA-860 - 2021",
        "start_date": "2010-06",
        "wikidata": "Q11975366"
      },
      "lat": 33.0008871,
      "lon": -85.9043724
    },
    {
      "type": "way",
      "id": 259093314,
      "center": {
        "lat": 32.6188225,
        "lon": -86.2555148
      },
      "tags": {
        "name": "Jordan Dam",
        "operator": "Alabama Power",
        "operator:wikidata": "Q4705296",
        "plant:method": "water-storage",
        "plant:output:electricity": "100 MW",
        "plant:source": "hydro",
        "power": "plant",
        "ref:US:EIA": "13",
        "source": "U.S. Energy Information Administration - EIA-860 - 2020",
        "start_date": "1929-01",
        "wikidata": "Q31806160"
      },
      "lat": 32.6188225,
      "lon": -86.2555148
    },
    {
      "type": "way",
      "id": 405343688,
      "center": {
        "lat": 34.691843,
        "lon": -86.5804231
      },
      "tags": {
        "name": "Redstone Energy Park",
        "parking": "surface",
        "plant:method": "photovoltaic",
        "plant:output:electricity": "yes",
        "plant:source": "solar",
        "power": "plant",
        "surface": "paved"
      },
      "lat": 34.691843,
      "lon": -86.5804231
    },
    {
      "type": "way",
      "id": 406509898,
      "center": {
        "lat": 33.2577646,
        "lon": -85.6164553
      },
      "tags": {
        "building": "industrial",
        "layer": "1",
        "name": "Harris Power Plant",
        "operator": "Alabama Power",
        "operator:wikidata": "Q4705296",
        "plant:output:electricity": "135 MW",
        "plant:source": "hydro",
        "power": "plant",
        "ref:US:EIA": "6188",
        "source": "U.S. Energy Information Administration - EIA-860 - 2020",
        "start_date": "1983-04",
        "wikidata": "Q7273378"
      },
      "lat": 33.2577646,
      "lon": -85.6164553
    },
    {
      "type": "way",
      "id": 420139937,
      "center": {
        "lat": 33.6313547,
        "lon": -87.0623111
      },
      "tags": {
        "landuse": "industrial",
        "name": "James H. Miller Electric Generating Plant",
        "operator": "Alabama Power",
        "operator:wikidata": "Q4705296",
        "plant:method": "combustion",
        "plant:output:electricity": "2822 MW",
        "plant:source": "coal",
        "power": "plant",
        "ref:US:EIA": "6002",
        "source": "U.S. Energy Information Administration - EIA-860 - 2021",
        "start_date": "1978-10",
        "wikidata": "Q11977952",
        "wikipedia": "en:James H. Miller Jr. Electric Generating Plant"
      },
      "lat": 33.6313547,
      "lon": -87.0623111
    },
    {
      "type": "way",
      "id": 425224195,
      "center": {
        "lat": 32.6076337,
        "lon": -85.0991995
      },
      "tags": {
        "landuse": "industrial",
        "name": "H Allen Franklin Combined Cycle",
        "operator": "Southern Power",
        "plant:method": "combustion",
        "plant:output:electricity": "1995.7 MW",
        "plant:source": "gas",
        "plant:type": "combined_cycle",
        "power": "plant",
        "ref:US:EIA": "7710",
        "source": "U.S. Energy Information Administration - EIA-860 - 2021",
        "start_date": "2002-06",
        "wikidata": "Q11969945"
      },
      "lat": 32.6076337,
      "lon": -85.0991995
    },
    {
      "type": "way",
      "id": 425320094,
      "center": {
        "lat": 32.609561,
        "lon": -85.0805557
      },
      "tags": {
        "landuse": "industrial",
        "name": "Goat Rock Dam",
        "operator": "Georgia Power",
        "operator:wikidata": "Q5547666",
        "plant:method": "water-storage",
        "plant:output:electricity": "38.6 MW",
        "plant:source": "hydro",
        "power": "plant",
        "ref:US:EIA": "707",
        "source": "U.S. Energy Information Administration - EIA-860 - 2020",
        "start_date": "1912-12"
      },
      "lat": 32.609561,
      "lon": -85.0805557
    },
    {
      "type": "way",
      "id": 470726215,
      "center": {
        "lat": 34.6612269,
        "lon": -86.5701243
      },
      "tags": {
        "plant:method": "photovoltaic",
        "plant:output:electricity": "yes",
        "plant:source": "solar",
        "power": "plant"
      },
      "lat": 34.6612269,
      "lon": -86.5701243
    },
    {
      "type": "way",
      "id": 470726216,
      "center": {
        "lat": 34.6624669,
        "lon": -86.5705349
      },
      "tags": {
        "plant:method": "photovoltaic",
        "plant:output:electricity": "yes",
        "plant:source": "solar",
        "power": "plant"
      },
      "lat": 34.6624669,
      "lon": -86.5705349
    },
    {
      "type": "way",
      "id": 494671030,
      "center": {
        "lat": 34.8372345,
        "lon": -87.8432863
      },
      "tags": {
        "barrier": "fence",
        "name": "River Bend Solar",
        "operator": "River Bend Solar, LLC",
        "plant:method": "photovoltaic",
        "plant:output:electricity": "75 MW",
        "plant:source": "solar",
        "power": "plant",
        "ref:US:EIA": "60058",
        "source": "U.S. Energy Information Administration - EIA-860 - 2021",
        "start_date": "2016-11-18"
      },
      "lat": 34.8372345,
      "lon": -87.8432863
    },
    {
      "type": "way",
      "id": 596085285,
      "center": {
        "lat": 32.6491768,
        "lon": -86.7382193
      },
      "tags": {
        "landuse": "industrial",
        "name": "Central Alabama Generating Station",
        "operator": "Alabama Power",
        "operator:wikidata": "Q4705296",
        "plant:method": "combustion",
        "plant:output:electricity": "927.1 MW",
        "plant:source": "gas",
        "plant:type": "combined_cycle",
        "power": "plant",
        "ref:US:EIA": "55440",
        "source": "U.S. Energy Information Administration - EIA-860 - 2021",
        "start_date": "2003-05",
        "wikidata": "Q12005469"
      },
      "lat": 32.6491768,
      "lon": -86.7382193
    },
    {
      "type": "way",
      "id": 596085288,
      "center": {
        "lat": 32.6525824,
        "lon": -86.738749
      },
      "tags": {
        "landuse": "industrial",
        "name": "Tenaska Lindsay Hill Generating Station",
        "operator": "Tenaska Alabama Partners LP",
        "plant:method": "combustion",
        "plant:output:electricity": "939.4 MW",
        "plant:source": "gas",
        "plant:type": "combined_cycle",
        "power": "plant",
        "ref:US:EIA": "55271",
        "source": "U.S. Energy Information Administration - EIA-860 - 2021",
        "start_date": "2002-05",
        "wikidata": "Q19392130"
      },
      "lat": 32.6525824,
      "lon": -86.738749
    },
    {
      "type": "way",
      "id": 606808107,
      "center": {
        "lat": 34.1323131,
        "lon": -85.7939205
      },
      "tags": {
        "alt_name": "Weiss - Main Dam",
        "name": "Weiss Dam",
        "operator": "Alabama Power",
        "operator:wikidata": "Q4705296",
        "plant:method": "run-of-the-river",
        "plant:output:electricity": "87.6 MW",
        "plant:source": "hydro",
        "power": "plant",
        "ref:US:EIA": "20",
        "ref:US:NID": "AL01415",
        "source": "U.S. Energy Information Administration - EIA-860 - 2021",
        "start_date": "1961-06",
        "waterway": "dam",
        "wikidata": "Q31580956"
      },
      "lat": 34.1323131,
      "lon": -85.7939205
    },
    {
      "type": "way",
      "id": 622757216,
      "center": {
        "lat": 34.9501118,
        "lon": -86.8677356
      },
      "tags": {
        "addr:city": "Elkmont",
        "addr:housenumber": "26754",
        "addr:postcode": "35620",
        "addr:state": "AL",
        "addr:street": "Mooresville Road",
        "name": "Cumberland Solar Farm",
        "operator": "Cumberland Land Holdings, LLC",
        "plant:method": "photovoltaic",
        "plant:output:electricity": "14.7 MW",
        "plant:source": "solar",
        "power": "plant",
        "ref:US:EIA": "61924",
        "source": "U.S. Energy Information Administration - EIA-860 - 2021",
        "start_date": "2018-12",
        "website": "https://www.tva.gov/Environment/Environmental-Stewardship/Environmental-Reviews/Cumberland-Solar-Farm"
      },
      "lat": 34.9501118,
      "lon": -86.8677356
    },
    {
      "type": "way",
      "id": 660021586,
      "center": {
        "lat": 31.2223946,
        "lon": -85.1127053
      },
      "tags": {
        "landuse": "industrial",
        "name": "Joseph M. Farley Nuclear Plant",
        "operator": "Southern Nuclear",
        "operator:wikidata": "Q7570206",
        "owner": "Alabama Power",
        "owner:wikidata": "Q4705296",
        "plant:method": "fission",
        "plant:output:electricity": "1776.4 MW",
        "plant:source": "nuclear",
        "power": "plant",
        "ref:US:EIA": "6001",
        "source": "U.S. Energy Information Administration - EIA-860 - 2021",
        "start_date": "1977-12",
        "wikidata": "Q1517424"
      },
      "lat": 31.2223946,
      "lon": -85.1127053
    },
    {
      "type": "way",
      "id": 692817648,
      "center": {
        "lat": 31.4873406,
        "lon": -87.9133835
      },
      "tags": {
        "addr:state": "AL",
        "generator:method": "combustion",
        "landuse": "industrial",
        "name": "Charles R. Lowman Power Plant",
        "operator": "PowerSouth Energy Cooperative",
        "plant:method": "combustion",
        "plant:output:electricity": "731.2 MW",
        "plant:source": "gas",
        "power": "plant",
        "ref:US:EIA": "56",
        "source": "U.S. Energy Information Administration - EIA-860 - 2020",
        "start_date": "1969-06"
      },
      "lat": 31.4873406,
      "lon": -87.9133835
    },
    {
      "type": "way",
      "id": 717597572,
      "center": {
        "lat": 32.6016109,
        "lon": -87.7846281
      },
      "tags": {
        "addr:city": "Demopolis",
        "addr:postcode": "36732",
        "addr:state": "AL",
        "addr:street": "Highway 43",
        "landuse": "industrial",
        "name": "Greene County Electric Generating Plant",
        "operator": "Alabama Power",
        "operator:wikidata": "Q4705296",
        "plant:method": "combustion",
        "plant:output:electricity": "1288.4 MW",
        "plant:source": "gas",
        "power": "plant",
        "ref:US:EIA": "10",
        "start_date": "1965",
        "wikidata": "Q11972516"
      },
      "lat": 32.6016109,
      "lon": -87.7846281
    },
    {
      "type": "way",
      "id": 725186840,
      "center": {
        "lat": 33.1660657,
        "lon": -86.2824395
      },
      "tags": {
        "landuse": "industrial",
        "name": "AMEA Peaking Gas Power Plant",
        "operator": "Alabama Municipal Electric Authority",
        "plant:method": "combustion",
        "plant:output:electricity": "98.6 MW",
        "plant:source": "gas",
        "power": "plant",
        "ref:US:EIA": "56018",
        "source": "U.S. Energy Information Administration - EIA-860 - 2021",
        "start_date": "2004-05"
      },
      "lat": 33.1660657,
      "lon": -86.2824395
    },
    {
      "type": "way",
      "id": 725826795,
      "center": {
        "lat": 31.2549286,
        "lon": -88.0298583
      },
      "tags": {
        "landuse": "industrial",
        "name": "McIntosh Power Plant",
        "operator": "PowerSouth Energy Cooperative",
        "plant:method": "combustion",
        "plant:output:electricity": "676 MW",
        "plant:source": "gas",
        "power": "plant",
        "ref:US:EIA": "7063",
        "source": "U.S. Energy Information Administration - EIA-860 - 2021",
        "start_date": "1991-06",
        "wikidata": "Q19381229"
      },
      "lat": 31.2549286,
      "lon": -88.0298583
    },
    {
      "type": "way",
      "id": 755657741,
      "center": {
        "lat": 32.3692038,
        "lon": -86.126828
      },
      "tags": {
        "plant:method": "photovoltaic",
        "plant:output:electricity": "yes",
        "plant:source": "solar",
        "power": "plant"
      },
      "lat": 32.3692038,
      "lon": -86.126828
    },
    {
      "type": "way",
      "id": 793030776,
      "center": {
        "lat": 31.3315347,
        "lon": -85.7302816
      },
      "tags": {
        "name": "Fort Rucker Solar Array",
        "operator": "Alabama Power",
        "operator:wikidata": "Q4705296",
        "plant:method": "photovoltaic",
        "plant:output:electricity": "10.6 MW",
        "plant:source": "solar",
        "power": "plant",
        "ref:US:EIA": "60679",
        "source": "U.S. Energy Information Administration - EIA-860 - 2021",
        "start_date": "2017-04"
      },
      "lat": 31.3315347,
      "lon": -85.7302816
    },
    {
      "type": "way",
      "id": 837679168,
      "center": {
        "lat": 33.2422454,
        "lon": -86.4602083
      },
      "tags": {
        "addr:city": "Wilsonville",
        "addr:housenumber": "31972",
        "addr:postcode": "35186",
        "addr:state": "AL",
        "addr:street": "Highway 25 North",
        "landuse": "industrial",
        "name": "Earnest C Gaston Steam Plant",
        "operator": "Alabama Power",
        "operator:wikidata": "Q4705296",
        "plant:method": "combustion",
        "plant:output:electricity": "2034 MW",
        "plant:source": "gas;coal",
        "power": "plant",
        "ref:US:EIA": "26",
        "start_date": "1949-04",
        "wikidata": "Q11967866"
      },
      "lat": 33.2422454,
      "lon": -86.4602083
    },
    {
      "type": "way",
      "id": 841901939,
      "center": {
        "lat": 32.0907191,
        "lon": -87.3979619
      },
      "tags": {
        "building": "yes",
        "name": "Millers Ferry Power Plant",
        "operator": "US Corps of Engineers",
        "plant:method": "water-storage",
        "plant:output:electricity": "101.1 MW",
        "plant:source": "hydro",
        "power": "plant",
        "ref:US:EIA": "38",
        "source": "U.S. Energy Information Administration - EIA-860 - 2020",
        "start_date": "1970-04",
        "wikidata": "Q6859351"
      },
      "lat": 32.0907191,
      "lon": -87.3979619
    },
    {
      "type": "way",
      "id": 859497191,
      "center": {
        "lat": 33.4034774,
        "lon": -86.8772332
      },
      "tags": {
        "plant:method": "photovoltaic",
        "plant:output:electricity": "yes",
        "plant:source": "solar",
        "power": "plant"
      },
      "lat": 33.4034774,
      "lon": -86.8772332
    },
    {
      "type": "way",
      "id": 873077321,
      "center": {
        "lat": 33.5880891,
        "lon": -85.9716493
      },
      "tags": {
        "landuse": "industrial",
        "name": "Calhoun Energy Center",
        "operator": "Calhoun Power Co LLC",
        "plant:method": "combustion",
        "plant:output:electricity": "748 MW",
        "plant:source": "gas",
        "power": "plant",
        "ref:US:EIA": "55409",
        "source": "http://globalenergyobservatory.org/geoid/2525",
        "start_date": "2003-01",
        "wikidata": "Q17761567"
      },
      "lat": 33.5880891,
      "lon": -85.9716493
    },
    {
      "type": "way",
      "id": 913682816,
      "center": {
        "lat": 34.6404729,
        "lon": -87.0632196
      },
      "tags": {
        "landuse": "industrial",
        "name": "Morgan Energy Center",
        "operator": "Morgan Energy Center LLC",
        "plant:method": "combustion",
        "plant:output:electricity": "900 MW",
        "plant:output:hot_water": "yes",
        "plant:source": "gas",
        "plant:type": "combined_cycle",
        "power": "plant",
        "ref:US:EIA": "55293",
        "source": "U.S. Energy Information Administration - EIA-860 - 2021",
        "start_date": "2003-06",
        "wikidata": "Q11989933"
      },
      "lat": 34.6404729,
      "lon": -87.0632196
    },
    {
      "type": "way",
      "id": 922172627,
      "center": {
        "lat": 33.4584622,
        "lon": -87.3565393
      },
      "tags": {
        "ele": "57",
        "gnis:feature_id": "151895",
        "landuse": "industrial",
        "name": "John Hollis Bankhead Lock and Dam",
        "name:etymology:wikidata": "Q461228",
        "plant:method": "water-storage",
        "plant:output:electricity": "53.9 MW",
        "plant:source": "hydro",
        "power": "plant",
        "ref:US:EIA": "2",
        "ref:US:NID": "AL01427",
        "start_date": "1963-07",
        "waterway": "dam",
        "wikidata": "Q31806119"
      },
      "lat": 33.4584622,
      "lon": -87.3565393
    },
    {
      "type": "way",
      "id": 939492491,
      "center": {
        "lat": 30.5254955,
        "lon": -88.1293593
      },
      "tags": {
        "landuse": "industrial",
        "name": "Theodore Cogen Facility",
        "operator": "Alabama Power",
        "operator:wikidata": "Q4705296",
        "plant:method": "combustion",
        "plant:output:electricity": "317.4 MW",
        "plant:output:hot_water": "yes",
        "plant:source": "gas",
        "plant:type": "combined_cycle",
        "power": "plant",
        "ref:US:EIA": "7721",
        "source": "https://www.industryabout.com/country-territories-3/873-usa/fossil-fuels-energy/20764-theodore-gas-power-plant",
        "start_date": "2000-12",
        "wikidata": "Q12006006"
      },
      "lat": 30.5254955,
      "lon": -88.1293593
    },
    {
      "type": "way",
      "id": 945525782,
      "center": {
        "lat": 31.2643756,
        "lon": -88.0025307
      },
      "tags": {
        "landuse": "industrial",
        "name": "Washington County Cogeneration Facility",
        "operator": "Alabama Power",
        "operator:wikidata": "Q4705296",
        "plant:method": "combustion",
        "plant:output:electricity": "122.5 MW",
        "plant:output:hot_water": "yes",
        "plant:source": "gas",
        "plant:type": "combined_cycle",
        "power": "plant",
        "ref:US:EIA": "7697",
        "source": "U.S. Energy Information Administration - EIA-860 - 2021",
        "start_date": "1999-02"
      },
      "lat": 31.2643756,
      "lon": -88.0025307
    },
    {
      "type": "way",
      "id": 958340276,
      "center": {
        "lat": 32.6619675,
        "lon": -85.091652
      },
      "tags": {
        "landuse": "industrial",
        "name": "Bartletts Ferry Dam",
        "operator": "Georgia Power",
        "operator:wikidata": "Q5547666",
        "plant:method": "run-of-the-river",
        "plant:output:electricity": "173 MW",
        "plant:source": "hydro",
        "power": "plant",
        "ref:US:EIA": "702",
        "source": "microsoft/BuildingFootprints",
        "start_date": "1926-12",
        "wikidata": "Q11960223"
      },
      "lat": 32.6619675,
      "lon": -85.091652
    },
    {
      "type": "way",
      "id": 965969112,
      "center": {
        "lat": 32.3248716,
        "lon": -86.7854543
      },
      "tags": {
        "building": "yes",
        "layer": "1",
        "name": "Jones Bluff Power Plant",
        "operator": "USCE-Mobile District",
        "plant:output:electricity": "82 MW",
        "plant:source": "hydro",
        "power": "plant",
        "ref:US:EIA": "6131",
        "source": "U.S. Energy Information Administration - EIA-860 - 2021",
        "start_date": "1975-06",
        "wikidata": "Q65208507"
      },
      "lat": 32.3248716,
      "lon": -86.7854543
    },
    {
      "type": "way",
      "id": 967692840,
      "center": {
        "lat": 32.5410325,
        "lon": -85.0386273
      },
      "tags": {
        "landuse": "industrial",
        "name": "Walton Discover Power Facility",
        "operator": "Georgia Transmission Corporation",
        "plant:method": "combustion",
        "plant:output:electricity": "103 MW",
        "plant:source": "gas",
        "power": "plant",
        "ref:US:EIA": "55138",
        "source": "https://www.mapsearch.com/power-plant/walton-discover-power-facility/",
        "start_date": "1999-06"
      },
      "lat": 32.5410325,
      "lon": -85.0386273
    },
    {
      "type": "way",
      "id": 1014206635,
      "center": {
        "lat": 32.5828489,
        "lon": -86.283366
      },
      "tags": {
        "addr:city": "Wetumpka",
        "addr:housenumber": "750",
        "addr:postcode": "36092",
        "addr:state": "AL",
        "addr:street": "Bouldin Dam Road",
        "barrier": "fence",
        "landuse": "industrial",
        "name": "Walter Bouldin Dam",
        "operator": "Alabama Power",
        "operator:wikidata": "Q4705296",
        "plant:output:electricity": "225 MW",
        "plant:source": "hydro",
        "power": "plant",
        "ref:US:EIA": "4",
        "start_date": "1967",
        "wikidata": "Q12010357"
      },
      "lat": 32.5828489,
      "lon": -86.283366
    },
    {
      "type": "way",
      "id": 1014947564,
      "center": {
        "lat": 33.7841386,
        "lon": -86.052631
      },
      "tags": {
        "addr:city": "Ohatchee",
        "addr:housenumber": "1021",
        "addr:postcode": "36271",
        "addr:state": "AL",
        "landuse": "industrial",
        "name": "H. Neely Henry Dam",
        "operator": "Alabama Power",
        "operator:wikidata": "Q4705296",
        "plant:method": "water-storage",
        "plant:output:electricity": "72.9 MW",
        "plant:source": "hydro",
        "power": "plant",
        "ref:US:EIA": "11",
        "start_date": "1966-06",
        "wikidata": "Q31805728"
      },
      "lat": 33.7841386,
      "lon": -86.052631
    },
    {
      "type": "way",
      "id": 1032984895,
      "center": {
        "lat": 33.2542386,
        "lon": -87.449589
      },
      "tags": {
        "ele": "57",
        "gnis:feature_id": "120300",
        "landuse": "industrial",
        "name": "Holt Lock and Dam",
        "operator": "Alabama Power",
        "operator:wikidata": "Q4705296",
        "plant:output:electricity": "46.9 MW",
        "plant:source": "hydro",
        "power": "plant",
        "ref:US:EIA": "12",
        "source": "U.S. Energy Information Administration - EIA-860 - 2020",
        "start_date": "1968-08"
      },
      "lat": 33.2542386,
      "lon": -87.449589
    },
    {
      "type": "way",
      "id": 1058469136,
      "center": {
        "lat": 32.9187615,
        "lon": -85.1888215
      },
      "tags": {
        "building": "industrial",
        "landuse": "industrial",
        "name": "West Point Dam",
        "operator": "U.S. Corps of Engineers",
        "plant:method": "water-storage",
        "plant:output:electricity": "73.3 MW",
        "plant:source": "hydro",
        "power": "plant",
        "ref:US:EIA": "6133",
        "source": "U.S. Energy Information Administration - EIA-860 - 2020",
        "start_date": "1975-04",
        "wikidata": "Q65208519"
      },
      "lat": 32.9187615,
      "lon": -85.1888215
    },
    {
      "type": "way",
      "id": 1059983266,
      "center": {
        "lat": 33.4258417,
        "lon": -86.3380861
      },
      "tags": {
        "name": "Logan Martin Dam",
        "operator": "Alabama Power",
        "operator:wikidata": "Q4705296",
        "plant:output:electricity": "128.1 MW",
        "plant:source": "hydro",
        "power": "plant",
        "ref:US:EIA": "14",
        "source": "U.S. Energy Information Administration - EIA-860 - 2020",
        "start_date": "1964-08",
        "wikidata": "Q65208521"
      },
      "lat": 33.4258417,
      "lon": -86.3380861
    },
    {
      "type": "way",
      "id": 1059983270,
      "center": {
        "lat": 32.5740418,
        "lon": -85.8908224
      },
      "tags": {
        "building": "industrial",
        "name": "Yates Dam",
        "operator": "Alabama Power",
        "operator:wikidata": "Q4705296",
        "plant:method": "water-storage",
        "plant:output:electricity": "50.5 MW",
        "plant:source": "hydro",
        "power": "plant",
        "ref:US:EIA": "21",
        "source": "U.S. Energy Information Administration - EIA-860 - 2020",
        "start_date": "1928-07"
      },
      "lat": 32.5740418,
      "lon": -85.8908224
    },
    {
      "type": "way",
      "id": 1079908110,
      "center": {
        "lat": 32.4650231,
        "lon": -85.689689
      },
      "tags": {
        "barrier": "fence",
        "industrial": "power",
        "plant:method": "photovoltaic",
        "plant:output:electricity": "yes",
        "plant:source": "solar",
        "power": "plant"
      },
      "lat": 32.4650231,
      "lon": -85.689689
    },
    {
      "type": "way",
      "id": 1082780717,
      "center": {
        "lat": 30.431038,
        "lon": -88.181764
      },
      "tags": {
        "landuse": "industrial",
        "name": "W&T Onshore Treating Facility Cogen",
        "operator": "W&T Offshore Inc",
        "plant:method": "combustion",
        "plant:output:electricity": "12 MW",
        "plant:output:hot_water": "yes",
        "plant:source": "gas",
        "power": "plant",
        "ref:US:EIA": "54550",
        "source": "U.S. Energy Information Administration - EIA-860 - 2021",
        "start_date": "1993-09"
      },
      "lat": 30.431038,
      "lon": -88.181764
    },
    {
      "type": "way",
      "id": 1082780721,
      "center": {
        "lat": 32.3102836,
        "lon": -86.525339
      },
      "tags": {
        "landuse": "industrial",
        "name": "General Electric Plastic",
        "operator": "Alabama Power",
        "operator:wikidata": "Q4705296",
        "plant:method": "combustion",
        "plant:output:electricity": "97 MW",
        "plant:output:hot_water": "yes",
        "plant:source": "gas",
        "plant:type": "combined_cycle",
        "power": "plant",
        "ref:US:EIA": "7698",
        "source": "U.S. Energy Information Administration - EIA-860 - 2021",
        "start_date": "1999-07"
      },
      "lat": 32.3102836,
      "lon": -86.525339
    },
    {
      "type": "way",
      "id": 1082780722,
      "center": {
        "lat": 32.4257515,
        "lon": -86.8696126
      },
      "tags": {
        "fixme": "position",
        "landuse": "industrial",
        "name": "International Paper Riverdale Mill",
        "operator": "International Paper Co-Riverdl",
        "plant:output:electricity": "104.2 MW",
        "plant:output:hot_water": "yes",
        "plant:source": "gas;biomass",
        "power": "plant",
        "ref:US:EIA": "54096",
        "source": "U.S. Energy Information Administration - EIA-860 - 2021",
        "start_date": "1967-01"
      },
      "lat": 32.4257515,
      "lon": -86.8696126
    },
    {
      "type": "way",
      "id": 1082780724,
      "center": {
        "lat": 31.0770316,
        "lon": -87.1111067
      },
      "tags": {
        "fixme": "position",
        "name": "Georgia-Pacific Brewton Mill",
        "operator": "Georgia-Pacific Brewton LLC",
        "plant:output:electricity": "103.4 MW",
        "plant:output:hot_water": "yes",
        "plant:source": "gas;biomass",
        "power": "plant",
        "ref:US:EIA": "54789",
        "source": "U.S. Energy Information Administration - EIA-860 - 2021",
        "start_date": "1957-10"
      },
      "lat": 31.0770316,
      "lon": -87.1111067
    },
    {
      "type": "way",
      "id": 1082780725,
      "center": {
        "lat": 32.1766439,
        "lon": -85.0275607
      },
      "tags": {
        "landuse": "industrial",
        "name": "Mead Coated Board Cogeneration",
        "operator": "Mead Coated Board Inc",
        "plant:method": "combustion",
        "plant:output:electricity": "120.5 MW",
        "plant:output:hot_water": "yes",
        "plant:source": "gas;biomass",
        "power": "plant",
        "ref:US:EIA": "54802",
        "source": "U.S. Energy Information Administration - EIA-860 - 2021",
        "start_date": "1966-11"
      },
      "lat": 32.1766439,
      "lon": -85.0275607
    },
    {
      "type": "way",
      "id": 1082780727,
      "center": {
        "lat": 31.5828261,
        "lon": -87.4885647
      },
      "tags": {
        "landuse": "industrial",
        "name": "Alabama Pine and River Pulp Cogen",
        "operator": "Alabama River Cellulose LLC",
        "plant:output:electricity": "117 MW",
        "plant:output:hot_water": "yes",
        "plant:source": "biomass",
        "power": "plant",
        "ref:US:EIA": "10216;54429",
        "source": "U.S. Energy Information Administration - EIA-860 - 2021",
        "start_date": "1978-11"
      },
      "lat": 31.5828261,
      "lon": -87.4885647
    },
    {
      "type": "way",
      "id": 1082780729,
      "center": {
        "lat": 31.9697561,
        "lon": -87.4807621
      },
      "tags": {
        "building": "yes",
        "landuse": "industrial",
        "name": "International Paper Pine Hill Mill Cogen",
        "operator": "International Paper Co.",
        "plant:method": "combustion",
        "plant:output:electricity": "77.4 MW",
        "plant:output:hot_water": "yes",
        "plant:source": "biomass",
        "power": "plant",
        "ref:US:EIA": "54752",
        "source": "U.S. Energy Information Administration - EIA-860 - 2021",
        "start_date": "1968-08"
      },
      "lat": 31.9697561,
      "lon": -87.4807621
    },
    {
      "type": "way",
      "id": 1082780732,
      "center": {
        "lat": 30.7361322,
        "lon": -88.0502473
      },
      "tags": {
        "landuse": "industrial",
        "name": "Kimberly Clark Mobile - CHP Plant",
        "operator": "Kimberly Clark - Mobile Alabama",
        "plant:output:electricity": "50 MW",
        "plant:output:hot_water": "yes",
        "plant:source": "gas",
        "power": "plant",
        "ref:US:EIA": "62449",
        "source": "U.S. Energy Information Administration - EIA-860 - 2021",
        "start_date": "2019-04"
      },
      "lat": 30.7361322,
      "lon": -88.0502473
    },
    {
      "type": "way",
      "id": 1082780753,
      "center": {
        "lat": 32.5346819,
        "lon": -85.8891337
      },
      "tags": {
        "addr:state": "AL",
        "building": "industrial",
        "ele": "88",
        "gnis:feature_id": "1959592",
        "layer": "1",
        "name": "Thurlow Hydroelectric Generating Plant",
        "operator": "Alabama Power",
        "operator:wikidata": "Q4705296",
        "plant:method": "water-storage",
        "plant:output:electricity": "91 MW",
        "plant:source": "hydro",
        "power": "plant",
        "ref:US:EIA": "19",
        "source": "U.S. Energy Information Administration - EIA-860 - 2021",
        "start_date": "1931-01",
        "wikidata": "Q31554938"
      },
      "lat": 32.5346819,
      "lon": -85.8891337
    },
    {
      "type": "way",
      "id": 1082780755,
      "center": {
        "lat": 31.361311,
        "lon": -86.518724
      },
      "tags": {
        "name": "Point A Power Station",
        "operator": "PowerSouth Energy Cooperative",
        "plant:method": "water-storage",
        "plant:output:electricity": "5.2 MW",
        "plant:source": "hydro",
        "power": "plant",
        "ref:US:EIA": "55",
        "source": "U.S. Energy Information Administration - EIA-860 - 2021",
        "start_date": "1925-01"
      },
      "lat": 31.361311,
      "lon": -86.518724
    },
    {
      "type": "way",
      "id": 1082780779,
      "center": {
        "lat": 31.4033658,
        "lon": -86.4797632
      },
      "tags": {
        "building": "industrial",
        "name": "Gantt Power Plant",
        "operator": "PowerSouth Energy Cooperative",
        "plant:method": "water-storage",
        "plant:output:electricity": "3 MW",
        "plant:source": "hydro",
        "power": "plant",
        "ref:US:EIA": "53",
        "source": "U.S. Energy Information Administration - EIA-860 - 2021",
        "start_date": "1926-01"
      },
      "lat": 31.4033658,
      "lon": -86.4797632
    },
    {
      "type": "way",
      "id": 1087788030,
      "center": {
        "lat": 33.3295024,
        "lon": -86.3566542
      },
      "tags": {
        "name": "U S Alliance Coosa Pines Cogen",
        "operator": "Bowater Newport Coosa Pines Op",
        "plant:output:electricity": "25.9 MW",
        "plant:output:hot_water": "yes",
        "plant:source": "biomass",
        "power": "plant",
        "ref:US:EIA": "54216",
        "source": "U.S. Energy Information Administration - EIA-860 - 2021",
        "start_date": "1942-01"
      },
      "lat": 33.3295024,
      "lon": -86.3566542
    },
    {
      "type": "way",
      "id": 1087788042,
      "center": {
        "lat": 34.6294604,
        "lon": -87.0204815
      },
      "tags": {
        "landuse": "industrial",
        "name": "Decatur Energy Center",
        "operator": "Decatur Energy Center LLC",
        "plant:method": "combustion",
        "plant:output:electricity": "902.4 MW",
        "plant:source": "gas",
        "plant:type": "combined_cycle",
        "power": "plant",
        "ref:US:EIA": "55292",
        "source": "U.S. Energy Information Administration - EIA-860 - 2021",
        "start_date": "2002-06",
        "wikidata": "Q17765105"
      },
      "lat": 34.6294604,
      "lon": -87.0204815
    },
    {
      "type": "way",
      "id": 1087788043,
      "center": {
        "lat": 34.343832,
        "lon": -85.8661305
      },
      "tags": {
        "name": "Sand Valley Power Station",
        "operator": "EDL Inc",
        "plant:output:electricity": "4.8 MW",
        "plant:source": "biogas",
        "power": "plant",
        "ref:US:EIA": "59710",
        "source": "U.S. Energy Information Administration - EIA-860 - 2021",
        "start_date": "2013-11"
      },
      "lat": 34.343832,
      "lon": -85.8661305
    },
    {
      "type": "way",
      "id": 1089357088,
      "center": {
        "lat": 34.762494,
        "lon": -87.9176509
      },
      "tags": {
        "name": "Muscle Shoals Solar",
        "operator": "Muscle Shoals Solar, LLC",
        "plant:method": "photovoltaic",
        "plant:output:electricity": "227 MW",
        "plant:source": "solar",
        "power": "plant",
        "ref:US:EIA": "62462",
        "source": "U.S. Energy Information Administration - EIA-860 - 2021",
        "start_date": "2021-09"
      },
      "lat": 34.762494,
      "lon": -87.9176509
    },
    {
      "type": "way",
      "id": 1103596774,
      "center": {
        "lat": 33.6264,
        "lon": -85.941066
      },
      "tags": {
        "name": "ANAD Solar Array",
        "operator": "Alabama Power Co",
        "plant:method": "photovoltaic",
        "plant:output:electricity": "7.4 MW",
        "plant:source": "solar",
        "power": "plant",
        "ref:US:EIA": "60680",
        "source": "U.S. Energy Information Administration - EIA-860 - 2022",
        "start_date": "2017-07"
      },
      "lat": 33.6264,
      "lon": -85.941066
    },
    {
      "type": "way",
      "id": 1158926653,
      "center": {
        "lat": 34.3588803,
        "lon": -86.2237986
      },
      "tags": {
        "building": "industrial",
        "name": "Albertville Emergency Generation",
        "operator": "Albertville Municipal Utilities Board",
        "plant:method": "combustion",
        "plant:output:electricity": "4 MW",
        "plant:source": "oil",
        "power": "plant",
        "ref:US:EIA": "7924",
        "start_date": "2000-02"
      },
      "lat": 34.3588803,
      "lon": -86.2237986
    },
    {
      "type": "way",
      "id": 1222999748,
      "center": {
        "lat": 34.2200582,
        "lon": -86.8604721
      },
      "tags": {
        "plant:method": "photovoltaic",
        "plant:output:electricity": "yes",
        "plant:source": "solar",
        "power": "plant"
      },
      "lat": 34.2200582,
      "lon": -86.8604721
    },
    {
      "type": "way",
      "id": 1270975089,
      "center": {
        "lat": 34.7388019,
        "lon": -87.8453299
      },
      "tags": {
        "landuse": "industrial",
        "name": "Colbert Power Plant",
        "operator": "Tennessee Valley Authority",
        "operator:short": "TVA",
        "operator:wikidata": "Q1367577",
        "plant:method": "combustion",
        "plant:output:electricity": "1169.6 MW",
        "plant:source": "gas",
        "power": "plant",
        "ref:US:EIA": "47",
        "start_date": "1955-01",
        "wikidata": "Q108559320",
        "wikipedia": "en:Colbert Combustion Turbine Plant"
      },
      "lat": 34.7388019,
      "lon": -87.8453299
    },
    {
      "type": "way",
      "id": 1284435643,
      "center": {
        "lat": 34.8338101,
        "lon": -86.641128
      },
      "tags": {
        "plant:method": "photovoltaic",
        "plant:output:electricity": "yes",
        "plant:source": "solar",
        "power": "plant"
      },
      "lat": 34.8338101,
      "lon": -86.641128
    },
    {
      "type": "way",
      "id": 1287114398,
      "center": {
        "lat": 32.4438743,
        "lon": -85.716986
      },
      "tags": {
        "plant:method": "photovoltaic",
        "plant:output:electricity": "yes",
        "plant:source": "solar",
        "power": "plant"
      },
      "lat": 32.4438743,
      "lon": -85.716986
    },
    {
      "type": "way",
      "id": 1287114399,
      "center": {
        "lat": 32.4427246,
        "lon": -85.717257
      },
      "tags": {
        "plant:method": "photovoltaic",
        "plant:output:electricity": "yes",
        "plant:source": "solar",
        "power": "plant"
      },
      "lat": 32.4427246,
      "lon": -85.717257
    },
    {
      "type": "way",
      "id": 1424276800,
      "center": {
        "lat": 33.6071233,
        "lon": -86.767442
      },
      "tags": {
        "plant:method": "photovoltaic",
        "plant:output:electricity": "yes",
        "plant:source": "solar",
        "power": "plant"
      },
      "lat": 33.6071233,
      "lon": -86.767442
    },
    {
      "type": "relation",
      "id": 11643537,
      "center": {
        "lat": 34.7981517,
        "lon": -87.3814416
      },
      "tags": {
        "name": "Wheeler Dam",
        "operator": "Tennessee Valley Authority",
        "operator:short": "TVA",
        "operator:wikidata": "Q1367577",
        "plant:output:electricity": "404 MW",
        "plant:source": "hydro",
        "power": "plant",
        "ref:US:EIA": "49",
        "source": "U.S. Energy Information Administration - EIA-860 - 2020",
        "start_date": "1936-11",
        "type": "multipolygon",
        "wikidata": "Q7992209"
      },
      "lat": 34.7981517,
      "lon": -87.3814416
    },
    {
      "type": "relation",
      "id": 11643588,
      "center": {
        "lat": 34.7958765,
        "lon": -87.6249138
      },
      "tags": {
        "name": "Wilson Dam",
        "operator": "Tennessee Valley Authority",
        "operator:short": "TVA",
        "operator:wikidata": "Q1367577",
        "plant:output:electricity": "666.7 MW",
        "plant:source": "hydro",
        "power": "plant",
        "ref:US:EIA": "6440",
        "source": "U.S. Energy Information Administration - EIA-860 - 2020",
        "start_date": "1925-09",
        "type": "multipolygon",
        "wikidata": "Q2885002"
      },
      "lat": 34.7958765,
      "lon": -87.6249138
    },
    {
      "type": "relation",
      "id": 11653844,
      "center": {
        "lat": 34.4225438,
        "lon": -86.3928763
      },
      "tags": {
        "name": "Guntersville Dam",
        "operator": "Tennessee Valley Authority",
        "operator:short": "TVA",
        "operator:wikidata": "Q1367577",
        "plant:output:electricity": "115.2 MW",
        "plant:source": "hydro",
        "power": "plant",
        "ref:US:EIA": "48",
        "source": "U.S. Energy Information Administration - EIA-860 - 2020",
        "start_date": "1939-08",
        "type": "multipolygon",
        "wikidata": "Q5619444"
      },
      "lat": 34.4225438,
      "lon": -86.3928763
    },
    {
      "type": "relation",
      "id": 13147629,
      "center": {
        "lat": 32.3039931,
        "lon": -84.9898813
      },
      "tags": {
        "name": "Fort Benning Solar",
        "operator": "Georgia Power",
        "operator:wikidata": "Q5547666",
        "plant:method": "photovoltaic",
        "plant:output:electricity": "30 MW",
        "plant:source": "solar",
        "power": "plant",
        "ref:US:EIA": "59862",
        "source": "U.S. Energy Information Administration - EIA-860 - 2021",
        "start_date": "2015-12",
        "type": "multipolygon"
      },
      "lat": 32.3039931,
      "lon": -84.9898813
    },
    {
      "type": "relation",
      "id": 13836941,
      "center": {
        "lat": 32.8733976,
        "lon": -85.390417
      },
      "tags": {
        "alt_name": "LaFayette Solar Farm",
        "name": "AL Solar A",
        "operator": "Clenera; Alabama Power",
        "plant:method": "photovoltaic",
        "plant:output:electricity": "79.2 MW",
        "plant:source": "solar",
        "power": "plant",
        "ref:US:EIA": "60583",
        "source": "U.S. Energy Information Administration - EIA-860 - 2021",
        "start_date": "2017-12",
        "type": "multipolygon"
      },
      "lat": 32.8733976,
      "lon": -85.390417
    },
    {
      "type": "relation",
      "id": 14480589,
      "center": {
        "lat": 34.6125345,
        "lon": -86.616341
      },
      "tags": {
        "landuse": "industrial",
        "name": "Redstone Arsenal Hybrid Solar",
        "operator": "MN8 Energy LLC",
        "plant:output:electricity": "11 MW",
        "plant:source": "solar;battery",
        "power": "plant",
        "ref:US:EIA": "61901",
        "source": "U.S. Energy Information Administration - EIA-860 - 2021",
        "start_date": "2017-12",
        "type": "multipolygon"
      },
      "lat": 34.6125345,
      "lon": -86.616341
    },
    {
      "type": "relation",
      "id": 15553278,
      "center": {
        "lat": 30.9983563,
        "lon": -88.0051689
      },
      "tags": {
        "addr:city": "Bucks",
        "addr:housenumber": "1533",
        "addr:postcode": "36512",
        "addr:state": "AL",
        "addr:street": "Highway 43 North",
        "generator:method": "combustion",
        "landuse": "industrial",
        "name": "Barry Electric Generating Plant",
        "operator": "Alabama Power",
        "operator:wikidata": "Q4705296",
        "plant:method": "combustion",
        "plant:output:electricity": "2671 MW",
        "plant:source": "gas;coal",
        "power": "plant",
        "ref:US:EIA": "3",
        "type": "multipolygon",
        "wikidata": "Q6138357",
        "wikipedia": "en:James M. Barry Electric Generating Plant"
      },
      "lat": 30.9983563,
      "lon": -88.0051689
    },
    {
      "type": "relation",
      "id": 15647472,
      "center": {
        "lat": 33.684357,
        "lon": -85.9734021
      },
      "tags": {
        "barrier": "fence",
        "name": "ANAD Solar Array",
        "operator": "Alabama Power",
        "operator:wikidata": "Q4705296",
        "plant:method": "photovoltaic",
        "plant:output:electricity": "7.4 MW",
        "plant:source": "solar",
        "power": "plant",
        "ref:US:EIA": "60680",
        "start_date": "2017",
        "type": "multipolygon"
      },
      "lat": 33.684357,
      "lon": -85.9734021
    },
    {
      "type": "relation",
      "id": 15673560,
      "center": {
        "lat": 34.4715799,
        "lon": -87.4468753
      },
      "tags": {
        "barrier": "fence",
        "plant:method": "photovoltaic",
        "plant:output:electricity": "1 MW",
        "plant:source": "solar",
        "power": "plant",
        "type": "multipolygon"
      },
      "lat": 34.4715799,
      "lon": -87.4468753
    },
    {
      "type": "relation",
      "id": 15705801,
      "center": {
        "lat": 31.0146163,
        "lon": -86.5885983
      },
      "tags": {
        "name": "Wing Solar",
        "operator": "Origis Energy",
        "plant:method": "photovoltaic",
        "plant:output:electricity": "80 MW",
        "plant:source": "solar",
        "power": "plant",
        "ref:US:EIA": "64469",
        "start_date": "2023-04",
        "type": "multipolygon"
      },
      "lat": 31.0146163,
      "lon": -86.5885983
    },
    {
      "type": "relation",
      "id": 16631391,
      "center": {
        "lat": 32.1936709,
        "lon": -86.3316075
      },
      "tags": {
        "name": "Black Bear Solar 1",
        "operator": "Lightsource Renewable Energy Asset Management, LLC",
        "plant:method": "photovoltaic",
        "plant:output:electricity": "100 MW",
        "plant:source": "solar",
        "power": "plant",
        "ref:US:EIA": "63765",
        "start_date": "2023-02",
        "type": "multipolygon"
      },
      "lat": 32.1936709,
      "lon": -86.3316075
    },
    {
      "type": "relation",
      "id": 18631380,
      "center": {
        "lat": 30.7483151,
        "lon": -88.0574373
      },
      "tags": {
        "landuse": "industrial",
        "name": "Hog Bayou Energy Center",
        "operator": "Mobile Energy LLC",
        "plant:method": "combustion",
        "plant:output:electricity": "280 MW",
        "plant:source": "gas",
        "plant:type": "combined_cycle",
        "power": "plant",
        "ref:US:EIA": "55241",
        "source": "https://www.industryabout.com/country-territories-3/873-usa/fossil-fuels-energy/20765-hog-bayou-gas-power-plant",
        "start_date": "2001-07",
        "type": "multipolygon",
        "wikidata": "Q11975594"
      },
      "lat": 30.7483151,
      "lon": -88.0574373
    },
    {
      "type": "relation",
      "id": 19063457,
      "center": {
        "lat": 31.4006257,
        "lon": -86.4736381
      },
      "tags": {
        "landuse": "industrial",
        "name": "McWilliams Power Plant",
        "operator": "PowerSouth Energy Cooperative",
        "plant:method": "combustion",
        "plant:output:electricity": "654 MW",
        "plant:source": "gas",
        "plant:type": "combined_cycle",
        "power": "plant",
        "ref:US:EIA": "533",
        "source": "U.S. Energy Information Administration - EIA-860 - 2021",
        "start_date": "1954-12",
        "type": "multipolygon",
        "wikidata": "Q19381233"
      },
      "lat": 31.4006257,
      "lon": -86.4736381
    },
    {
      "type": "relation",
      "id": 19824656,
      "center": {
        "lat": 34.7085496,
        "lon": -87.1156808
      },
      "tags": {
        "landuse": "industrial",
        "name": "Browns Ferry Nuclear Power Plant",
        "operator": "Tennessee Valley Authority",
        "operator:short": "TVA",
        "operator:wikidata": "Q1367577",
        "plant:method": "fission",
        "plant:output:electricity": "3567.5 MW",
        "plant:source": "nuclear",
        "power": "plant",
        "ref:US:EIA": "46",
        "start_date": "1967-05",
        "type": "multipolygon",
        "wikidata": "Q1650555",
        "wikipedia": "en:Browns Ferry Nuclear Plant"
      },
      "lat": 34.7085496,
      "lon": -87.1156808
    },
    {
      "type": "relation",
      "id": 20053561,
      "center": {
        "lat": 34.828693,
        "lon": -86.630249
      },
      "tags": {
        "name": "TAI Huntsville Solar Hybrid",
        "operator": "TAI Huntsville Solar, LLC",
        "plant:method": "photovoltaic",
        "plant:output:electricity": "32.4 MW",
        "plant:source": "solar",
        "power": "plant",
        "ref:US:EIA": "67488",
        "source": "U.S. Energy Information Administration - EIA-860 - 2024",
        "start_date": "2024-07",
        "type": "multipolygon"
      },
      "lat": 34.828693,
      "lon": -86.630249
    }
  ]
}
