{
  "source": {
    "name": "EIA Form 861 Annual Electric Power Industry Report (2024)",
    "year": 2024,
    "state": "Arkansas",
    "methodology": "Utility annual electricity sales (MWh) from Sales_Ult_Cust worksheet distributed equally across each utility's service county-equivalents (Service_Territory worksheet). County-equivalent centroid geometry from US Census GeoJSON.",
    "workbook": "Sales_Ult_Cust_2024.xlsx + Service_Territory_2024.xlsx",
    "workbook_url": "https://www.eia.gov/electricity/data/eia861/zip/f8612024.zip",
    "download_page": "https://www.eia.gov/electricity/data/eia861/",
    "geometry_source": "https://raw.githubusercontent.com/plotly/datasets/master/geojson-counties-fips.json",
    "generated_at": "2026-04-24T22:23:06.209590Z"
  },
  "count": 75,
  "total_gwh_annual": 49188.5,
  "elements": [
    {
      "type": "node",
      "id": "consumer-county-001",
      "lat": 34.233306,
      "lon": -91.367808,
      "tags": {
        "name": "Arkansas Consumer Node",
        "consumer": "yes",
        "consumer:type": "county-equivalent",
        "load:mw": "59.64",
        "consumption:gwh:annual": "522.46",
        "year": "2024",
        "operator": "County-equivalent aggregate",
        "source:name": "EIA Form 861 Annual Electric Power Industry Report"
      }
    },
    {
      "type": "node",
      "id": "consumer-county-003",
      "lat": 33.087625,
      "lon": -91.76871,
      "tags": {
        "name": "Ashley Consumer Node",
        "consumer": "yes",
        "consumer:type": "county-equivalent",
        "load:mw": "41.14",
        "consumption:gwh:annual": "360.36",
        "year": "2024",
        "operator": "County-equivalent aggregate",
        "source:name": "EIA Form 861 Annual Electric Power Industry Report"
      }
    },
    {
      "type": "node",
      "id": "consumer-county-005",
      "lat": 36.292479,
      "lon": -92.322141,
      "tags": {
        "name": "Baxter Consumer Node",
        "consumer": "yes",
        "consumer:type": "county-equivalent",
        "load:mw": "51.33",
        "consumption:gwh:annual": "449.65",
        "year": "2024",
        "operator": "County-equivalent aggregate",
        "source:name": "EIA Form 861 Annual Electric Power Industry Report"
      }
    },
    {
      "type": "node",
      "id": "consumer-county-007",
      "lat": 36.33657,
      "lon": -94.372752,
      "tags": {
        "name": "Benton Consumer Node",
        "consumer": "yes",
        "consumer:type": "county-equivalent",
        "load:mw": "232.96",
        "consumption:gwh:annual": "2040.76",
        "year": "2024",
        "operator": "County-equivalent aggregate",
        "source:name": "EIA Form 861 Annual Electric Power Industry Report"
      }
    },
    {
      "type": "node",
      "id": "consumer-county-009",
      "lat": 36.378969,
      "lon": -93.052026,
      "tags": {
        "name": "Boone Consumer Node",
        "consumer": "yes",
        "consumer:type": "county-equivalent",
        "load:mw": "75.83",
        "consumption:gwh:annual": "664.31",
        "year": "2024",
        "operator": "County-equivalent aggregate",
        "source:name": "EIA Form 861 Annual Electric Power Industry Report"
      }
    },
    {
      "type": "node",
      "id": "consumer-county-011",
      "lat": 33.43668,
      "lon": -92.13538,
      "tags": {
        "name": "Bradley Consumer Node",
        "consumer": "yes",
        "consumer:type": "county-equivalent",
        "load:mw": "51.22",
        "consumption:gwh:annual": "448.70",
        "year": "2024",
        "operator": "County-equivalent aggregate",
        "source:name": "EIA Form 861 Annual Electric Power Industry Report"
      }
    },
    {
      "type": "node",
      "id": "consumer-county-013",
      "lat": 33.525207,
      "lon": -92.529263,
      "tags": {
        "name": "Calhoun Consumer Node",
        "consumer": "yes",
        "consumer:type": "county-equivalent",
        "load:mw": "46.57",
        "consumption:gwh:annual": "407.96",
        "year": "2024",
        "operator": "County-equivalent aggregate",
        "source:name": "EIA Form 861 Annual Electric Power Industry Report"
      }
    },
    {
      "type": "node",
      "id": "consumer-county-015",
      "lat": 36.4051,
      "lon": -93.569587,
      "tags": {
        "name": "Carroll Consumer Node",
        "consumer": "yes",
        "consumer:type": "county-equivalent",
        "load:mw": "103.88",
        "consumption:gwh:annual": "909.98",
        "year": "2024",
        "operator": "County-equivalent aggregate",
        "source:name": "EIA Form 861 Annual Electric Power Industry Report"
      }
    },
    {
      "type": "node",
      "id": "consumer-county-017",
      "lat": 33.245116,
      "lon": -91.261329,
      "tags": {
        "name": "Chicot Consumer Node",
        "consumer": "yes",
        "consumer:type": "county-equivalent",
        "load:mw": "41.14",
        "consumption:gwh:annual": "360.36",
        "year": "2024",
        "operator": "County-equivalent aggregate",
        "source:name": "EIA Form 861 Annual Electric Power Industry Report"
      }
    },
    {
      "type": "node",
      "id": "consumer-county-019",
      "lat": 34.115771,
      "lon": -93.206706,
      "tags": {
        "name": "Clark Consumer Node",
        "consumer": "yes",
        "consumer:type": "county-equivalent",
        "load:mw": "44.71",
        "consumption:gwh:annual": "391.62",
        "year": "2024",
        "operator": "County-equivalent aggregate",
        "source:name": "EIA Form 861 Annual Electric Power Industry Report"
      }
    },
    {
      "type": "node",
      "id": "consumer-county-021",
      "lat": 36.433307,
      "lon": -90.417848,
      "tags": {
        "name": "Clay Consumer Node",
        "consumer": "yes",
        "consumer:type": "county-equivalent",
        "load:mw": "49.34",
        "consumption:gwh:annual": "432.24",
        "year": "2024",
        "operator": "County-equivalent aggregate",
        "source:name": "EIA Form 861 Annual Electric Power Industry Report"
      }
    },
    {
      "type": "node",
      "id": "consumer-county-023",
      "lat": 35.534465,
      "lon": -91.936084,
      "tags": {
        "name": "Cleburne Consumer Node",
        "consumer": "yes",
        "consumer:type": "county-equivalent",
        "load:mw": "58.76",
        "consumption:gwh:annual": "514.70",
        "year": "2024",
        "operator": "County-equivalent aggregate",
        "source:name": "EIA Form 861 Annual Electric Power Industry Report"
      }
    },
    {
      "type": "node",
      "id": "consumer-county-025",
      "lat": 33.930825,
      "lon": -92.201596,
      "tags": {
        "name": "Cleveland Consumer Node",
        "consumer": "yes",
        "consumer:type": "county-equivalent",
        "load:mw": "45.79",
        "consumption:gwh:annual": "401.10",
        "year": "2024",
        "operator": "County-equivalent aggregate",
        "source:name": "EIA Form 861 Annual Electric Power Industry Report"
      }
    },
    {
      "type": "node",
      "id": "consumer-county-027",
      "lat": 33.107814,
      "lon": -93.240423,
      "tags": {
        "name": "Columbia Consumer Node",
        "consumer": "yes",
        "consumer:type": "county-equivalent",
        "load:mw": "50.99",
        "consumption:gwh:annual": "446.64",
        "year": "2024",
        "operator": "County-equivalent aggregate",
        "source:name": "EIA Form 861 Annual Electric Power Industry Report"
      }
    },
    {
      "type": "node",
      "id": "consumer-county-029",
      "lat": 35.224972,
      "lon": -92.73988,
      "tags": {
        "name": "Conway Consumer Node",
        "consumer": "yes",
        "consumer:type": "county-equivalent",
        "load:mw": "58.76",
        "consumption:gwh:annual": "514.70",
        "year": "2024",
        "operator": "County-equivalent aggregate",
        "source:name": "EIA Form 861 Annual Electric Power Industry Report"
      }
    },
    {
      "type": "node",
      "id": "consumer-county-031",
      "lat": 35.92367,
      "lon": -90.532456,
      "tags": {
        "name": "Craighead Consumer Node",
        "consumer": "yes",
        "consumer:type": "county-equivalent",
        "load:mw": "209.81",
        "consumption:gwh:annual": "1837.91",
        "year": "2024",
        "operator": "County-equivalent aggregate",
        "source:name": "EIA Form 861 Annual Electric Power Industry Report"
      }
    },
    {
      "type": "node",
      "id": "consumer-county-033",
      "lat": 35.588186,
      "lon": -94.278149,
      "tags": {
        "name": "Crawford Consumer Node",
        "consumer": "yes",
        "consumer:type": "county-equivalent",
        "load:mw": "85.50",
        "consumption:gwh:annual": "748.94",
        "year": "2024",
        "operator": "County-equivalent aggregate",
        "source:name": "EIA Form 861 Annual Electric Power Industry Report"
      }
    },
    {
      "type": "node",
      "id": "consumer-county-035",
      "lat": 35.19919,
      "lon": -90.193142,
      "tags": {
        "name": "Crittenden Consumer Node",
        "consumer": "yes",
        "consumer:type": "county-equivalent",
        "load:mw": "91.02",
        "consumption:gwh:annual": "797.30",
        "year": "2024",
        "operator": "County-equivalent aggregate",
        "source:name": "EIA Form 861 Annual Electric Power Industry Report"
      }
    },
    {
      "type": "node",
      "id": "consumer-county-037",
      "lat": 35.31456,
      "lon": -90.861148,
      "tags": {
        "name": "Cross Consumer Node",
        "consumer": "yes",
        "consumer:type": "county-equivalent",
        "load:mw": "47.82",
        "consumption:gwh:annual": "418.93",
        "year": "2024",
        "operator": "County-equivalent aggregate",
        "source:name": "EIA Form 861 Annual Electric Power Industry Report"
      }
    },
    {
      "type": "node",
      "id": "consumer-county-039",
      "lat": 33.995469,
      "lon": -92.630147,
      "tags": {
        "name": "Dallas Consumer Node",
        "consumer": "yes",
        "consumer:type": "county-equivalent",
        "load:mw": "54.79",
        "consumption:gwh:annual": "479.96",
        "year": "2024",
        "operator": "County-equivalent aggregate",
        "source:name": "EIA Form 861 Annual Electric Power Industry Report"
      }
    },
    {
      "type": "node",
      "id": "consumer-county-041",
      "lat": 33.808128,
      "lon": -91.154759,
      "tags": {
        "name": "Desha Consumer Node",
        "consumer": "yes",
        "consumer:type": "county-equivalent",
        "load:mw": "45.79",
        "consumption:gwh:annual": "401.10",
        "year": "2024",
        "operator": "County-equivalent aggregate",
        "source:name": "EIA Form 861 Annual Electric Power Industry Report"
      }
    },
    {
      "type": "node",
      "id": "consumer-county-043",
      "lat": 33.63333,
      "lon": -91.771298,
      "tags": {
        "name": "Drew Consumer Node",
        "consumer": "yes",
        "consumer:type": "county-equivalent",
        "load:mw": "45.79",
        "consumption:gwh:annual": "401.10",
        "year": "2024",
        "operator": "County-equivalent aggregate",
        "source:name": "EIA Form 861 Annual Electric Power Industry Report"
      }
    },
    {
      "type": "node",
      "id": "consumer-county-045",
      "lat": 35.128428,
      "lon": -92.320064,
      "tags": {
        "name": "Faulkner Consumer Node",
        "consumer": "yes",
        "consumer:type": "county-equivalent",
        "load:mw": "161.64",
        "consumption:gwh:annual": "1416.00",
        "year": "2024",
        "operator": "County-equivalent aggregate",
        "source:name": "EIA Form 861 Annual Electric Power Industry Report"
      }
    },
    {
      "type": "node",
      "id": "consumer-county-047",
      "lat": 35.504831,
      "lon": -93.933495,
      "tags": {
        "name": "Franklin Consumer Node",
        "consumer": "yes",
        "consumer:type": "county-equivalent",
        "load:mw": "85.50",
        "consumption:gwh:annual": "748.94",
        "year": "2024",
        "operator": "County-equivalent aggregate",
        "source:name": "EIA Form 861 Annual Electric Power Industry Report"
      }
    },
    {
      "type": "node",
      "id": "consumer-county-049",
      "lat": 36.465711,
      "lon": -91.822829,
      "tags": {
        "name": "Fulton Consumer Node",
        "consumer": "yes",
        "consumer:type": "county-equivalent",
        "load:mw": "51.33",
        "consumption:gwh:annual": "449.65",
        "year": "2024",
        "operator": "County-equivalent aggregate",
        "source:name": "EIA Form 861 Annual Electric Power Industry Report"
      }
    },
    {
      "type": "node",
      "id": "consumer-county-051",
      "lat": 34.643362,
      "lon": -93.108007,
      "tags": {
        "name": "Garland Consumer Node",
        "consumer": "yes",
        "consumer:type": "county-equivalent",
        "load:mw": "54.99",
        "consumption:gwh:annual": "481.72",
        "year": "2024",
        "operator": "County-equivalent aggregate",
        "source:name": "EIA Form 861 Annual Electric Power Industry Report"
      }
    },
    {
      "type": "node",
      "id": "consumer-county-053",
      "lat": 34.328631,
      "lon": -92.393429,
      "tags": {
        "name": "Grant Consumer Node",
        "consumer": "yes",
        "consumer:type": "county-equivalent",
        "load:mw": "59.64",
        "consumption:gwh:annual": "522.46",
        "year": "2024",
        "operator": "County-equivalent aggregate",
        "source:name": "EIA Form 861 Annual Electric Power Industry Report"
      }
    },
    {
      "type": "node",
      "id": "consumer-county-055",
      "lat": 36.123198,
      "lon": -90.481075,
      "tags": {
        "name": "Greene Consumer Node",
        "consumer": "yes",
        "consumer:type": "county-equivalent",
        "load:mw": "123.56",
        "consumption:gwh:annual": "1082.36",
        "year": "2024",
        "operator": "County-equivalent aggregate",
        "source:name": "EIA Form 861 Annual Electric Power Industry Report"
      }
    },
    {
      "type": "node",
      "id": "consumer-county-057",
      "lat": 33.621024,
      "lon": -93.784896,
      "tags": {
        "name": "Hempstead Consumer Node",
        "consumer": "yes",
        "consumer:type": "county-equivalent",
        "load:mw": "107.51",
        "consumption:gwh:annual": "941.82",
        "year": "2024",
        "operator": "County-equivalent aggregate",
        "source:name": "EIA Form 861 Annual Electric Power Industry Report"
      }
    },
    {
      "type": "node",
      "id": "consumer-county-059",
      "lat": 34.324105,
      "lon": -92.989322,
      "tags": {
        "name": "Hot Spring Consumer Node",
        "consumer": "yes",
        "consumer:type": "county-equivalent",
        "load:mw": "44.71",
        "consumption:gwh:annual": "391.62",
        "year": "2024",
        "operator": "County-equivalent aggregate",
        "source:name": "EIA Form 861 Annual Electric Power Industry Report"
      }
    },
    {
      "type": "node",
      "id": "consumer-county-061",
      "lat": 34.060566,
      "lon": -93.985481,
      "tags": {
        "name": "Howard Consumer Node",
        "consumer": "yes",
        "consumer:type": "county-equivalent",
        "load:mw": "41.46",
        "consumption:gwh:annual": "363.21",
        "year": "2024",
        "operator": "County-equivalent aggregate",
        "source:name": "EIA Form 861 Annual Electric Power Industry Report"
      }
    },
    {
      "type": "node",
      "id": "consumer-county-063",
      "lat": 35.765379,
      "lon": -91.588439,
      "tags": {
        "name": "Independence Consumer Node",
        "consumer": "yes",
        "consumer:type": "county-equivalent",
        "load:mw": "63.26",
        "consumption:gwh:annual": "554.15",
        "year": "2024",
        "operator": "County-equivalent aggregate",
        "source:name": "EIA Form 861 Annual Electric Power Industry Report"
      }
    },
    {
      "type": "node",
      "id": "consumer-county-065",
      "lat": 36.014063,
      "lon": -91.910377,
      "tags": {
        "name": "Izard Consumer Node",
        "consumer": "yes",
        "consumer:type": "county-equivalent",
        "load:mw": "51.33",
        "consumption:gwh:annual": "449.65",
        "year": "2024",
        "operator": "County-equivalent aggregate",
        "source:name": "EIA Form 861 Annual Electric Power Industry Report"
      }
    },
    {
      "type": "node",
      "id": "consumer-county-067",
      "lat": 35.59841,
      "lon": -91.271102,
      "tags": {
        "name": "Jackson Consumer Node",
        "consumer": "yes",
        "consumer:type": "county-equivalent",
        "load:mw": "41.14",
        "consumption:gwh:annual": "360.36",
        "year": "2024",
        "operator": "County-equivalent aggregate",
        "source:name": "EIA Form 861 Annual Electric Power Industry Report"
      }
    },
    {
      "type": "node",
      "id": "consumer-county-069",
      "lat": 34.247012,
      "lon": -91.884368,
      "tags": {
        "name": "Jefferson Consumer Node",
        "consumer": "yes",
        "consumer:type": "county-equivalent",
        "load:mw": "59.64",
        "consumption:gwh:annual": "522.46",
        "year": "2024",
        "operator": "County-equivalent aggregate",
        "source:name": "EIA Form 861 Annual Electric Power Industry Report"
      }
    },
    {
      "type": "node",
      "id": "consumer-county-071",
      "lat": 35.535307,
      "lon": -93.413477,
      "tags": {
        "name": "Johnson Consumer Node",
        "consumer": "yes",
        "consumer:type": "county-equivalent",
        "load:mw": "118.14",
        "consumption:gwh:annual": "1034.88",
        "year": "2024",
        "operator": "County-equivalent aggregate",
        "source:name": "EIA Form 861 Annual Electric Power Industry Report"
      }
    },
    {
      "type": "node",
      "id": "consumer-county-073",
      "lat": 33.19212,
      "lon": -93.597406,
      "tags": {
        "name": "Lafayette Consumer Node",
        "consumer": "yes",
        "consumer:type": "county-equivalent",
        "load:mw": "79.03",
        "consumption:gwh:annual": "692.31",
        "year": "2024",
        "operator": "County-equivalent aggregate",
        "source:name": "EIA Form 861 Annual Electric Power Industry Report"
      }
    },
    {
      "type": "node",
      "id": "consumer-county-075",
      "lat": 36.024097,
      "lon": -91.069913,
      "tags": {
        "name": "Lawrence Consumer Node",
        "consumer": "yes",
        "consumer:type": "county-equivalent",
        "load:mw": "59.60",
        "consumption:gwh:annual": "522.08",
        "year": "2024",
        "operator": "County-equivalent aggregate",
        "source:name": "EIA Form 861 Annual Electric Power Industry Report"
      }
    },
    {
      "type": "node",
      "id": "consumer-county-077",
      "lat": 34.760646,
      "lon": -90.590104,
      "tags": {
        "name": "Lee Consumer Node",
        "consumer": "yes",
        "consumer:type": "county-equivalent",
        "load:mw": "47.82",
        "consumption:gwh:annual": "418.93",
        "year": "2024",
        "operator": "County-equivalent aggregate",
        "source:name": "EIA Form 861 Annual Electric Power Industry Report"
      }
    },
    {
      "type": "node",
      "id": "consumer-county-079",
      "lat": 34.00613,
      "lon": -91.634624,
      "tags": {
        "name": "Lincoln Consumer Node",
        "consumer": "yes",
        "consumer:type": "county-equivalent",
        "load:mw": "45.79",
        "consumption:gwh:annual": "401.10",
        "year": "2024",
        "operator": "County-equivalent aggregate",
        "source:name": "EIA Form 861 Annual Electric Power Industry Report"
      }
    },
    {
      "type": "node",
      "id": "consumer-county-081",
      "lat": 33.703733,
      "lon": -94.329295,
      "tags": {
        "name": "Little River Consumer Node",
        "consumer": "yes",
        "consumer:type": "county-equivalent",
        "load:mw": "37.89",
        "consumption:gwh:annual": "331.95",
        "year": "2024",
        "operator": "County-equivalent aggregate",
        "source:name": "EIA Form 861 Annual Electric Power Industry Report"
      }
    },
    {
      "type": "node",
      "id": "consumer-county-083",
      "lat": 35.230828,
      "lon": -93.680189,
      "tags": {
        "name": "Logan Consumer Node",
        "consumer": "yes",
        "consumer:type": "county-equivalent",
        "load:mw": "123.69",
        "consumption:gwh:annual": "1083.56",
        "year": "2024",
        "operator": "County-equivalent aggregate",
        "source:name": "EIA Form 861 Annual Electric Power Industry Report"
      }
    },
    {
      "type": "node",
      "id": "consumer-county-085",
      "lat": 34.811858,
      "lon": -91.917599,
      "tags": {
        "name": "Lonoke Consumer Node",
        "consumer": "yes",
        "consumer:type": "county-equivalent",
        "load:mw": "54.99",
        "consumption:gwh:annual": "481.72",
        "year": "2024",
        "operator": "County-equivalent aggregate",
        "source:name": "EIA Form 861 Annual Electric Power Industry Report"
      }
    },
    {
      "type": "node",
      "id": "consumer-county-087",
      "lat": 35.988364,
      "lon": -93.726175,
      "tags": {
        "name": "Madison Consumer Node",
        "consumer": "yes",
        "consumer:type": "county-equivalent",
        "load:mw": "78.01",
        "consumption:gwh:annual": "683.33",
        "year": "2024",
        "operator": "County-equivalent aggregate",
        "source:name": "EIA Form 861 Annual Electric Power Industry Report"
      }
    },
    {
      "type": "node",
      "id": "consumer-county-089",
      "lat": 36.353158,
      "lon": -92.689674,
      "tags": {
        "name": "Marion Consumer Node",
        "consumer": "yes",
        "consumer:type": "county-equivalent",
        "load:mw": "55.09",
        "consumption:gwh:annual": "482.63",
        "year": "2024",
        "operator": "County-equivalent aggregate",
        "source:name": "EIA Form 861 Annual Electric Power Industry Report"
      }
    },
    {
      "type": "node",
      "id": "consumer-county-091",
      "lat": 33.352363,
      "lon": -93.929515,
      "tags": {
        "name": "Miller Consumer Node",
        "consumer": "yes",
        "consumer:type": "county-equivalent",
        "load:mw": "79.03",
        "consumption:gwh:annual": "692.31",
        "year": "2024",
        "operator": "County-equivalent aggregate",
        "source:name": "EIA Form 861 Annual Electric Power Industry Report"
      }
    },
    {
      "type": "node",
      "id": "consumer-county-093",
      "lat": 35.781836,
      "lon": -89.919768,
      "tags": {
        "name": "Mississippi Consumer Node",
        "consumer": "yes",
        "consumer:type": "county-equivalent",
        "load:mw": "406.55",
        "consumption:gwh:annual": "3561.39",
        "year": "2024",
        "operator": "County-equivalent aggregate",
        "source:name": "EIA Form 861 Annual Electric Power Industry Report"
      }
    },
    {
      "type": "node",
      "id": "consumer-county-095",
      "lat": 34.649954,
      "lon": -91.184871,
      "tags": {
        "name": "Monroe Consumer Node",
        "consumer": "yes",
        "consumer:type": "county-equivalent",
        "load:mw": "61.68",
        "consumption:gwh:annual": "540.29",
        "year": "2024",
        "operator": "County-equivalent aggregate",
        "source:name": "EIA Form 861 Annual Electric Power Industry Report"
      }
    },
    {
      "type": "node",
      "id": "consumer-county-097",
      "lat": 34.504979,
      "lon": -93.596466,
      "tags": {
        "name": "Montgomery Consumer Node",
        "consumer": "yes",
        "consumer:type": "county-equivalent",
        "load:mw": "44.71",
        "consumption:gwh:annual": "391.62",
        "year": "2024",
        "operator": "County-equivalent aggregate",
        "source:name": "EIA Form 861 Annual Electric Power Industry Report"
      }
    },
    {
      "type": "node",
      "id": "consumer-county-099",
      "lat": 33.644575,
      "lon": -93.337731,
      "tags": {
        "name": "Nevada Consumer Node",
        "consumer": "yes",
        "consumer:type": "county-equivalent",
        "load:mw": "50.14",
        "consumption:gwh:annual": "439.22",
        "year": "2024",
        "operator": "County-equivalent aggregate",
        "source:name": "EIA Form 861 Annual Electric Power Industry Report"
      }
    },
    {
      "type": "node",
      "id": "consumer-county-101",
      "lat": 35.944785,
      "lon": -93.249644,
      "tags": {
        "name": "Newton Consumer Node",
        "consumer": "yes",
        "consumer:type": "county-equivalent",
        "load:mw": "91.93",
        "consumption:gwh:annual": "805.27",
        "year": "2024",
        "operator": "County-equivalent aggregate",
        "source:name": "EIA Form 861 Annual Electric Power Industry Report"
      }
    },
    {
      "type": "node",
      "id": "consumer-county-103",
      "lat": 33.541845,
      "lon": -92.775649,
      "tags": {
        "name": "Ouachita Consumer Node",
        "consumer": "yes",
        "consumer:type": "county-equivalent",
        "load:mw": "46.57",
        "consumption:gwh:annual": "407.96",
        "year": "2024",
        "operator": "County-equivalent aggregate",
        "source:name": "EIA Form 861 Annual Electric Power Industry Report"
      }
    },
    {
      "type": "node",
      "id": "consumer-county-105",
      "lat": 34.925543,
      "lon": -92.90455,
      "tags": {
        "name": "Perry Consumer Node",
        "consumer": "yes",
        "consumer:type": "county-equivalent",
        "load:mw": "54.99",
        "consumption:gwh:annual": "481.72",
        "year": "2024",
        "operator": "County-equivalent aggregate",
        "source:name": "EIA Form 861 Annual Electric Power Industry Report"
      }
    },
    {
      "type": "node",
      "id": "consumer-county-107",
      "lat": 34.323463,
      "lon": -90.847011,
      "tags": {
        "name": "Phillips Consumer Node",
        "consumer": "yes",
        "consumer:type": "county-equivalent",
        "load:mw": "47.82",
        "consumption:gwh:annual": "418.93",
        "year": "2024",
        "operator": "County-equivalent aggregate",
        "source:name": "EIA Form 861 Annual Electric Power Industry Report"
      }
    },
    {
      "type": "node",
      "id": "consumer-county-109",
      "lat": 34.132705,
      "lon": -93.671205,
      "tags": {
        "name": "Pike Consumer Node",
        "consumer": "yes",
        "consumer:type": "county-equivalent",
        "load:mw": "72.75",
        "consumption:gwh:annual": "637.28",
        "year": "2024",
        "operator": "County-equivalent aggregate",
        "source:name": "EIA Form 861 Annual Electric Power Industry Report"
      }
    },
    {
      "type": "node",
      "id": "consumer-county-111",
      "lat": 35.540433,
      "lon": -90.622046,
      "tags": {
        "name": "Poinsett Consumer Node",
        "consumer": "yes",
        "consumer:type": "county-equivalent",
        "load:mw": "49.40",
        "consumption:gwh:annual": "432.78",
        "year": "2024",
        "operator": "County-equivalent aggregate",
        "source:name": "EIA Form 861 Annual Electric Power Industry Report"
      }
    },
    {
      "type": "node",
      "id": "consumer-county-113",
      "lat": 34.476386,
      "lon": -94.353161,
      "tags": {
        "name": "Polk Consumer Node",
        "consumer": "yes",
        "consumer:type": "county-equivalent",
        "load:mw": "37.89",
        "consumption:gwh:annual": "331.95",
        "year": "2024",
        "operator": "County-equivalent aggregate",
        "source:name": "EIA Form 861 Annual Electric Power Industry Report"
      }
    },
    {
      "type": "node",
      "id": "consumer-county-115",
      "lat": 35.416013,
      "lon": -93.085574,
      "tags": {
        "name": "Pope Consumer Node",
        "consumer": "yes",
        "consumer:type": "county-equivalent",
        "load:mw": "91.93",
        "consumption:gwh:annual": "805.27",
        "year": "2024",
        "operator": "County-equivalent aggregate",
        "source:name": "EIA Form 861 Annual Electric Power Industry Report"
      }
    },
    {
      "type": "node",
      "id": "consumer-county-117",
      "lat": 34.817316,
      "lon": -91.562198,
      "tags": {
        "name": "Prairie Consumer Node",
        "consumer": "yes",
        "consumer:type": "county-equivalent",
        "load:mw": "61.68",
        "consumption:gwh:annual": "540.29",
        "year": "2024",
        "operator": "County-equivalent aggregate",
        "source:name": "EIA Form 861 Annual Electric Power Industry Report"
      }
    },
    {
      "type": "node",
      "id": "consumer-county-119",
      "lat": 34.729682,
      "lon": -92.342354,
      "tags": {
        "name": "Pulaski Consumer Node",
        "consumer": "yes",
        "consumer:type": "county-equivalent",
        "load:mw": "156.74",
        "consumption:gwh:annual": "1373.03",
        "year": "2024",
        "operator": "County-equivalent aggregate",
        "source:name": "EIA Form 861 Annual Electric Power Industry Report"
      }
    },
    {
      "type": "node",
      "id": "consumer-county-121",
      "lat": 36.440607,
      "lon": -91.054264,
      "tags": {
        "name": "Randolph Consumer Node",
        "consumer": "yes",
        "consumer:type": "county-equivalent",
        "load:mw": "57.61",
        "consumption:gwh:annual": "504.67",
        "year": "2024",
        "operator": "County-equivalent aggregate",
        "source:name": "EIA Form 861 Annual Electric Power Industry Report"
      }
    },
    {
      "type": "node",
      "id": "consumer-county-125",
      "lat": 34.627287,
      "lon": -92.616397,
      "tags": {
        "name": "Saline Consumer Node",
        "consumer": "yes",
        "consumer:type": "county-equivalent",
        "load:mw": "87.36",
        "consumption:gwh:annual": "765.28",
        "year": "2024",
        "operator": "County-equivalent aggregate",
        "source:name": "EIA Form 861 Annual Electric Power Industry Report"
      }
    },
    {
      "type": "node",
      "id": "consumer-county-127",
      "lat": 34.869857,
      "lon": -94.23596,
      "tags": {
        "name": "Scott Consumer Node",
        "consumer": "yes",
        "consumer:type": "county-equivalent",
        "load:mw": "123.69",
        "consumption:gwh:annual": "1083.56",
        "year": "2024",
        "operator": "County-equivalent aggregate",
        "source:name": "EIA Form 861 Annual Electric Power Industry Report"
      }
    },
    {
      "type": "node",
      "id": "consumer-county-129",
      "lat": 35.923828,
      "lon": -92.647056,
      "tags": {
        "name": "Searcy Consumer Node",
        "consumer": "yes",
        "consumer:type": "county-equivalent",
        "load:mw": "44.90",
        "consumption:gwh:annual": "393.34",
        "year": "2024",
        "operator": "County-equivalent aggregate",
        "source:name": "EIA Form 861 Annual Electric Power Industry Report"
      }
    },
    {
      "type": "node",
      "id": "consumer-county-131",
      "lat": 35.248171,
      "lon": -94.353674,
      "tags": {
        "name": "Sebastian Consumer Node",
        "consumer": "yes",
        "consumer:type": "county-equivalent",
        "load:mw": "82.56",
        "consumption:gwh:annual": "723.21",
        "year": "2024",
        "operator": "County-equivalent aggregate",
        "source:name": "EIA Form 861 Annual Electric Power Industry Report"
      }
    },
    {
      "type": "node",
      "id": "consumer-county-133",
      "lat": 33.965617,
      "lon": -94.293957,
      "tags": {
        "name": "Sevier Consumer Node",
        "consumer": "yes",
        "consumer:type": "county-equivalent",
        "load:mw": "37.89",
        "consumption:gwh:annual": "331.95",
        "year": "2024",
        "operator": "County-equivalent aggregate",
        "source:name": "EIA Form 861 Annual Electric Power Industry Report"
      }
    },
    {
      "type": "node",
      "id": "consumer-county-135",
      "lat": 36.275186,
      "lon": -91.466361,
      "tags": {
        "name": "Sharp Consumer Node",
        "consumer": "yes",
        "consumer:type": "county-equivalent",
        "load:mw": "67.80",
        "consumption:gwh:annual": "593.96",
        "year": "2024",
        "operator": "County-equivalent aggregate",
        "source:name": "EIA Form 861 Annual Electric Power Industry Report"
      }
    },
    {
      "type": "node",
      "id": "consumer-county-123",
      "lat": 34.994311,
      "lon": -90.831007,
      "tags": {
        "name": "St. Francis Consumer Node",
        "consumer": "yes",
        "consumer:type": "county-equivalent",
        "load:mw": "47.82",
        "consumption:gwh:annual": "418.93",
        "year": "2024",
        "operator": "County-equivalent aggregate",
        "source:name": "EIA Form 861 Annual Electric Power Industry Report"
      }
    },
    {
      "type": "node",
      "id": "consumer-county-137",
      "lat": 35.921528,
      "lon": -92.158232,
      "tags": {
        "name": "Stone Consumer Node",
        "consumer": "yes",
        "consumer:type": "county-equivalent",
        "load:mw": "68.95",
        "consumption:gwh:annual": "604.00",
        "year": "2024",
        "operator": "County-equivalent aggregate",
        "source:name": "EIA Form 861 Annual Electric Power Industry Report"
      }
    },
    {
      "type": "node",
      "id": "consumer-county-139",
      "lat": 33.076554,
      "lon": -92.587722,
      "tags": {
        "name": "Union Consumer Node",
        "consumer": "yes",
        "consumer:type": "county-equivalent",
        "load:mw": "41.14",
        "consumption:gwh:annual": "360.36",
        "year": "2024",
        "operator": "County-equivalent aggregate",
        "source:name": "EIA Form 861 Annual Electric Power Industry Report"
      }
    },
    {
      "type": "node",
      "id": "consumer-county-141",
      "lat": 35.592565,
      "lon": -92.572885,
      "tags": {
        "name": "Van Buren Consumer Node",
        "consumer": "yes",
        "consumer:type": "county-equivalent",
        "load:mw": "44.90",
        "consumption:gwh:annual": "393.34",
        "year": "2024",
        "operator": "County-equivalent aggregate",
        "source:name": "EIA Form 861 Annual Electric Power Industry Report"
      }
    },
    {
      "type": "node",
      "id": "consumer-county-143",
      "lat": 35.929904,
      "lon": -94.416105,
      "tags": {
        "name": "Washington Consumer Node",
        "consumer": "yes",
        "consumer:type": "county-equivalent",
        "load:mw": "148.24",
        "consumption:gwh:annual": "1298.56",
        "year": "2024",
        "operator": "County-equivalent aggregate",
        "source:name": "EIA Form 861 Annual Electric Power Industry Report"
      }
    },
    {
      "type": "node",
      "id": "consumer-county-145",
      "lat": 35.249944,
      "lon": -91.686289,
      "tags": {
        "name": "White Consumer Node",
        "consumer": "yes",
        "consumer:type": "county-equivalent",
        "load:mw": "54.99",
        "consumption:gwh:annual": "481.72",
        "year": "2024",
        "operator": "County-equivalent aggregate",
        "source:name": "EIA Form 861 Annual Electric Power Industry Report"
      }
    },
    {
      "type": "node",
      "id": "consumer-county-147",
      "lat": 35.15605,
      "lon": -91.280187,
      "tags": {
        "name": "Woodruff Consumer Node",
        "consumer": "yes",
        "consumer:type": "county-equivalent",
        "load:mw": "47.82",
        "consumption:gwh:annual": "418.93",
        "year": "2024",
        "operator": "County-equivalent aggregate",
        "source:name": "EIA Form 861 Annual Electric Power Industry Report"
      }
    },
    {
      "type": "node",
      "id": "consumer-county-149",
      "lat": 35.041084,
      "lon": -93.310987,
      "tags": {
        "name": "Yell Consumer Node",
        "consumer": "yes",
        "consumer:type": "county-equivalent",
        "load:mw": "67.32",
        "consumption:gwh:annual": "589.70",
        "year": "2024",
        "operator": "County-equivalent aggregate",
        "source:name": "EIA Form 861 Annual Electric Power Industry Report"
      }
    }
  ]
}
