{
  "source": {
    "name": "EIA Form 861 Annual Electric Power Industry Report (2024)",
    "year": 2024,
    "state": "Georgia",
    "methodology": "Utility annual electricity sales (MWh) from Sales_Ult_Cust worksheet distributed equally across each utility's service county-equivalents (Service_Territory worksheet). County-equivalent centroid geometry from US Census GeoJSON.",
    "workbook": "Sales_Ult_Cust_2024.xlsx + Service_Territory_2024.xlsx",
    "workbook_url": "https://www.eia.gov/electricity/data/eia861/zip/f8612024.zip",
    "download_page": "https://www.eia.gov/electricity/data/eia861/",
    "geometry_source": "https://raw.githubusercontent.com/plotly/datasets/master/geojson-counties-fips.json",
    "generated_at": "2026-04-24T22:23:06.211081Z"
  },
  "count": 159,
  "total_gwh_annual": 146179.0,
  "elements": [
    {
      "type": "node",
      "id": "consumer-county-001",
      "lat": 31.770815,
      "lon": -82.303168,
      "tags": {
        "name": "Appling Consumer Node",
        "consumer": "yes",
        "consumer:type": "county-equivalent",
        "load:mw": "75.27",
        "consumption:gwh:annual": "659.37",
        "year": "2024",
        "operator": "County-equivalent aggregate",
        "source:name": "EIA Form 861 Annual Electric Power Industry Report"
      }
    },
    {
      "type": "node",
      "id": "consumer-county-003",
      "lat": 31.283185,
      "lon": -82.8595,
      "tags": {
        "name": "Atkinson Consumer Node",
        "consumer": "yes",
        "consumer:type": "county-equivalent",
        "load:mw": "75.27",
        "consumption:gwh:annual": "659.37",
        "year": "2024",
        "operator": "County-equivalent aggregate",
        "source:name": "EIA Form 861 Annual Electric Power Industry Report"
      }
    },
    {
      "type": "node",
      "id": "consumer-county-005",
      "lat": 31.564745,
      "lon": -82.47472,
      "tags": {
        "name": "Bacon Consumer Node",
        "consumer": "yes",
        "consumer:type": "county-equivalent",
        "load:mw": "75.27",
        "consumption:gwh:annual": "659.37",
        "year": "2024",
        "operator": "County-equivalent aggregate",
        "source:name": "EIA Form 861 Annual Electric Power Industry Report"
      }
    },
    {
      "type": "node",
      "id": "consumer-county-007",
      "lat": 31.286047,
      "lon": -84.458711,
      "tags": {
        "name": "Baker Consumer Node",
        "consumer": "yes",
        "consumer:type": "county-equivalent",
        "load:mw": "72.33",
        "consumption:gwh:annual": "633.60",
        "year": "2024",
        "operator": "County-equivalent aggregate",
        "source:name": "EIA Form 861 Annual Electric Power Industry Report"
      }
    },
    {
      "type": "node",
      "id": "consumer-county-009",
      "lat": 33.058523,
      "lon": -83.227238,
      "tags": {
        "name": "Baldwin Consumer Node",
        "consumer": "yes",
        "consumer:type": "county-equivalent",
        "load:mw": "79.40",
        "consumption:gwh:annual": "695.55",
        "year": "2024",
        "operator": "County-equivalent aggregate",
        "source:name": "EIA Form 861 Annual Electric Power Industry Report"
      }
    },
    {
      "type": "node",
      "id": "consumer-county-011",
      "lat": 34.330981,
      "lon": -83.462423,
      "tags": {
        "name": "Banks Consumer Node",
        "consumer": "yes",
        "consumer:type": "county-equivalent",
        "load:mw": "133.17",
        "consumption:gwh:annual": "1166.57",
        "year": "2024",
        "operator": "County-equivalent aggregate",
        "source:name": "EIA Form 861 Annual Electric Power Industry Report"
      }
    },
    {
      "type": "node",
      "id": "consumer-county-013",
      "lat": 33.98165,
      "lon": -83.712437,
      "tags": {
        "name": "Barrow Consumer Node",
        "consumer": "yes",
        "consumer:type": "county-equivalent",
        "load:mw": "166.80",
        "consumption:gwh:annual": "1461.18",
        "year": "2024",
        "operator": "County-equivalent aggregate",
        "source:name": "EIA Form 861 Annual Electric Power Industry Report"
      }
    },
    {
      "type": "node",
      "id": "consumer-county-015",
      "lat": 34.150904,
      "lon": -84.767825,
      "tags": {
        "name": "Bartow Consumer Node",
        "consumer": "yes",
        "consumer:type": "county-equivalent",
        "load:mw": "288.88",
        "consumption:gwh:annual": "2530.55",
        "year": "2024",
        "operator": "County-equivalent aggregate",
        "source:name": "EIA Form 861 Annual Electric Power Industry Report"
      }
    },
    {
      "type": "node",
      "id": "consumer-county-017",
      "lat": 31.752229,
      "lon": -83.228731,
      "tags": {
        "name": "Ben Hill Consumer Node",
        "consumer": "yes",
        "consumer:type": "county-equivalent",
        "load:mw": "75.27",
        "consumption:gwh:annual": "659.37",
        "year": "2024",
        "operator": "County-equivalent aggregate",
        "source:name": "EIA Form 861 Annual Electric Power Industry Report"
      }
    },
    {
      "type": "node",
      "id": "consumer-county-019",
      "lat": 31.296557,
      "lon": -83.181956,
      "tags": {
        "name": "Berrien Consumer Node",
        "consumer": "yes",
        "consumer:type": "county-equivalent",
        "load:mw": "79.14",
        "consumption:gwh:annual": "693.25",
        "year": "2024",
        "operator": "County-equivalent aggregate",
        "source:name": "EIA Form 861 Annual Electric Power Industry Report"
      }
    },
    {
      "type": "node",
      "id": "consumer-county-021",
      "lat": 32.820689,
      "lon": -83.67898,
      "tags": {
        "name": "Bibb Consumer Node",
        "consumer": "yes",
        "consumer:type": "county-equivalent",
        "load:mw": "102.88",
        "consumption:gwh:annual": "901.24",
        "year": "2024",
        "operator": "County-equivalent aggregate",
        "source:name": "EIA Form 861 Annual Electric Power Industry Report"
      }
    },
    {
      "type": "node",
      "id": "consumer-county-023",
      "lat": 32.437433,
      "lon": -83.321689,
      "tags": {
        "name": "Bleckley Consumer Node",
        "consumer": "yes",
        "consumer:type": "county-equivalent",
        "load:mw": "68.46",
        "consumption:gwh:annual": "599.69",
        "year": "2024",
        "operator": "County-equivalent aggregate",
        "source:name": "EIA Form 861 Annual Electric Power Industry Report"
      }
    },
    {
      "type": "node",
      "id": "consumer-county-025",
      "lat": 31.200467,
      "lon": -82.022082,
      "tags": {
        "name": "Brantley Consumer Node",
        "consumer": "yes",
        "consumer:type": "county-equivalent",
        "load:mw": "88.06",
        "consumption:gwh:annual": "771.40",
        "year": "2024",
        "operator": "County-equivalent aggregate",
        "source:name": "EIA Form 861 Annual Electric Power Industry Report"
      }
    },
    {
      "type": "node",
      "id": "consumer-county-027",
      "lat": 30.881475,
      "lon": -83.497384,
      "tags": {
        "name": "Brooks Consumer Node",
        "consumer": "yes",
        "consumer:type": "county-equivalent",
        "load:mw": "85.15",
        "consumption:gwh:annual": "745.93",
        "year": "2024",
        "operator": "County-equivalent aggregate",
        "source:name": "EIA Form 861 Annual Electric Power Industry Report"
      }
    },
    {
      "type": "node",
      "id": "consumer-county-029",
      "lat": 31.941089,
      "lon": -81.377057,
      "tags": {
        "name": "Bryan Consumer Node",
        "consumer": "yes",
        "consumer:type": "county-equivalent",
        "load:mw": "94.67",
        "consumption:gwh:annual": "829.31",
        "year": "2024",
        "operator": "County-equivalent aggregate",
        "source:name": "EIA Form 861 Annual Electric Power Industry Report"
      }
    },
    {
      "type": "node",
      "id": "consumer-county-031",
      "lat": 32.405515,
      "lon": -81.798557,
      "tags": {
        "name": "Bulloch Consumer Node",
        "consumer": "yes",
        "consumer:type": "county-equivalent",
        "load:mw": "82.94",
        "consumption:gwh:annual": "726.53",
        "year": "2024",
        "operator": "County-equivalent aggregate",
        "source:name": "EIA Form 861 Annual Electric Power Industry Report"
      }
    },
    {
      "type": "node",
      "id": "consumer-county-033",
      "lat": 33.082218,
      "lon": -81.96919,
      "tags": {
        "name": "Burke Consumer Node",
        "consumer": "yes",
        "consumer:type": "county-equivalent",
        "load:mw": "75.48",
        "consumption:gwh:annual": "661.18",
        "year": "2024",
        "operator": "County-equivalent aggregate",
        "source:name": "EIA Form 861 Annual Electric Power Industry Report"
      }
    },
    {
      "type": "node",
      "id": "consumer-county-035",
      "lat": 33.300674,
      "lon": -83.971463,
      "tags": {
        "name": "Butts Consumer Node",
        "consumer": "yes",
        "consumer:type": "county-equivalent",
        "load:mw": "105.01",
        "consumption:gwh:annual": "919.90",
        "year": "2024",
        "operator": "County-equivalent aggregate",
        "source:name": "EIA Form 861 Annual Electric Power Industry Report"
      }
    },
    {
      "type": "node",
      "id": "consumer-county-037",
      "lat": 31.545936,
      "lon": -84.609851,
      "tags": {
        "name": "Calhoun Consumer Node",
        "consumer": "yes",
        "consumer:type": "county-equivalent",
        "load:mw": "74.11",
        "consumption:gwh:annual": "649.21",
        "year": "2024",
        "operator": "County-equivalent aggregate",
        "source:name": "EIA Form 861 Annual Electric Power Industry Report"
      }
    },
    {
      "type": "node",
      "id": "consumer-county-039",
      "lat": 30.87968,
      "lon": -81.56832,
      "tags": {
        "name": "Camden Consumer Node",
        "consumer": "yes",
        "consumer:type": "county-equivalent",
        "load:mw": "77.03",
        "consumption:gwh:annual": "674.77",
        "year": "2024",
        "operator": "County-equivalent aggregate",
        "source:name": "EIA Form 861 Annual Electric Power Industry Report"
      }
    },
    {
      "type": "node",
      "id": "consumer-county-043",
      "lat": 32.359933,
      "lon": -82.060679,
      "tags": {
        "name": "Candler Consumer Node",
        "consumer": "yes",
        "consumer:type": "county-equivalent",
        "load:mw": "72.05",
        "consumption:gwh:annual": "631.20",
        "year": "2024",
        "operator": "County-equivalent aggregate",
        "source:name": "EIA Form 861 Annual Electric Power Industry Report"
      }
    },
    {
      "type": "node",
      "id": "consumer-county-045",
      "lat": 33.601551,
      "lon": -85.113667,
      "tags": {
        "name": "Carroll Consumer Node",
        "consumer": "yes",
        "consumer:type": "county-equivalent",
        "load:mw": "127.65",
        "consumption:gwh:annual": "1118.19",
        "year": "2024",
        "operator": "County-equivalent aggregate",
        "source:name": "EIA Form 861 Annual Electric Power Industry Report"
      }
    },
    {
      "type": "node",
      "id": "consumer-county-047",
      "lat": 34.929243,
      "lon": -85.174701,
      "tags": {
        "name": "Catoosa Consumer Node",
        "consumer": "yes",
        "consumer:type": "county-equivalent",
        "load:mw": "113.41",
        "consumption:gwh:annual": "993.43",
        "year": "2024",
        "operator": "County-equivalent aggregate",
        "source:name": "EIA Form 861 Annual Electric Power Industry Report"
      }
    },
    {
      "type": "node",
      "id": "consumer-county-049",
      "lat": 30.644418,
      "lon": -82.108995,
      "tags": {
        "name": "Charlton Consumer Node",
        "consumer": "yes",
        "consumer:type": "county-equivalent",
        "load:mw": "77.03",
        "consumption:gwh:annual": "674.77",
        "year": "2024",
        "operator": "County-equivalent aggregate",
        "source:name": "EIA Form 861 Annual Electric Power Industry Report"
      }
    },
    {
      "type": "node",
      "id": "consumer-county-051",
      "lat": 31.927445,
      "lon": -81.025966,
      "tags": {
        "name": "Chatham Consumer Node",
        "consumer": "yes",
        "consumer:type": "county-equivalent",
        "load:mw": "6.28",
        "consumption:gwh:annual": "55.04",
        "year": "2024",
        "operator": "County-equivalent aggregate",
        "source:name": "EIA Form 861 Annual Electric Power Industry Report"
      }
    },
    {
      "type": "node",
      "id": "consumer-county-053",
      "lat": 32.399804,
      "lon": -84.815654,
      "tags": {
        "name": "Chattahoochee Consumer Node",
        "consumer": "yes",
        "consumer:type": "county-equivalent",
        "load:mw": "81.40",
        "consumption:gwh:annual": "713.02",
        "year": "2024",
        "operator": "County-equivalent aggregate",
        "source:name": "EIA Form 861 Annual Electric Power Industry Report"
      }
    },
    {
      "type": "node",
      "id": "consumer-county-055",
      "lat": 34.472853,
      "lon": -85.434304,
      "tags": {
        "name": "Chattooga Consumer Node",
        "consumer": "yes",
        "consumer:type": "county-equivalent",
        "load:mw": "104.28",
        "consumption:gwh:annual": "913.47",
        "year": "2024",
        "operator": "County-equivalent aggregate",
        "source:name": "EIA Form 861 Annual Electric Power Industry Report"
      }
    },
    {
      "type": "node",
      "id": "consumer-county-057",
      "lat": 34.26599,
      "lon": -84.392685,
      "tags": {
        "name": "Cherokee Consumer Node",
        "consumer": "yes",
        "consumer:type": "county-equivalent",
        "load:mw": "229.82",
        "consumption:gwh:annual": "2013.27",
        "year": "2024",
        "operator": "County-equivalent aggregate",
        "source:name": "EIA Form 861 Annual Electric Power Industry Report"
      }
    },
    {
      "type": "node",
      "id": "consumer-county-059",
      "lat": 33.966427,
      "lon": -83.338774,
      "tags": {
        "name": "Clarke Consumer Node",
        "consumer": "yes",
        "consumer:type": "county-equivalent",
        "load:mw": "170.22",
        "consumption:gwh:annual": "1491.10",
        "year": "2024",
        "operator": "County-equivalent aggregate",
        "source:name": "EIA Form 861 Annual Electric Power Industry Report"
      }
    },
    {
      "type": "node",
      "id": "consumer-county-061",
      "lat": 31.656871,
      "lon": -85.037775,
      "tags": {
        "name": "Clay Consumer Node",
        "consumer": "yes",
        "consumer:type": "county-equivalent",
        "load:mw": "74.74",
        "consumption:gwh:annual": "654.75",
        "year": "2024",
        "operator": "County-equivalent aggregate",
        "source:name": "EIA Form 861 Annual Electric Power Industry Report"
      }
    },
    {
      "type": "node",
      "id": "consumer-county-063",
      "lat": 33.545961,
      "lon": -84.395808,
      "tags": {
        "name": "Clayton Consumer Node",
        "consumer": "yes",
        "consumer:type": "county-equivalent",
        "load:mw": "120.52",
        "consumption:gwh:annual": "1055.76",
        "year": "2024",
        "operator": "County-equivalent aggregate",
        "source:name": "EIA Form 861 Annual Electric Power Industry Report"
      }
    },
    {
      "type": "node",
      "id": "consumer-county-065",
      "lat": 30.743038,
      "lon": -82.59623,
      "tags": {
        "name": "Clinch Consumer Node",
        "consumer": "yes",
        "consumer:type": "county-equivalent",
        "load:mw": "64.24",
        "consumption:gwh:annual": "562.75",
        "year": "2024",
        "operator": "County-equivalent aggregate",
        "source:name": "EIA Form 861 Annual Electric Power Industry Report"
      }
    },
    {
      "type": "node",
      "id": "consumer-county-067",
      "lat": 33.973811,
      "lon": -84.644624,
      "tags": {
        "name": "Cobb Consumer Node",
        "consumer": "yes",
        "consumer:type": "county-equivalent",
        "load:mw": "312.74",
        "consumption:gwh:annual": "2739.61",
        "year": "2024",
        "operator": "County-equivalent aggregate",
        "source:name": "EIA Form 861 Annual Electric Power Industry Report"
      }
    },
    {
      "type": "node",
      "id": "consumer-county-069",
      "lat": 31.527818,
      "lon": -82.942376,
      "tags": {
        "name": "Coffee Consumer Node",
        "consumer": "yes",
        "consumer:type": "county-equivalent",
        "load:mw": "119.22",
        "consumption:gwh:annual": "1044.35",
        "year": "2024",
        "operator": "County-equivalent aggregate",
        "source:name": "EIA Form 861 Annual Electric Power Industry Report"
      }
    },
    {
      "type": "node",
      "id": "consumer-county-071",
      "lat": 31.180274,
      "lon": -83.756784,
      "tags": {
        "name": "Colquitt Consumer Node",
        "consumer": "yes",
        "consumer:type": "county-equivalent",
        "load:mw": "88.88",
        "consumption:gwh:annual": "778.59",
        "year": "2024",
        "operator": "County-equivalent aggregate",
        "source:name": "EIA Form 861 Annual Electric Power Industry Report"
      }
    },
    {
      "type": "node",
      "id": "consumer-county-073",
      "lat": 33.588162,
      "lon": -82.182655,
      "tags": {
        "name": "Columbia Consumer Node",
        "consumer": "yes",
        "consumer:type": "county-equivalent",
        "load:mw": "70.88",
        "consumption:gwh:annual": "620.88",
        "year": "2024",
        "operator": "County-equivalent aggregate",
        "source:name": "EIA Form 861 Annual Electric Power Industry Report"
      }
    },
    {
      "type": "node",
      "id": "consumer-county-075",
      "lat": 31.171344,
      "lon": -83.429305,
      "tags": {
        "name": "Cook Consumer Node",
        "consumer": "yes",
        "consumer:type": "county-equivalent",
        "load:mw": "79.14",
        "consumption:gwh:annual": "693.25",
        "year": "2024",
        "operator": "County-equivalent aggregate",
        "source:name": "EIA Form 861 Annual Electric Power Industry Report"
      }
    },
    {
      "type": "node",
      "id": "consumer-county-077",
      "lat": 33.308404,
      "lon": -84.72539,
      "tags": {
        "name": "Coweta Consumer Node",
        "consumer": "yes",
        "consumer:type": "county-equivalent",
        "load:mw": "185.54",
        "consumption:gwh:annual": "1625.37",
        "year": "2024",
        "operator": "County-equivalent aggregate",
        "source:name": "EIA Form 861 Annual Electric Power Industry Report"
      }
    },
    {
      "type": "node",
      "id": "consumer-county-079",
      "lat": 32.710109,
      "lon": -83.902167,
      "tags": {
        "name": "Crawford Consumer Node",
        "consumer": "yes",
        "consumer:type": "county-equivalent",
        "load:mw": "82.27",
        "consumption:gwh:annual": "720.71",
        "year": "2024",
        "operator": "County-equivalent aggregate",
        "source:name": "EIA Form 861 Annual Electric Power Industry Report"
      }
    },
    {
      "type": "node",
      "id": "consumer-county-081",
      "lat": 31.89079,
      "lon": -83.884743,
      "tags": {
        "name": "Crisp Consumer Node",
        "consumer": "yes",
        "consumer:type": "county-equivalent",
        "load:mw": "72.91",
        "consumption:gwh:annual": "638.68",
        "year": "2024",
        "operator": "County-equivalent aggregate",
        "source:name": "EIA Form 861 Annual Electric Power Industry Report"
      }
    },
    {
      "type": "node",
      "id": "consumer-county-083",
      "lat": 34.827873,
      "lon": -85.531791,
      "tags": {
        "name": "Dade Consumer Node",
        "consumer": "yes",
        "consumer:type": "county-equivalent",
        "load:mw": "73.37",
        "consumption:gwh:annual": "642.71",
        "year": "2024",
        "operator": "County-equivalent aggregate",
        "source:name": "EIA Form 861 Annual Electric Power Industry Report"
      }
    },
    {
      "type": "node",
      "id": "consumer-county-085",
      "lat": 34.465634,
      "lon": -84.204472,
      "tags": {
        "name": "Dawson Consumer Node",
        "consumer": "yes",
        "consumer:type": "county-equivalent",
        "load:mw": "136.09",
        "consumption:gwh:annual": "1192.17",
        "year": "2024",
        "operator": "County-equivalent aggregate",
        "source:name": "EIA Form 861 Annual Electric Power Industry Report"
      }
    },
    {
      "type": "node",
      "id": "consumer-county-087",
      "lat": 30.871947,
      "lon": -84.579452,
      "tags": {
        "name": "Decatur Consumer Node",
        "consumer": "yes",
        "consumer:type": "county-equivalent",
        "load:mw": "78.34",
        "consumption:gwh:annual": "686.28",
        "year": "2024",
        "operator": "County-equivalent aggregate",
        "source:name": "EIA Form 861 Annual Electric Power Industry Report"
      }
    },
    {
      "type": "node",
      "id": "consumer-county-089",
      "lat": 33.8269,
      "lon": -84.267403,
      "tags": {
        "name": "DeKalb Consumer Node",
        "consumer": "yes",
        "consumer:type": "county-equivalent",
        "load:mw": "140.29",
        "consumption:gwh:annual": "1228.98",
        "year": "2024",
        "operator": "County-equivalent aggregate",
        "source:name": "EIA Form 861 Annual Electric Power Industry Report"
      }
    },
    {
      "type": "node",
      "id": "consumer-county-091",
      "lat": 32.187878,
      "lon": -83.121487,
      "tags": {
        "name": "Dodge Consumer Node",
        "consumer": "yes",
        "consumer:type": "county-equivalent",
        "load:mw": "68.46",
        "consumption:gwh:annual": "599.69",
        "year": "2024",
        "operator": "County-equivalent aggregate",
        "source:name": "EIA Form 861 Annual Electric Power Industry Report"
      }
    },
    {
      "type": "node",
      "id": "consumer-county-093",
      "lat": 32.162567,
      "lon": -83.808076,
      "tags": {
        "name": "Dooly Consumer Node",
        "consumer": "yes",
        "consumer:type": "county-equivalent",
        "load:mw": "86.18",
        "consumption:gwh:annual": "754.96",
        "year": "2024",
        "operator": "County-equivalent aggregate",
        "source:name": "EIA Form 861 Annual Electric Power Industry Report"
      }
    },
    {
      "type": "node",
      "id": "consumer-county-095",
      "lat": 31.538638,
      "lon": -84.180926,
      "tags": {
        "name": "Dougherty Consumer Node",
        "consumer": "yes",
        "consumer:type": "county-equivalent",
        "load:mw": "125.61",
        "consumption:gwh:annual": "1100.39",
        "year": "2024",
        "operator": "County-equivalent aggregate",
        "source:name": "EIA Form 861 Annual Electric Power Industry Report"
      }
    },
    {
      "type": "node",
      "id": "consumer-county-097",
      "lat": 33.723655,
      "lon": -84.740515,
      "tags": {
        "name": "Douglas Consumer Node",
        "consumer": "yes",
        "consumer:type": "county-equivalent",
        "load:mw": "108.39",
        "consumption:gwh:annual": "949.47",
        "year": "2024",
        "operator": "County-equivalent aggregate",
        "source:name": "EIA Form 861 Annual Electric Power Industry Report"
      }
    },
    {
      "type": "node",
      "id": "consumer-county-099",
      "lat": 31.261581,
      "lon": -84.989972,
      "tags": {
        "name": "Early Consumer Node",
        "consumer": "yes",
        "consumer:type": "county-equivalent",
        "load:mw": "78.47",
        "consumption:gwh:annual": "687.41",
        "year": "2024",
        "operator": "County-equivalent aggregate",
        "source:name": "EIA Form 861 Annual Electric Power Industry Report"
      }
    },
    {
      "type": "node",
      "id": "consumer-county-101",
      "lat": 30.725578,
      "lon": -82.890888,
      "tags": {
        "name": "Echols Consumer Node",
        "consumer": "yes",
        "consumer:type": "county-equivalent",
        "load:mw": "79.14",
        "consumption:gwh:annual": "693.25",
        "year": "2024",
        "operator": "County-equivalent aggregate",
        "source:name": "EIA Form 861 Annual Electric Power Industry Report"
      }
    },
    {
      "type": "node",
      "id": "consumer-county-103",
      "lat": 32.407193,
      "lon": -81.289795,
      "tags": {
        "name": "Effingham Consumer Node",
        "consumer": "yes",
        "consumer:type": "county-equivalent",
        "load:mw": "76.65",
        "consumption:gwh:annual": "671.49",
        "year": "2024",
        "operator": "County-equivalent aggregate",
        "source:name": "EIA Form 861 Annual Electric Power Industry Report"
      }
    },
    {
      "type": "node",
      "id": "consumer-county-105",
      "lat": 34.132734,
      "lon": -82.738178,
      "tags": {
        "name": "Elbert Consumer Node",
        "consumer": "yes",
        "consumer:type": "county-equivalent",
        "load:mw": "76.44",
        "consumption:gwh:annual": "669.59",
        "year": "2024",
        "operator": "County-equivalent aggregate",
        "source:name": "EIA Form 861 Annual Electric Power Industry Report"
      }
    },
    {
      "type": "node",
      "id": "consumer-county-107",
      "lat": 32.551739,
      "lon": -82.324169,
      "tags": {
        "name": "Emanuel Consumer Node",
        "consumer": "yes",
        "consumer:type": "county-equivalent",
        "load:mw": "104.09",
        "consumption:gwh:annual": "911.81",
        "year": "2024",
        "operator": "County-equivalent aggregate",
        "source:name": "EIA Form 861 Annual Electric Power Industry Report"
      }
    },
    {
      "type": "node",
      "id": "consumer-county-109",
      "lat": 32.189083,
      "lon": -81.89121,
      "tags": {
        "name": "Evans Consumer Node",
        "consumer": "yes",
        "consumer:type": "county-equivalent",
        "load:mw": "78.34",
        "consumption:gwh:annual": "686.24",
        "year": "2024",
        "operator": "County-equivalent aggregate",
        "source:name": "EIA Form 861 Annual Electric Power Industry Report"
      }
    },
    {
      "type": "node",
      "id": "consumer-county-111",
      "lat": 34.869566,
      "lon": -84.321351,
      "tags": {
        "name": "Fannin Consumer Node",
        "consumer": "yes",
        "consumer:type": "county-equivalent",
        "load:mw": "53.49",
        "consumption:gwh:annual": "468.59",
        "year": "2024",
        "operator": "County-equivalent aggregate",
        "source:name": "EIA Form 861 Annual Electric Power Industry Report"
      }
    },
    {
      "type": "node",
      "id": "consumer-county-113",
      "lat": 33.385093,
      "lon": -84.486658,
      "tags": {
        "name": "Fayette Consumer Node",
        "consumer": "yes",
        "consumer:type": "county-equivalent",
        "load:mw": "143.61",
        "consumption:gwh:annual": "1258.00",
        "year": "2024",
        "operator": "County-equivalent aggregate",
        "source:name": "EIA Form 861 Annual Electric Power Industry Report"
      }
    },
    {
      "type": "node",
      "id": "consumer-county-115",
      "lat": 34.328149,
      "lon": -85.266069,
      "tags": {
        "name": "Floyd Consumer Node",
        "consumer": "yes",
        "consumer:type": "county-equivalent",
        "load:mw": "123.54",
        "consumption:gwh:annual": "1082.19",
        "year": "2024",
        "operator": "County-equivalent aggregate",
        "source:name": "EIA Form 861 Annual Electric Power Industry Report"
      }
    },
    {
      "type": "node",
      "id": "consumer-county-117",
      "lat": 34.164168,
      "lon": -84.115652,
      "tags": {
        "name": "Forsyth Consumer Node",
        "consumer": "yes",
        "consumer:type": "county-equivalent",
        "load:mw": "136.09",
        "consumption:gwh:annual": "1192.17",
        "year": "2024",
        "operator": "County-equivalent aggregate",
        "source:name": "EIA Form 861 Annual Electric Power Industry Report"
      }
    },
    {
      "type": "node",
      "id": "consumer-county-119",
      "lat": 34.380777,
      "lon": -83.205947,
      "tags": {
        "name": "Franklin Consumer Node",
        "consumer": "yes",
        "consumer:type": "county-equivalent",
        "load:mw": "133.17",
        "consumption:gwh:annual": "1166.57",
        "year": "2024",
        "operator": "County-equivalent aggregate",
        "source:name": "EIA Form 861 Annual Electric Power Industry Report"
      }
    },
    {
      "type": "node",
      "id": "consumer-county-121",
      "lat": 33.773329,
      "lon": -84.463094,
      "tags": {
        "name": "Fulton Consumer Node",
        "consumer": "yes",
        "consumer:type": "county-equivalent",
        "load:mw": "359.58",
        "consumption:gwh:annual": "3149.92",
        "year": "2024",
        "operator": "County-equivalent aggregate",
        "source:name": "EIA Form 861 Annual Electric Power Industry Report"
      }
    },
    {
      "type": "node",
      "id": "consumer-county-123",
      "lat": 34.681989,
      "lon": -84.487496,
      "tags": {
        "name": "Gilmer Consumer Node",
        "consumer": "yes",
        "consumer:type": "county-equivalent",
        "load:mw": "89.18",
        "consumption:gwh:annual": "781.24",
        "year": "2024",
        "operator": "County-equivalent aggregate",
        "source:name": "EIA Form 861 Annual Electric Power Industry Report"
      }
    },
    {
      "type": "node",
      "id": "consumer-county-125",
      "lat": 33.248959,
      "lon": -82.619568,
      "tags": {
        "name": "Glascock Consumer Node",
        "consumer": "yes",
        "consumer:type": "county-equivalent",
        "load:mw": "75.98",
        "consumption:gwh:annual": "665.54",
        "year": "2024",
        "operator": "County-equivalent aggregate",
        "source:name": "EIA Form 861 Annual Electric Power Industry Report"
      }
    },
    {
      "type": "node",
      "id": "consumer-county-127",
      "lat": 31.161589,
      "lon": -81.413032,
      "tags": {
        "name": "Glynn Consumer Node",
        "consumer": "yes",
        "consumer:type": "county-equivalent",
        "load:mw": "77.03",
        "consumption:gwh:annual": "674.77",
        "year": "2024",
        "operator": "County-equivalent aggregate",
        "source:name": "EIA Form 861 Annual Electric Power Industry Report"
      }
    },
    {
      "type": "node",
      "id": "consumer-county-129",
      "lat": 34.552995,
      "lon": -84.901036,
      "tags": {
        "name": "Gordon Consumer Node",
        "consumer": "yes",
        "consumer:type": "county-equivalent",
        "load:mw": "155.48",
        "consumption:gwh:annual": "1362.05",
        "year": "2024",
        "operator": "County-equivalent aggregate",
        "source:name": "EIA Form 861 Annual Electric Power Industry Report"
      }
    },
    {
      "type": "node",
      "id": "consumer-county-131",
      "lat": 30.831028,
      "lon": -84.233138,
      "tags": {
        "name": "Grady Consumer Node",
        "consumer": "yes",
        "consumer:type": "county-equivalent",
        "load:mw": "102.29",
        "consumption:gwh:annual": "896.10",
        "year": "2024",
        "operator": "County-equivalent aggregate",
        "source:name": "EIA Form 861 Annual Electric Power Industry Report"
      }
    },
    {
      "type": "node",
      "id": "consumer-county-133",
      "lat": 33.571527,
      "lon": -83.150586,
      "tags": {
        "name": "Greene Consumer Node",
        "consumer": "yes",
        "consumer:type": "county-equivalent",
        "load:mw": "113.48",
        "consumption:gwh:annual": "994.12",
        "year": "2024",
        "operator": "County-equivalent aggregate",
        "source:name": "EIA Form 861 Annual Electric Power Industry Report"
      }
    },
    {
      "type": "node",
      "id": "consumer-county-135",
      "lat": 33.977436,
      "lon": -84.124049,
      "tags": {
        "name": "Gwinnett Consumer Node",
        "consumer": "yes",
        "consumer:type": "county-equivalent",
        "load:mw": "279.46",
        "consumption:gwh:annual": "2448.04",
        "year": "2024",
        "operator": "County-equivalent aggregate",
        "source:name": "EIA Form 861 Annual Electric Power Industry Report"
      }
    },
    {
      "type": "node",
      "id": "consumer-county-137",
      "lat": 34.681877,
      "lon": -83.512485,
      "tags": {
        "name": "Habersham Consumer Node",
        "consumer": "yes",
        "consumer:type": "county-equivalent",
        "load:mw": "74.71",
        "consumption:gwh:annual": "654.49",
        "year": "2024",
        "operator": "County-equivalent aggregate",
        "source:name": "EIA Form 861 Annual Electric Power Industry Report"
      }
    },
    {
      "type": "node",
      "id": "consumer-county-139",
      "lat": 34.299374,
      "lon": -83.852317,
      "tags": {
        "name": "Hall Consumer Node",
        "consumer": "yes",
        "consumer:type": "county-equivalent",
        "load:mw": "205.48",
        "consumption:gwh:annual": "1799.97",
        "year": "2024",
        "operator": "County-equivalent aggregate",
        "source:name": "EIA Form 861 Annual Electric Power Industry Report"
      }
    },
    {
      "type": "node",
      "id": "consumer-county-141",
      "lat": 33.230898,
      "lon": -83.000027,
      "tags": {
        "name": "Hancock Consumer Node",
        "consumer": "yes",
        "consumer:type": "county-equivalent",
        "load:mw": "72.75",
        "consumption:gwh:annual": "637.32",
        "year": "2024",
        "operator": "County-equivalent aggregate",
        "source:name": "EIA Form 861 Annual Electric Power Industry Report"
      }
    },
    {
      "type": "node",
      "id": "consumer-county-143",
      "lat": 33.814867,
      "lon": -85.223278,
      "tags": {
        "name": "Haralson Consumer Node",
        "consumer": "yes",
        "consumer:type": "county-equivalent",
        "load:mw": "83.50",
        "consumption:gwh:annual": "731.47",
        "year": "2024",
        "operator": "County-equivalent aggregate",
        "source:name": "EIA Form 861 Annual Electric Power Industry Report"
      }
    },
    {
      "type": "node",
      "id": "consumer-county-145",
      "lat": 32.720728,
      "lon": -85.015716,
      "tags": {
        "name": "Harris Consumer Node",
        "consumer": "yes",
        "consumer:type": "county-equivalent",
        "load:mw": "83.66",
        "consumption:gwh:annual": "732.84",
        "year": "2024",
        "operator": "County-equivalent aggregate",
        "source:name": "EIA Form 861 Annual Electric Power Industry Report"
      }
    },
    {
      "type": "node",
      "id": "consumer-county-147",
      "lat": 34.417058,
      "lon": -82.975792,
      "tags": {
        "name": "Hart Consumer Node",
        "consumer": "yes",
        "consumer:type": "county-equivalent",
        "load:mw": "76.44",
        "consumption:gwh:annual": "669.59",
        "year": "2024",
        "operator": "County-equivalent aggregate",
        "source:name": "EIA Form 861 Annual Electric Power Industry Report"
      }
    },
    {
      "type": "node",
      "id": "consumer-county-149",
      "lat": 33.327184,
      "lon": -85.155737,
      "tags": {
        "name": "Heard Consumer Node",
        "consumer": "yes",
        "consumer:type": "county-equivalent",
        "load:mw": "114.32",
        "consumption:gwh:annual": "1001.42",
        "year": "2024",
        "operator": "County-equivalent aggregate",
        "source:name": "EIA Form 861 Annual Electric Power Industry Report"
      }
    },
    {
      "type": "node",
      "id": "consumer-county-151",
      "lat": 33.503508,
      "lon": -84.176583,
      "tags": {
        "name": "Henry Consumer Node",
        "consumer": "yes",
        "consumer:type": "county-equivalent",
        "load:mw": "126.07",
        "consumption:gwh:annual": "1104.38",
        "year": "2024",
        "operator": "County-equivalent aggregate",
        "source:name": "EIA Form 861 Annual Electric Power Industry Report"
      }
    },
    {
      "type": "node",
      "id": "consumer-county-153",
      "lat": 32.488176,
      "lon": -83.660298,
      "tags": {
        "name": "Houston Consumer Node",
        "consumer": "yes",
        "consumer:type": "county-equivalent",
        "load:mw": "77.51",
        "consumption:gwh:annual": "679.03",
        "year": "2024",
        "operator": "County-equivalent aggregate",
        "source:name": "EIA Form 861 Annual Electric Power Industry Report"
      }
    },
    {
      "type": "node",
      "id": "consumer-county-155",
      "lat": 31.618784,
      "lon": -83.280755,
      "tags": {
        "name": "Irwin Consumer Node",
        "consumer": "yes",
        "consumer:type": "county-equivalent",
        "load:mw": "75.27",
        "consumption:gwh:annual": "659.37",
        "year": "2024",
        "operator": "County-equivalent aggregate",
        "source:name": "EIA Form 861 Annual Electric Power Industry Report"
      }
    },
    {
      "type": "node",
      "id": "consumer-county-157",
      "lat": 34.114174,
      "lon": -83.545419,
      "tags": {
        "name": "Jackson Consumer Node",
        "consumer": "yes",
        "consumer:type": "county-equivalent",
        "load:mw": "120.97",
        "consumption:gwh:annual": "1059.72",
        "year": "2024",
        "operator": "County-equivalent aggregate",
        "source:name": "EIA Form 861 Annual Electric Power Industry Report"
      }
    },
    {
      "type": "node",
      "id": "consumer-county-159",
      "lat": 33.287143,
      "lon": -83.737272,
      "tags": {
        "name": "Jasper Consumer Node",
        "consumer": "yes",
        "consumer:type": "county-equivalent",
        "load:mw": "110.86",
        "consumption:gwh:annual": "971.10",
        "year": "2024",
        "operator": "County-equivalent aggregate",
        "source:name": "EIA Form 861 Annual Electric Power Industry Report"
      }
    },
    {
      "type": "node",
      "id": "consumer-county-161",
      "lat": 31.857592,
      "lon": -82.54081,
      "tags": {
        "name": "Jeff Davis Consumer Node",
        "consumer": "yes",
        "consumer:type": "county-equivalent",
        "load:mw": "75.27",
        "consumption:gwh:annual": "659.37",
        "year": "2024",
        "operator": "County-equivalent aggregate",
        "source:name": "EIA Form 861 Annual Electric Power Industry Report"
      }
    },
    {
      "type": "node",
      "id": "consumer-county-163",
      "lat": 33.119293,
      "lon": -82.378242,
      "tags": {
        "name": "Jefferson Consumer Node",
        "consumer": "yes",
        "consumer:type": "county-equivalent",
        "load:mw": "75.98",
        "consumption:gwh:annual": "665.54",
        "year": "2024",
        "operator": "County-equivalent aggregate",
        "source:name": "EIA Form 861 Annual Electric Power Industry Report"
      }
    },
    {
      "type": "node",
      "id": "consumer-county-165",
      "lat": 32.78916,
      "lon": -81.934668,
      "tags": {
        "name": "Jenkins Consumer Node",
        "consumer": "yes",
        "consumer:type": "county-equivalent",
        "load:mw": "83.29",
        "consumption:gwh:annual": "729.62",
        "year": "2024",
        "operator": "County-equivalent aggregate",
        "source:name": "EIA Form 861 Annual Electric Power Industry Report"
      }
    },
    {
      "type": "node",
      "id": "consumer-county-167",
      "lat": 32.706038,
      "lon": -82.71867,
      "tags": {
        "name": "Johnson Consumer Node",
        "consumer": "yes",
        "consumer:type": "county-equivalent",
        "load:mw": "85.39",
        "consumption:gwh:annual": "748.03",
        "year": "2024",
        "operator": "County-equivalent aggregate",
        "source:name": "EIA Form 861 Annual Electric Power Industry Report"
      }
    },
    {
      "type": "node",
      "id": "consumer-county-169",
      "lat": 32.992553,
      "lon": -83.510904,
      "tags": {
        "name": "Jones Consumer Node",
        "consumer": "yes",
        "consumer:type": "county-equivalent",
        "load:mw": "80.63",
        "consumption:gwh:annual": "706.33",
        "year": "2024",
        "operator": "County-equivalent aggregate",
        "source:name": "EIA Form 861 Annual Electric Power Industry Report"
      }
    },
    {
      "type": "node",
      "id": "consumer-county-171",
      "lat": 33.055766,
      "lon": -84.155443,
      "tags": {
        "name": "Lamar Consumer Node",
        "consumer": "yes",
        "consumer:type": "county-equivalent",
        "load:mw": "95.25",
        "consumption:gwh:annual": "834.40",
        "year": "2024",
        "operator": "County-equivalent aggregate",
        "source:name": "EIA Form 861 Annual Electric Power Industry Report"
      }
    },
    {
      "type": "node",
      "id": "consumer-county-173",
      "lat": 30.970708,
      "lon": -83.046325,
      "tags": {
        "name": "Lanier Consumer Node",
        "consumer": "yes",
        "consumer:type": "county-equivalent",
        "load:mw": "79.14",
        "consumption:gwh:annual": "693.25",
        "year": "2024",
        "operator": "County-equivalent aggregate",
        "source:name": "EIA Form 861 Annual Electric Power Industry Report"
      }
    },
    {
      "type": "node",
      "id": "consumer-county-175",
      "lat": 32.48659,
      "lon": -82.918385,
      "tags": {
        "name": "Laurens Consumer Node",
        "consumer": "yes",
        "consumer:type": "county-equivalent",
        "load:mw": "82.97",
        "consumption:gwh:annual": "726.84",
        "year": "2024",
        "operator": "County-equivalent aggregate",
        "source:name": "EIA Form 861 Annual Electric Power Industry Report"
      }
    },
    {
      "type": "node",
      "id": "consumer-county-177",
      "lat": 31.839572,
      "lon": -84.007587,
      "tags": {
        "name": "Lee Consumer Node",
        "consumer": "yes",
        "consumer:type": "county-equivalent",
        "load:mw": "119.47",
        "consumption:gwh:annual": "1046.58",
        "year": "2024",
        "operator": "County-equivalent aggregate",
        "source:name": "EIA Form 861 Annual Electric Power Industry Report"
      }
    },
    {
      "type": "node",
      "id": "consumer-county-179",
      "lat": 31.749834,
      "lon": -81.342558,
      "tags": {
        "name": "Liberty Consumer Node",
        "consumer": "yes",
        "consumer:type": "county-equivalent",
        "load:mw": "86.86",
        "consumption:gwh:annual": "760.86",
        "year": "2024",
        "operator": "County-equivalent aggregate",
        "source:name": "EIA Form 861 Annual Electric Power Industry Report"
      }
    },
    {
      "type": "node",
      "id": "consumer-county-181",
      "lat": 33.75276,
      "lon": -82.42476,
      "tags": {
        "name": "Lincoln Consumer Node",
        "consumer": "yes",
        "consumer:type": "county-equivalent",
        "load:mw": "67.66",
        "consumption:gwh:annual": "592.66",
        "year": "2024",
        "operator": "County-equivalent aggregate",
        "source:name": "EIA Form 861 Annual Electric Power Industry Report"
      }
    },
    {
      "type": "node",
      "id": "consumer-county-183",
      "lat": 31.759936,
      "lon": -81.701427,
      "tags": {
        "name": "Long Consumer Node",
        "consumer": "yes",
        "consumer:type": "county-equivalent",
        "load:mw": "86.86",
        "consumption:gwh:annual": "760.86",
        "year": "2024",
        "operator": "County-equivalent aggregate",
        "source:name": "EIA Form 861 Annual Electric Power Industry Report"
      }
    },
    {
      "type": "node",
      "id": "consumer-county-185",
      "lat": 30.871374,
      "lon": -83.339421,
      "tags": {
        "name": "Lowndes Consumer Node",
        "consumer": "yes",
        "consumer:type": "county-equivalent",
        "load:mw": "79.14",
        "consumption:gwh:annual": "693.25",
        "year": "2024",
        "operator": "County-equivalent aggregate",
        "source:name": "EIA Form 861 Annual Electric Power Industry Report"
      }
    },
    {
      "type": "node",
      "id": "consumer-county-187",
      "lat": 34.583511,
      "lon": -84.001493,
      "tags": {
        "name": "Lumpkin Consumer Node",
        "consumer": "yes",
        "consumer:type": "county-equivalent",
        "load:mw": "203.30",
        "consumption:gwh:annual": "1780.89",
        "year": "2024",
        "operator": "County-equivalent aggregate",
        "source:name": "EIA Form 861 Annual Electric Power Industry Report"
      }
    },
    {
      "type": "node",
      "id": "consumer-county-193",
      "lat": 32.333388,
      "lon": -84.06927,
      "tags": {
        "name": "Macon Consumer Node",
        "consumer": "yes",
        "consumer:type": "county-equivalent",
        "load:mw": "77.51",
        "consumption:gwh:annual": "679.03",
        "year": "2024",
        "operator": "County-equivalent aggregate",
        "source:name": "EIA Form 861 Annual Electric Power Industry Report"
      }
    },
    {
      "type": "node",
      "id": "consumer-county-195",
      "lat": 34.150591,
      "lon": -83.214736,
      "tags": {
        "name": "Madison Consumer Node",
        "consumer": "yes",
        "consumer:type": "county-equivalent",
        "load:mw": "136.58",
        "consumption:gwh:annual": "1196.48",
        "year": "2024",
        "operator": "County-equivalent aggregate",
        "source:name": "EIA Form 861 Annual Electric Power Industry Report"
      }
    },
    {
      "type": "node",
      "id": "consumer-county-197",
      "lat": 32.313955,
      "lon": -84.547742,
      "tags": {
        "name": "Marion Consumer Node",
        "consumer": "yes",
        "consumer:type": "county-equivalent",
        "load:mw": "81.40",
        "consumption:gwh:annual": "713.02",
        "year": "2024",
        "operator": "County-equivalent aggregate",
        "source:name": "EIA Form 861 Annual Electric Power Industry Report"
      }
    },
    {
      "type": "node",
      "id": "consumer-county-189",
      "lat": 33.513972,
      "lon": -82.433396,
      "tags": {
        "name": "McDuffie Consumer Node",
        "consumer": "yes",
        "consumer:type": "county-equivalent",
        "load:mw": "70.88",
        "consumption:gwh:annual": "620.88",
        "year": "2024",
        "operator": "County-equivalent aggregate",
        "source:name": "EIA Form 861 Annual Electric Power Industry Report"
      }
    },
    {
      "type": "node",
      "id": "consumer-county-191",
      "lat": 31.485109,
      "lon": -81.297969,
      "tags": {
        "name": "McIntosh Consumer Node",
        "consumer": "yes",
        "consumer:type": "county-equivalent",
        "load:mw": "80.57",
        "consumption:gwh:annual": "705.82",
        "year": "2024",
        "operator": "County-equivalent aggregate",
        "source:name": "EIA Form 861 Annual Electric Power Industry Report"
      }
    },
    {
      "type": "node",
      "id": "consumer-county-199",
      "lat": 33.056865,
      "lon": -84.657817,
      "tags": {
        "name": "Meriwether Consumer Node",
        "consumer": "yes",
        "consumer:type": "county-equivalent",
        "load:mw": "99.82",
        "consumption:gwh:annual": "874.39",
        "year": "2024",
        "operator": "County-equivalent aggregate",
        "source:name": "EIA Form 861 Annual Electric Power Industry Report"
      }
    },
    {
      "type": "node",
      "id": "consumer-county-201",
      "lat": 31.152041,
      "lon": -84.744937,
      "tags": {
        "name": "Miller Consumer Node",
        "consumer": "yes",
        "consumer:type": "county-equivalent",
        "load:mw": "72.33",
        "consumption:gwh:annual": "633.60",
        "year": "2024",
        "operator": "County-equivalent aggregate",
        "source:name": "EIA Form 861 Annual Electric Power Industry Report"
      }
    },
    {
      "type": "node",
      "id": "consumer-county-205",
      "lat": 31.207928,
      "lon": -84.227177,
      "tags": {
        "name": "Mitchell Consumer Node",
        "consumer": "yes",
        "consumer:type": "county-equivalent",
        "load:mw": "73.98",
        "consumption:gwh:annual": "648.09",
        "year": "2024",
        "operator": "County-equivalent aggregate",
        "source:name": "EIA Form 861 Annual Electric Power Industry Report"
      }
    },
    {
      "type": "node",
      "id": "consumer-county-207",
      "lat": 33.065182,
      "lon": -83.887303,
      "tags": {
        "name": "Monroe Consumer Node",
        "consumer": "yes",
        "consumer:type": "county-equivalent",
        "load:mw": "92.82",
        "consumption:gwh:annual": "813.09",
        "year": "2024",
        "operator": "County-equivalent aggregate",
        "source:name": "EIA Form 861 Annual Electric Power Industry Report"
      }
    },
    {
      "type": "node",
      "id": "consumer-county-209",
      "lat": 32.158413,
      "lon": -82.530211,
      "tags": {
        "name": "Montgomery Consumer Node",
        "consumer": "yes",
        "consumer:type": "county-equivalent",
        "load:mw": "73.66",
        "consumption:gwh:annual": "645.23",
        "year": "2024",
        "operator": "County-equivalent aggregate",
        "source:name": "EIA Form 861 Annual Electric Power Industry Report"
      }
    },
    {
      "type": "node",
      "id": "consumer-county-211",
      "lat": 33.566106,
      "lon": -83.535263,
      "tags": {
        "name": "Morgan Consumer Node",
        "consumer": "yes",
        "consumer:type": "county-equivalent",
        "load:mw": "160.10",
        "consumption:gwh:annual": "1402.47",
        "year": "2024",
        "operator": "County-equivalent aggregate",
        "source:name": "EIA Form 861 Annual Electric Power Industry Report"
      }
    },
    {
      "type": "node",
      "id": "consumer-county-213",
      "lat": 34.833251,
      "lon": -84.766401,
      "tags": {
        "name": "Murray Consumer Node",
        "consumer": "yes",
        "consumer:type": "county-equivalent",
        "load:mw": "124.86",
        "consumption:gwh:annual": "1093.81",
        "year": "2024",
        "operator": "County-equivalent aggregate",
        "source:name": "EIA Form 861 Annual Electric Power Industry Report"
      }
    },
    {
      "type": "node",
      "id": "consumer-county-215",
      "lat": 32.479608,
      "lon": -84.90007,
      "tags": {
        "name": "Muscogee Consumer Node",
        "consumer": "yes",
        "consumer:type": "county-equivalent",
        "load:mw": "83.66",
        "consumption:gwh:annual": "732.84",
        "year": "2024",
        "operator": "County-equivalent aggregate",
        "source:name": "EIA Form 861 Annual Electric Power Industry Report"
      }
    },
    {
      "type": "node",
      "id": "consumer-county-217",
      "lat": 33.549167,
      "lon": -83.813168,
      "tags": {
        "name": "Newton Consumer Node",
        "consumer": "yes",
        "consumer:type": "county-equivalent",
        "load:mw": "177.78",
        "consumption:gwh:annual": "1557.36",
        "year": "2024",
        "operator": "County-equivalent aggregate",
        "source:name": "EIA Form 861 Annual Electric Power Industry Report"
      }
    },
    {
      "type": "node",
      "id": "consumer-county-219",
      "lat": 33.830813,
      "lon": -83.451248,
      "tags": {
        "name": "Oconee Consumer Node",
        "consumer": "yes",
        "consumer:type": "county-equivalent",
        "load:mw": "170.22",
        "consumption:gwh:annual": "1491.10",
        "year": "2024",
        "operator": "County-equivalent aggregate",
        "source:name": "EIA Form 861 Annual Electric Power Industry Report"
      }
    },
    {
      "type": "node",
      "id": "consumer-county-221",
      "lat": 33.873127,
      "lon": -83.045214,
      "tags": {
        "name": "Oglethorpe Consumer Node",
        "consumer": "yes",
        "consumer:type": "county-equivalent",
        "load:mw": "124.39",
        "consumption:gwh:annual": "1089.64",
        "year": "2024",
        "operator": "County-equivalent aggregate",
        "source:name": "EIA Form 861 Annual Electric Power Industry Report"
      }
    },
    {
      "type": "node",
      "id": "consumer-county-223",
      "lat": 33.840386,
      "lon": -84.839582,
      "tags": {
        "name": "Paulding Consumer Node",
        "consumer": "yes",
        "consumer:type": "county-equivalent",
        "load:mw": "221.38",
        "consumption:gwh:annual": "1939.29",
        "year": "2024",
        "operator": "County-equivalent aggregate",
        "source:name": "EIA Form 861 Annual Electric Power Industry Report"
      }
    },
    {
      "type": "node",
      "id": "consumer-county-225",
      "lat": 32.553161,
      "lon": -83.861751,
      "tags": {
        "name": "Peach Consumer Node",
        "consumer": "yes",
        "consumer:type": "county-equivalent",
        "load:mw": "77.51",
        "consumption:gwh:annual": "679.03",
        "year": "2024",
        "operator": "County-equivalent aggregate",
        "source:name": "EIA Form 861 Annual Electric Power Industry Report"
      }
    },
    {
      "type": "node",
      "id": "consumer-county-227",
      "lat": 34.471361,
      "lon": -84.465535,
      "tags": {
        "name": "Pickens Consumer Node",
        "consumer": "yes",
        "consumer:type": "county-equivalent",
        "load:mw": "74.28",
        "consumption:gwh:annual": "650.71",
        "year": "2024",
        "operator": "County-equivalent aggregate",
        "source:name": "EIA Form 861 Annual Electric Power Industry Report"
      }
    },
    {
      "type": "node",
      "id": "consumer-county-229",
      "lat": 31.364298,
      "lon": -82.216877,
      "tags": {
        "name": "Pierce Consumer Node",
        "consumer": "yes",
        "consumer:type": "county-equivalent",
        "load:mw": "75.27",
        "consumption:gwh:annual": "659.37",
        "year": "2024",
        "operator": "County-equivalent aggregate",
        "source:name": "EIA Form 861 Annual Electric Power Industry Report"
      }
    },
    {
      "type": "node",
      "id": "consumer-county-231",
      "lat": 33.103726,
      "lon": -84.390194,
      "tags": {
        "name": "Pike Consumer Node",
        "consumer": "yes",
        "consumer:type": "county-equivalent",
        "load:mw": "95.25",
        "consumption:gwh:annual": "834.40",
        "year": "2024",
        "operator": "County-equivalent aggregate",
        "source:name": "EIA Form 861 Annual Electric Power Industry Report"
      }
    },
    {
      "type": "node",
      "id": "consumer-county-233",
      "lat": 34.018289,
      "lon": -85.154026,
      "tags": {
        "name": "Polk Consumer Node",
        "consumer": "yes",
        "consumer:type": "county-equivalent",
        "load:mw": "83.50",
        "consumption:gwh:annual": "731.47",
        "year": "2024",
        "operator": "County-equivalent aggregate",
        "source:name": "EIA Form 861 Annual Electric Power Industry Report"
      }
    },
    {
      "type": "node",
      "id": "consumer-county-235",
      "lat": 32.252513,
      "lon": -83.45645,
      "tags": {
        "name": "Pulaski Consumer Node",
        "consumer": "yes",
        "consumer:type": "county-equivalent",
        "load:mw": "64.24",
        "consumption:gwh:annual": "562.75",
        "year": "2024",
        "operator": "County-equivalent aggregate",
        "source:name": "EIA Form 861 Annual Electric Power Industry Report"
      }
    },
    {
      "type": "node",
      "id": "consumer-county-237",
      "lat": 33.295459,
      "lon": -83.370987,
      "tags": {
        "name": "Putnam Consumer Node",
        "consumer": "yes",
        "consumer:type": "county-equivalent",
        "load:mw": "80.63",
        "consumption:gwh:annual": "706.33",
        "year": "2024",
        "operator": "County-equivalent aggregate",
        "source:name": "EIA Form 861 Annual Electric Power Industry Report"
      }
    },
    {
      "type": "node",
      "id": "consumer-county-239",
      "lat": 31.881597,
      "lon": -85.059694,
      "tags": {
        "name": "Quitman Consumer Node",
        "consumer": "yes",
        "consumer:type": "county-equivalent",
        "load:mw": "74.26",
        "consumption:gwh:annual": "650.55",
        "year": "2024",
        "operator": "County-equivalent aggregate",
        "source:name": "EIA Form 861 Annual Electric Power Industry Report"
      }
    },
    {
      "type": "node",
      "id": "consumer-county-241",
      "lat": 34.872632,
      "lon": -83.359711,
      "tags": {
        "name": "Rabun Consumer Node",
        "consumer": "yes",
        "consumer:type": "county-equivalent",
        "load:mw": "75.13",
        "consumption:gwh:annual": "658.15",
        "year": "2024",
        "operator": "County-equivalent aggregate",
        "source:name": "EIA Form 861 Annual Electric Power Industry Report"
      }
    },
    {
      "type": "node",
      "id": "consumer-county-243",
      "lat": 31.764633,
      "lon": -84.766898,
      "tags": {
        "name": "Randolph Consumer Node",
        "consumer": "yes",
        "consumer:type": "county-equivalent",
        "load:mw": "74.26",
        "consumption:gwh:annual": "650.55",
        "year": "2024",
        "operator": "County-equivalent aggregate",
        "source:name": "EIA Form 861 Annual Electric Power Industry Report"
      }
    },
    {
      "type": "node",
      "id": "consumer-county-245",
      "lat": 33.36879,
      "lon": -82.106254,
      "tags": {
        "name": "Richmond Consumer Node",
        "consumer": "yes",
        "consumer:type": "county-equivalent",
        "load:mw": "122.45",
        "consumption:gwh:annual": "1072.64",
        "year": "2024",
        "operator": "County-equivalent aggregate",
        "source:name": "EIA Form 861 Annual Electric Power Industry Report"
      }
    },
    {
      "type": "node",
      "id": "consumer-county-247",
      "lat": 33.671551,
      "lon": -84.043414,
      "tags": {
        "name": "Rockdale Consumer Node",
        "consumer": "yes",
        "consumer:type": "county-equivalent",
        "load:mw": "140.29",
        "consumption:gwh:annual": "1228.98",
        "year": "2024",
        "operator": "County-equivalent aggregate",
        "source:name": "EIA Form 861 Annual Electric Power Industry Report"
      }
    },
    {
      "type": "node",
      "id": "consumer-county-249",
      "lat": 32.286966,
      "lon": -84.278985,
      "tags": {
        "name": "Schley Consumer Node",
        "consumer": "yes",
        "consumer:type": "county-equivalent",
        "load:mw": "81.40",
        "consumption:gwh:annual": "713.02",
        "year": "2024",
        "operator": "County-equivalent aggregate",
        "source:name": "EIA Form 861 Annual Electric Power Industry Report"
      }
    },
    {
      "type": "node",
      "id": "consumer-county-251",
      "lat": 32.752923,
      "lon": -81.51683,
      "tags": {
        "name": "Screven Consumer Node",
        "consumer": "yes",
        "consumer:type": "county-equivalent",
        "load:mw": "115.81",
        "consumption:gwh:annual": "1014.51",
        "year": "2024",
        "operator": "County-equivalent aggregate",
        "source:name": "EIA Form 861 Annual Electric Power Industry Report"
      }
    },
    {
      "type": "node",
      "id": "consumer-county-253",
      "lat": 30.951333,
      "lon": -84.935314,
      "tags": {
        "name": "Seminole Consumer Node",
        "consumer": "yes",
        "consumer:type": "county-equivalent",
        "load:mw": "68.60",
        "consumption:gwh:annual": "600.94",
        "year": "2024",
        "operator": "County-equivalent aggregate",
        "source:name": "EIA Form 861 Annual Electric Power Industry Report"
      }
    },
    {
      "type": "node",
      "id": "consumer-county-255",
      "lat": 33.250541,
      "lon": -84.383533,
      "tags": {
        "name": "Spalding Consumer Node",
        "consumer": "yes",
        "consumer:type": "county-equivalent",
        "load:mw": "119.93",
        "consumption:gwh:annual": "1050.55",
        "year": "2024",
        "operator": "County-equivalent aggregate",
        "source:name": "EIA Form 861 Annual Electric Power Industry Report"
      }
    },
    {
      "type": "node",
      "id": "consumer-county-257",
      "lat": 34.576177,
      "lon": -83.270308,
      "tags": {
        "name": "Stephens Consumer Node",
        "consumer": "yes",
        "consumer:type": "county-equivalent",
        "load:mw": "86.91",
        "consumption:gwh:annual": "761.34",
        "year": "2024",
        "operator": "County-equivalent aggregate",
        "source:name": "EIA Form 861 Annual Electric Power Industry Report"
      }
    },
    {
      "type": "node",
      "id": "consumer-county-259",
      "lat": 32.11455,
      "lon": -84.907954,
      "tags": {
        "name": "Stewart Consumer Node",
        "consumer": "yes",
        "consumer:type": "county-equivalent",
        "load:mw": "74.26",
        "consumption:gwh:annual": "650.55",
        "year": "2024",
        "operator": "County-equivalent aggregate",
        "source:name": "EIA Form 861 Annual Electric Power Industry Report"
      }
    },
    {
      "type": "node",
      "id": "consumer-county-261",
      "lat": 32.065758,
      "lon": -84.244426,
      "tags": {
        "name": "Sumter Consumer Node",
        "consumer": "yes",
        "consumer:type": "county-equivalent",
        "load:mw": "81.40",
        "consumption:gwh:annual": "713.02",
        "year": "2024",
        "operator": "County-equivalent aggregate",
        "source:name": "EIA Form 861 Annual Electric Power Industry Report"
      }
    },
    {
      "type": "node",
      "id": "consumer-county-263",
      "lat": 32.634227,
      "lon": -84.555908,
      "tags": {
        "name": "Talbot Consumer Node",
        "consumer": "yes",
        "consumer:type": "county-equivalent",
        "load:mw": "77.51",
        "consumption:gwh:annual": "679.03",
        "year": "2024",
        "operator": "County-equivalent aggregate",
        "source:name": "EIA Form 861 Annual Electric Power Industry Report"
      }
    },
    {
      "type": "node",
      "id": "consumer-county-265",
      "lat": 33.600303,
      "lon": -82.876432,
      "tags": {
        "name": "Taliaferro Consumer Node",
        "consumer": "yes",
        "consumer:type": "county-equivalent",
        "load:mw": "67.66",
        "consumption:gwh:annual": "592.66",
        "year": "2024",
        "operator": "County-equivalent aggregate",
        "source:name": "EIA Form 861 Annual Electric Power Industry Report"
      }
    },
    {
      "type": "node",
      "id": "consumer-county-267",
      "lat": 31.976606,
      "lon": -81.999701,
      "tags": {
        "name": "Tattnall Consumer Node",
        "consumer": "yes",
        "consumer:type": "county-equivalent",
        "load:mw": "98.78",
        "consumption:gwh:annual": "865.34",
        "year": "2024",
        "operator": "County-equivalent aggregate",
        "source:name": "EIA Form 861 Annual Electric Power Industry Report"
      }
    },
    {
      "type": "node",
      "id": "consumer-county-269",
      "lat": 32.553234,
      "lon": -84.217062,
      "tags": {
        "name": "Taylor Consumer Node",
        "consumer": "yes",
        "consumer:type": "county-equivalent",
        "load:mw": "77.51",
        "consumption:gwh:annual": "679.03",
        "year": "2024",
        "operator": "County-equivalent aggregate",
        "source:name": "EIA Form 861 Annual Electric Power Industry Report"
      }
    },
    {
      "type": "node",
      "id": "consumer-county-271",
      "lat": 31.958681,
      "lon": -82.930496,
      "tags": {
        "name": "Telfair Consumer Node",
        "consumer": "yes",
        "consumer:type": "county-equivalent",
        "load:mw": "64.24",
        "consumption:gwh:annual": "562.75",
        "year": "2024",
        "operator": "County-equivalent aggregate",
        "source:name": "EIA Form 861 Annual Electric Power Industry Report"
      }
    },
    {
      "type": "node",
      "id": "consumer-county-273",
      "lat": 31.752806,
      "lon": -84.441956,
      "tags": {
        "name": "Terrell Consumer Node",
        "consumer": "yes",
        "consumer:type": "county-equivalent",
        "load:mw": "74.26",
        "consumption:gwh:annual": "650.55",
        "year": "2024",
        "operator": "County-equivalent aggregate",
        "source:name": "EIA Form 861 Annual Electric Power Industry Report"
      }
    },
    {
      "type": "node",
      "id": "consumer-county-275",
      "lat": 30.789518,
      "lon": -83.972354,
      "tags": {
        "name": "Thomas Consumer Node",
        "consumer": "yes",
        "consumer:type": "county-equivalent",
        "load:mw": "117.19",
        "consumption:gwh:annual": "1026.60",
        "year": "2024",
        "operator": "County-equivalent aggregate",
        "source:name": "EIA Form 861 Annual Electric Power Industry Report"
      }
    },
    {
      "type": "node",
      "id": "consumer-county-277",
      "lat": 31.449456,
      "lon": -83.504261,
      "tags": {
        "name": "Tift Consumer Node",
        "consumer": "yes",
        "consumer:type": "county-equivalent",
        "load:mw": "82.87",
        "consumption:gwh:annual": "725.90",
        "year": "2024",
        "operator": "County-equivalent aggregate",
        "source:name": "EIA Form 861 Annual Electric Power Industry Report"
      }
    },
    {
      "type": "node",
      "id": "consumer-county-279",
      "lat": 32.115099,
      "lon": -82.390668,
      "tags": {
        "name": "Toombs Consumer Node",
        "consumer": "yes",
        "consumer:type": "county-equivalent",
        "load:mw": "79.94",
        "consumption:gwh:annual": "700.27",
        "year": "2024",
        "operator": "County-equivalent aggregate",
        "source:name": "EIA Form 861 Annual Electric Power Industry Report"
      }
    },
    {
      "type": "node",
      "id": "consumer-county-281",
      "lat": 34.840418,
      "lon": -83.717443,
      "tags": {
        "name": "Towns Consumer Node",
        "consumer": "yes",
        "consumer:type": "county-equivalent",
        "load:mw": "14.90",
        "consumption:gwh:annual": "130.53",
        "year": "2024",
        "operator": "County-equivalent aggregate",
        "source:name": "EIA Form 861 Annual Electric Power Industry Report"
      }
    },
    {
      "type": "node",
      "id": "consumer-county-283",
      "lat": 32.378072,
      "lon": -82.516256,
      "tags": {
        "name": "Treutlen Consumer Node",
        "consumer": "yes",
        "consumer:type": "county-equivalent",
        "load:mw": "73.66",
        "consumption:gwh:annual": "645.23",
        "year": "2024",
        "operator": "County-equivalent aggregate",
        "source:name": "EIA Form 861 Annual Electric Power Industry Report"
      }
    },
    {
      "type": "node",
      "id": "consumer-county-285",
      "lat": 33.071578,
      "lon": -85.110866,
      "tags": {
        "name": "Troup Consumer Node",
        "consumer": "yes",
        "consumer:type": "county-equivalent",
        "load:mw": "173.26",
        "consumption:gwh:annual": "1517.76",
        "year": "2024",
        "operator": "County-equivalent aggregate",
        "source:name": "EIA Form 861 Annual Electric Power Industry Report"
      }
    },
    {
      "type": "node",
      "id": "consumer-county-287",
      "lat": 31.729544,
      "lon": -83.602705,
      "tags": {
        "name": "Turner Consumer Node",
        "consumer": "yes",
        "consumer:type": "county-equivalent",
        "load:mw": "76.64",
        "consumption:gwh:annual": "671.34",
        "year": "2024",
        "operator": "County-equivalent aggregate",
        "source:name": "EIA Form 861 Annual Electric Power Industry Report"
      }
    },
    {
      "type": "node",
      "id": "consumer-county-289",
      "lat": 32.744641,
      "lon": -83.458453,
      "tags": {
        "name": "Twiggs Consumer Node",
        "consumer": "yes",
        "consumer:type": "county-equivalent",
        "load:mw": "87.58",
        "consumption:gwh:annual": "767.18",
        "year": "2024",
        "operator": "County-equivalent aggregate",
        "source:name": "EIA Form 861 Annual Electric Power Industry Report"
      }
    },
    {
      "type": "node",
      "id": "consumer-county-291",
      "lat": 34.878447,
      "lon": -83.996982,
      "tags": {
        "name": "Union Consumer Node",
        "consumer": "yes",
        "consumer:type": "county-equivalent",
        "load:mw": "14.90",
        "consumption:gwh:annual": "130.53",
        "year": "2024",
        "operator": "County-equivalent aggregate",
        "source:name": "EIA Form 861 Annual Electric Power Industry Report"
      }
    },
    {
      "type": "node",
      "id": "consumer-county-293",
      "lat": 32.865729,
      "lon": -84.295114,
      "tags": {
        "name": "Upson Consumer Node",
        "consumer": "yes",
        "consumer:type": "county-equivalent",
        "load:mw": "82.27",
        "consumption:gwh:annual": "720.71",
        "year": "2024",
        "operator": "County-equivalent aggregate",
        "source:name": "EIA Form 861 Annual Electric Power Industry Report"
      }
    },
    {
      "type": "node",
      "id": "consumer-county-295",
      "lat": 34.777316,
      "lon": -85.227523,
      "tags": {
        "name": "Walker Consumer Node",
        "consumer": "yes",
        "consumer:type": "county-equivalent",
        "load:mw": "115.88",
        "consumption:gwh:annual": "1015.13",
        "year": "2024",
        "operator": "County-equivalent aggregate",
        "source:name": "EIA Form 861 Annual Electric Power Industry Report"
      }
    },
    {
      "type": "node",
      "id": "consumer-county-297",
      "lat": 33.783374,
      "lon": -83.808514,
      "tags": {
        "name": "Walton Consumer Node",
        "consumer": "yes",
        "consumer:type": "county-equivalent",
        "load:mw": "167.24",
        "consumption:gwh:annual": "1464.98",
        "year": "2024",
        "operator": "County-equivalent aggregate",
        "source:name": "EIA Form 861 Annual Electric Power Industry Report"
      }
    },
    {
      "type": "node",
      "id": "consumer-county-299",
      "lat": 31.021833,
      "lon": -82.410089,
      "tags": {
        "name": "Ware Consumer Node",
        "consumer": "yes",
        "consumer:type": "county-equivalent",
        "load:mw": "88.06",
        "consumption:gwh:annual": "771.40",
        "year": "2024",
        "operator": "County-equivalent aggregate",
        "source:name": "EIA Form 861 Annual Electric Power Industry Report"
      }
    },
    {
      "type": "node",
      "id": "consumer-county-301",
      "lat": 33.478789,
      "lon": -82.632906,
      "tags": {
        "name": "Warren Consumer Node",
        "consumer": "yes",
        "consumer:type": "county-equivalent",
        "load:mw": "75.98",
        "consumption:gwh:annual": "665.54",
        "year": "2024",
        "operator": "County-equivalent aggregate",
        "source:name": "EIA Form 861 Annual Electric Power Industry Report"
      }
    },
    {
      "type": "node",
      "id": "consumer-county-303",
      "lat": 32.99622,
      "lon": -82.772445,
      "tags": {
        "name": "Washington Consumer Node",
        "consumer": "yes",
        "consumer:type": "county-equivalent",
        "load:mw": "255.20",
        "consumption:gwh:annual": "2235.54",
        "year": "2024",
        "operator": "County-equivalent aggregate",
        "source:name": "EIA Form 861 Annual Electric Power Industry Report"
      }
    },
    {
      "type": "node",
      "id": "consumer-county-305",
      "lat": 31.599997,
      "lon": -81.925787,
      "tags": {
        "name": "Wayne Consumer Node",
        "consumer": "yes",
        "consumer:type": "county-equivalent",
        "load:mw": "88.06",
        "consumption:gwh:annual": "771.40",
        "year": "2024",
        "operator": "County-equivalent aggregate",
        "source:name": "EIA Form 861 Annual Electric Power Industry Report"
      }
    },
    {
      "type": "node",
      "id": "consumer-county-307",
      "lat": 32.018629,
      "lon": -84.552023,
      "tags": {
        "name": "Webster Consumer Node",
        "consumer": "yes",
        "consumer:type": "county-equivalent",
        "load:mw": "68.12",
        "consumption:gwh:annual": "596.74",
        "year": "2024",
        "operator": "County-equivalent aggregate",
        "source:name": "EIA Form 861 Annual Electric Power Industry Report"
      }
    },
    {
      "type": "node",
      "id": "consumer-county-309",
      "lat": 32.129919,
      "lon": -82.727868,
      "tags": {
        "name": "Wheeler Consumer Node",
        "consumer": "yes",
        "consumer:type": "county-equivalent",
        "load:mw": "64.24",
        "consumption:gwh:annual": "562.75",
        "year": "2024",
        "operator": "County-equivalent aggregate",
        "source:name": "EIA Form 861 Annual Electric Power Industry Report"
      }
    },
    {
      "type": "node",
      "id": "consumer-county-311",
      "lat": 34.737584,
      "lon": -83.727275,
      "tags": {
        "name": "White Consumer Node",
        "consumer": "yes",
        "consumer:type": "county-equivalent",
        "load:mw": "131.45",
        "consumption:gwh:annual": "1151.47",
        "year": "2024",
        "operator": "County-equivalent aggregate",
        "source:name": "EIA Form 861 Annual Electric Power Industry Report"
      }
    },
    {
      "type": "node",
      "id": "consumer-county-313",
      "lat": 34.882642,
      "lon": -84.929004,
      "tags": {
        "name": "Whitfield Consumer Node",
        "consumer": "yes",
        "consumer:type": "county-equivalent",
        "load:mw": "480.63",
        "consumption:gwh:annual": "4210.30",
        "year": "2024",
        "operator": "County-equivalent aggregate",
        "source:name": "EIA Form 861 Annual Electric Power Industry Report"
      }
    },
    {
      "type": "node",
      "id": "consumer-county-315",
      "lat": 31.965064,
      "lon": -83.41091,
      "tags": {
        "name": "Wilcox Consumer Node",
        "consumer": "yes",
        "consumer:type": "county-equivalent",
        "load:mw": "72.91",
        "consumption:gwh:annual": "638.68",
        "year": "2024",
        "operator": "County-equivalent aggregate",
        "source:name": "EIA Form 861 Annual Electric Power Industry Report"
      }
    },
    {
      "type": "node",
      "id": "consumer-county-317",
      "lat": 33.719888,
      "lon": -82.718567,
      "tags": {
        "name": "Wilkes Consumer Node",
        "consumer": "yes",
        "consumer:type": "county-equivalent",
        "load:mw": "155.12",
        "consumption:gwh:annual": "1358.87",
        "year": "2024",
        "operator": "County-equivalent aggregate",
        "source:name": "EIA Form 861 Annual Electric Power Industry Report"
      }
    },
    {
      "type": "node",
      "id": "consumer-county-319",
      "lat": 32.827241,
      "lon": -83.163356,
      "tags": {
        "name": "Wilkinson Consumer Node",
        "consumer": "yes",
        "consumer:type": "county-equivalent",
        "load:mw": "79.40",
        "consumption:gwh:annual": "695.55",
        "year": "2024",
        "operator": "County-equivalent aggregate",
        "source:name": "EIA Form 861 Annual Electric Power Industry Report"
      }
    },
    {
      "type": "node",
      "id": "consumer-county-321",
      "lat": 31.591068,
      "lon": -83.899973,
      "tags": {
        "name": "Worth Consumer Node",
        "consumer": "yes",
        "consumer:type": "county-equivalent",
        "load:mw": "91.53",
        "consumption:gwh:annual": "801.84",
        "year": "2024",
        "operator": "County-equivalent aggregate",
        "source:name": "EIA Form 861 Annual Electric Power Industry Report"
      }
    }
  ]
}
