{
  "version": 0.6,
  "generator": "Overpass API 0.7.62.11 87bfad18",
  "osm3s": {
    "timestamp_osm_base": "2026-04-24T18:15:17Z",
    "timestamp_areas_base": "2026-04-24T09:42:59Z",
    "copyright": "The data included in this document is from www.openstreetmap.org. The data is made available under ODbL."
  },
  "elements": [
    {
      "type": "node",
      "id": 12856359137,
      "lat": 21.4250753,
      "lon": -157.9525557,
      "tags": {
        "man_made": "street_cabinet",
        "power": "substation",
        "utility": "power"
      }
    },
    {
      "type": "way",
      "id": 160226896,
      "center": {
        "lat": 21.3566357,
        "lon": -158.1281182
      },
      "tags": {
        "power": "substation",
        "substation": "generation",
        "voltage": "138000"
      },
      "lat": 21.3566357,
      "lon": -158.1281182
    },
    {
      "type": "way",
      "id": 188554721,
      "center": {
        "lat": 20.813767,
        "lon": -156.5512876
      },
      "tags": {
        "barrier": "fence",
        "name": "Kaheawa Pastures Wind Farm Hybrid Substation",
        "operator": "Maui Electric Company",
        "power": "substation",
        "substation": "generation",
        "voltage": "69000"
      },
      "lat": 20.813767,
      "lon": -156.5512876
    },
    {
      "type": "way",
      "id": 198711882,
      "center": {
        "lat": 20.071652,
        "lon": -155.473298
      },
      "tags": {
        "barrier": "fence",
        "name": "Honokaa Substation",
        "operator": "Hawaiian Electric Company",
        "operator:wikidata": "Q5684524",
        "power": "substation",
        "substation": "distribution",
        "voltage": "69000;34500;12470"
      },
      "lat": 20.071652,
      "lon": -155.473298
    },
    {
      "type": "way",
      "id": 199009581,
      "center": {
        "lat": 20.8847386,
        "lon": -156.4527448
      },
      "tags": {
        "barrier": "fence",
        "operator": "Maui Electric Company",
        "power": "substation",
        "substation": "distribution",
        "voltage": "69000;23000;12470"
      },
      "lat": 20.8847386,
      "lon": -156.4527448
    },
    {
      "type": "way",
      "id": 199720619,
      "center": {
        "lat": 20.0955469,
        "lon": -155.4710439
      },
      "tags": {
        "barrier": "fence",
        "operator": "Hawaiian Electric Company",
        "operator:wikidata": "Q5684524",
        "power": "substation",
        "substation": "switching",
        "voltage": "69000"
      },
      "lat": 20.0955469,
      "lon": -155.4710439
    },
    {
      "type": "way",
      "id": 272679354,
      "center": {
        "lat": 21.5237517,
        "lon": -158.0145591
      },
      "tags": {
        "barrier": "fence",
        "power": "substation"
      },
      "lat": 21.5237517,
      "lon": -158.0145591
    },
    {
      "type": "way",
      "id": 272679355,
      "center": {
        "lat": 21.5238499,
        "lon": -158.0148097
      },
      "tags": {
        "barrier": "fence",
        "operator": "Hawaiian Electric Company",
        "operator:wikidata": "Q5684524",
        "power": "substation",
        "substation": "distribution",
        "voltage": "46000;12470"
      },
      "lat": 21.5238499,
      "lon": -158.0148097
    },
    {
      "type": "way",
      "id": 287146954,
      "center": {
        "lat": 20.0251426,
        "lon": -155.6957976
      },
      "tags": {
        "barrier": "fence",
        "operator": "Hawaiian Electric Company",
        "operator:wikidata": "Q5684524",
        "power": "substation",
        "substation": "generation",
        "voltage": "69000"
      },
      "lat": 20.0251426,
      "lon": -155.6957976
    },
    {
      "type": "way",
      "id": 301014405,
      "center": {
        "lat": 19.9742804,
        "lon": -155.8189962
      },
      "tags": {
        "barrier": "fence",
        "operator": "Hawaiian Electric Company",
        "operator:wikidata": "Q5684524",
        "power": "substation",
        "substation": "distribution",
        "voltage": "69000"
      },
      "lat": 19.9742804,
      "lon": -155.8189962
    },
    {
      "type": "way",
      "id": 301016667,
      "center": {
        "lat": 19.9206388,
        "lon": -155.7838837
      },
      "tags": {
        "barrier": "fence",
        "name": "Waikoloa Substation",
        "operator": "Hawaiian Electric Company",
        "operator:wikidata": "Q5684524",
        "power": "substation",
        "substation": "distribution",
        "voltage": "69000;12470"
      },
      "lat": 19.9206388,
      "lon": -155.7838837
    },
    {
      "type": "way",
      "id": 301016668,
      "center": {
        "lat": 19.9279459,
        "lon": -155.7740748
      },
      "tags": {
        "barrier": "fence",
        "operator": "Hawaiian Electric Company",
        "operator:wikidata": "Q5684524",
        "power": "substation",
        "voltage": "69000"
      },
      "lat": 19.9279459,
      "lon": -155.7740748
    },
    {
      "type": "way",
      "id": 301093090,
      "center": {
        "lat": 20.0028449,
        "lon": -155.7970181
      },
      "tags": {
        "barrier": "fence",
        "operator": "Hawaiian Electric Company",
        "operator:wikidata": "Q5684524",
        "power": "substation",
        "voltage": "69000"
      },
      "lat": 20.0028449,
      "lon": -155.7970181
    },
    {
      "type": "way",
      "id": 301182133,
      "center": {
        "lat": 19.9087844,
        "lon": -155.8766139
      },
      "tags": {
        "barrier": "fence",
        "operator": "Hawaiian Electric Company",
        "operator:wikidata": "Q5684524",
        "power": "substation",
        "substation": "distribution",
        "voltage": "69000"
      },
      "lat": 19.9087844,
      "lon": -155.8766139
    },
    {
      "type": "way",
      "id": 302854067,
      "center": {
        "lat": 21.2905709,
        "lon": -157.8334545
      },
      "tags": {
        "name": "McCully Substation",
        "operator": "Hawaiian Electric Company",
        "operator:wikidata": "Q5684524",
        "power": "substation",
        "substation": "distribution",
        "voltage": "46000;12470"
      },
      "lat": 21.2905709,
      "lon": -157.8334545
    },
    {
      "type": "way",
      "id": 303110127,
      "center": {
        "lat": 21.2861721,
        "lon": -157.8347579
      },
      "tags": {
        "name": "Ena Substation",
        "operator": "Hawaiian Electric Company",
        "operator:wikidata": "Q5684524",
        "power": "substation",
        "substation": "distribution",
        "voltage": "46000;12470"
      },
      "lat": 21.2861721,
      "lon": -157.8347579
    },
    {
      "type": "way",
      "id": 307660694,
      "center": {
        "lat": 21.2945561,
        "lon": -157.849254
      },
      "tags": {
        "name": "Kewalo Substation",
        "operator": "Hawaiian Electric Company",
        "operator:wikidata": "Q5684524",
        "operator:wikipedia": "en:Hawaiian Electric Industries",
        "power": "substation",
        "substation": "transmission",
        "voltage": "138000;46000;25000"
      },
      "lat": 21.2945561,
      "lon": -157.849254
    },
    {
      "type": "way",
      "id": 307664393,
      "center": {
        "lat": 21.2991892,
        "lon": -157.8562769
      },
      "tags": {
        "addr:city": "Honolulu",
        "addr:housenumber": "808",
        "addr:postcode": "96813",
        "addr:state": "HI",
        "addr:street": "Ilaniwai Street",
        "operator": "Hawaiian Electric Company",
        "operator:wikidata": "Q5684524",
        "power": "substation",
        "substation": "distribution",
        "voltage": "46000"
      },
      "lat": 21.2991892,
      "lon": -157.8562769
    },
    {
      "type": "way",
      "id": 325568368,
      "center": {
        "lat": 21.3178039,
        "lon": -157.8672937
      },
      "tags": {
        "name": "Iwilei Substation",
        "operator": "Hawaiian Electric Company",
        "operator:wikidata": "Q5684524",
        "power": "substation",
        "voltage": "138000;46000;25000;11500"
      },
      "lat": 21.3178039,
      "lon": -157.8672937
    },
    {
      "type": "way",
      "id": 325568734,
      "center": {
        "lat": 21.3171658,
        "lon": -157.867733
      },
      "tags": {
        "name": "Iwilei Substation",
        "operator": "Hawaiian Electric Company",
        "operator:wikidata": "Q5684524",
        "power": "substation",
        "substation": "transmission",
        "voltage": "138000;46000;25000;11500"
      },
      "lat": 21.3171658,
      "lon": -157.867733
    },
    {
      "type": "way",
      "id": 354897665,
      "center": {
        "lat": 21.3643275,
        "lon": -157.9535846
      },
      "tags": {
        "area": "yes",
        "name": "Ford Island Substation",
        "operator": "United States Navy",
        "power": "substation",
        "substation": "distribution",
        "voltage": "46000;11500"
      },
      "lat": 21.3643275,
      "lon": -157.9535846
    },
    {
      "type": "way",
      "id": 419449707,
      "center": {
        "lat": 21.3553308,
        "lon": -158.1276036
      },
      "tags": {
        "power": "substation",
        "substation": "generation"
      },
      "lat": 21.3553308,
      "lon": -158.1276036
    },
    {
      "type": "way",
      "id": 419449709,
      "center": {
        "lat": 21.3276267,
        "lon": -158.0968246
      },
      "tags": {
        "location": "outdoor",
        "name": "Campbell Estate Industrial Park (CEIP) Substation",
        "operator": "Hawaiian Electric Company",
        "operator:wikidata": "Q5684524",
        "power": "substation",
        "substation": "transmission",
        "voltage": "138000;46000;12470"
      },
      "lat": 21.3276267,
      "lon": -158.0968246
    },
    {
      "type": "way",
      "id": 419449710,
      "center": {
        "lat": 21.3720958,
        "lon": -158.045869
      },
      "tags": {
        "location": "outdoor",
        "name": "Ewa Nui Substation",
        "operator": "Hawaiian Electric Company",
        "operator:wikidata": "Q5684524",
        "power": "substation",
        "substation": "transmission",
        "voltage": "138000;46000;12470"
      },
      "lat": 21.3720958,
      "lon": -158.045869
    },
    {
      "type": "way",
      "id": 435487506,
      "center": {
        "lat": 19.6493619,
        "lon": -155.9880387
      },
      "tags": {
        "barrier": "fence",
        "power": "substation",
        "substation": "distribution",
        "voltage": "69000;12470"
      },
      "lat": 19.6493619,
      "lon": -155.9880387
    },
    {
      "type": "way",
      "id": 435572492,
      "center": {
        "lat": 19.7568095,
        "lon": -155.4593258
      },
      "tags": {
        "name": "Hale  P\u014dhaku",
        "power": "substation"
      },
      "lat": 19.7568095,
      "lon": -155.4593258
    },
    {
      "type": "way",
      "id": 438306841,
      "center": {
        "lat": 19.8726219,
        "lon": -155.7245599
      },
      "tags": {
        "barrier": "fence",
        "cables": "3",
        "operator": "Hawaiian Electric Company",
        "operator:wikidata": "Q5684524",
        "power": "substation",
        "substation": "switching",
        "voltage": "69000"
      },
      "lat": 19.8726219,
      "lon": -155.7245599
    },
    {
      "type": "way",
      "id": 439543598,
      "center": {
        "lat": 19.5822657,
        "lon": -155.9547989
      },
      "tags": {
        "barrier": "fence",
        "name": "Kahaluu Substation",
        "operator": "Hawaiian Electric Company",
        "operator:wikidata": "Q5684524",
        "power": "substation",
        "substation": "distribution",
        "voltage": "69000;12470"
      },
      "lat": 19.5822657,
      "lon": -155.9547989
    },
    {
      "type": "way",
      "id": 446533392,
      "center": {
        "lat": 21.3582841,
        "lon": -158.0889134
      },
      "tags": {
        "barrier": "fence",
        "name": "Makakilo Substation",
        "operator": "Hawaiian Electric Company",
        "operator:wikidata": "Q5684524",
        "power": "substation",
        "substation": "distribution",
        "voltage": "46000;12470"
      },
      "lat": 21.3582841,
      "lon": -158.0889134
    },
    {
      "type": "way",
      "id": 446703260,
      "center": {
        "lat": 21.341629,
        "lon": -158.076263
      },
      "tags": {
        "barrier": "fence",
        "name": "Kamokilia Substation",
        "operator": "Hawaiian Electric Company",
        "operator:wikidata": "Q5684524",
        "power": "substation",
        "substation": "distribution",
        "voltage": "46000;12470"
      },
      "lat": 21.341629,
      "lon": -158.076263
    },
    {
      "type": "way",
      "id": 448023154,
      "center": {
        "lat": 20.7409987,
        "lon": -156.4485593
      },
      "tags": {
        "barrier": "fence",
        "name": "Kihei Substation",
        "operator": "Maui Electric Company",
        "power": "substation",
        "substation": "distribution",
        "voltage": "69000"
      },
      "lat": 20.7409987,
      "lon": -156.4485593
    },
    {
      "type": "way",
      "id": 452717273,
      "center": {
        "lat": 21.3808903,
        "lon": -157.9103829
      },
      "tags": {
        "power": "substation",
        "substation": "distribution",
        "voltage": "46000"
      },
      "lat": 21.3808903,
      "lon": -157.9103829
    },
    {
      "type": "way",
      "id": 452717274,
      "center": {
        "lat": 21.3795102,
        "lon": -157.8831701
      },
      "tags": {
        "location": "outdoor",
        "name": "Halawa Substation",
        "operator": "Hawaiian Electric Company",
        "operator:wikidata": "Q5684524",
        "operator:wikipedia": "en:Hawaiian Electric Industries",
        "power": "substation",
        "voltage": "138000;46000"
      },
      "lat": 21.3795102,
      "lon": -157.8831701
    },
    {
      "type": "way",
      "id": 452717276,
      "center": {
        "lat": 21.3129201,
        "lon": -157.7867428
      },
      "tags": {
        "location": "outdoor",
        "name": "Pukele Substation",
        "operator": "Hawaiian Electric Company",
        "operator:wikidata": "Q5684524",
        "power": "substation",
        "ref": "2702",
        "substation": "transmission",
        "voltage": "138000;46000;12470"
      },
      "lat": 21.3129201,
      "lon": -157.7867428
    },
    {
      "type": "way",
      "id": 452717281,
      "center": {
        "lat": 21.4926426,
        "lon": -158.0244792
      },
      "tags": {
        "name": "Wahiawa Substation",
        "operator": "Hawaiian Electric Company",
        "operator:wikidata": "Q5684524",
        "power": "substation",
        "substation": "transmission",
        "voltage": "138000;46000;12470"
      },
      "lat": 21.4926426,
      "lon": -158.0244792
    },
    {
      "type": "way",
      "id": 459340765,
      "center": {
        "lat": 21.2881604,
        "lon": -157.8158254
      },
      "tags": {
        "frequency": "60",
        "location": "outdoor",
        "name": "Kapiolani Substation",
        "operator": "Hawaiian Electric Company",
        "operator:wikidata": "Q5684524",
        "operator:wikipedia": "en:Hawaiian Electric Industries",
        "power": "substation",
        "substation": "distribution",
        "voltage": "46000;12470;4160"
      },
      "lat": 21.2881604,
      "lon": -157.8158254
    },
    {
      "type": "way",
      "id": 459569299,
      "center": {
        "lat": 21.2998729,
        "lon": -157.8224219
      },
      "tags": {
        "frequency": "60",
        "location": "outdoor",
        "name": "Manoa Substation",
        "operator": "Hawaiian Electric Company",
        "operator:wikidata": "Q5684524",
        "power": "substation",
        "start_date": "1935",
        "substation": "distribution",
        "voltage": "46000;12500;11500"
      },
      "lat": 21.2998729,
      "lon": -157.8224219
    },
    {
      "type": "way",
      "id": 465561127,
      "center": {
        "lat": 22.211503,
        "lon": -159.474944
      },
      "tags": {
        "name": "Princeville Substation",
        "operator": "Kauai Island Utility Cooperative",
        "operator:short": "KIUC",
        "operator:wikidata": "Q6378658",
        "power": "substation",
        "source": "Bing",
        "substation": "distribution",
        "voltage": "57100;12470"
      },
      "lat": 22.211503,
      "lon": -159.474944
    },
    {
      "type": "way",
      "id": 479502407,
      "center": {
        "lat": 21.900897,
        "lon": -159.4473068
      },
      "tags": {
        "name": "Koloa Substation",
        "operator": "Kauai Island Utility Cooperative",
        "operator:short": "KIUC",
        "operator:wikidata": "Q6378658",
        "power": "substation",
        "substation": "distribution",
        "voltage": "57100;12470"
      },
      "lat": 21.900897,
      "lon": -159.4473068
    },
    {
      "type": "way",
      "id": 479502408,
      "center": {
        "lat": 21.9956442,
        "lon": -159.3769034
      },
      "tags": {
        "name": "Kapaia Substation",
        "operator": "Kauai Island Utility Cooperative",
        "operator:short": "KIUC",
        "operator:wikidata": "Q6378658",
        "power": "substation",
        "substation": "subtransmission",
        "voltage": "57100"
      },
      "lat": 21.9956442,
      "lon": -159.3769034
    },
    {
      "type": "way",
      "id": 479504088,
      "center": {
        "lat": 19.705028,
        "lon": -155.0622179
      },
      "tags": {
        "power": "substation",
        "voltage": "69000"
      },
      "lat": 19.705028,
      "lon": -155.0622179
    },
    {
      "type": "way",
      "id": 487547658,
      "center": {
        "lat": 21.3045916,
        "lon": -157.8424647
      },
      "tags": {
        "name": "Piikoi Substation",
        "operator": "Hawaiian Electric Company",
        "operator:wikidata": "Q5684524",
        "operator:wikipedia": "en:Hawaiian Electric Industries",
        "power": "substation",
        "substation": "distribution",
        "voltage": "46000;12470"
      },
      "lat": 21.3045916,
      "lon": -157.8424647
    },
    {
      "type": "way",
      "id": 494025167,
      "center": {
        "lat": 21.2934064,
        "lon": -157.8408246
      },
      "tags": {
        "name": "Makaloa Substation",
        "operator": "Hawaiian Electric Company",
        "operator:wikidata": "Q5684524",
        "power": "substation",
        "substation": "distribution",
        "voltage": "46000;12470"
      },
      "lat": 21.2934064,
      "lon": -157.8408246
    },
    {
      "type": "way",
      "id": 496987535,
      "center": {
        "lat": 21.2920034,
        "lon": -157.8161835
      },
      "tags": {
        "building": "industrial",
        "name": "Substation L",
        "operator": "Hawaiian Electric Company",
        "operator:wikidata": "Q5684524",
        "power": "substation",
        "substation": "distribution",
        "voltage": "46000"
      },
      "lat": 21.2920034,
      "lon": -157.8161835
    },
    {
      "type": "way",
      "id": 506656895,
      "center": {
        "lat": 21.3838762,
        "lon": -157.7939935
      },
      "tags": {
        "name": "Koolau Substation",
        "operator": "Hawaiian Electric Company",
        "operator:wikidata": "Q5684524",
        "power": "substation",
        "voltage": "138000;46000;12470"
      },
      "lat": 21.3838762,
      "lon": -157.7939935
    },
    {
      "type": "way",
      "id": 543178802,
      "center": {
        "lat": 19.8830687,
        "lon": -155.6559927
      },
      "tags": {
        "building": "yes",
        "power": "substation"
      },
      "lat": 19.8830687,
      "lon": -155.6559927
    },
    {
      "type": "way",
      "id": 553618183,
      "center": {
        "lat": 20.8688429,
        "lon": -156.4540115
      },
      "tags": {
        "barrier": "fence",
        "name": "Hawaii Sugar Substation",
        "operator": "Maui Electric Company",
        "power": "substation",
        "substation": "industrial",
        "voltage": "69000"
      },
      "lat": 20.8688429,
      "lon": -156.4540115
    },
    {
      "type": "way",
      "id": 578658201,
      "center": {
        "lat": 21.614001,
        "lon": -158.0534806
      },
      "tags": {
        "name": "Kawailoa Mauka Substation",
        "power": "substation",
        "substation": "generation",
        "voltage": "46000;23000"
      },
      "lat": 21.614001,
      "lon": -158.0534806
    },
    {
      "type": "way",
      "id": 586759119,
      "center": {
        "lat": 19.7422861,
        "lon": -155.9762463
      },
      "tags": {
        "barrier": "fence",
        "operator": "Hawaiian Electric Company",
        "operator:wikidata": "Q5684524",
        "power": "substation",
        "substation": "distribution",
        "voltage": "69000"
      },
      "lat": 19.7422861,
      "lon": -155.9762463
    },
    {
      "type": "way",
      "id": 591396299,
      "center": {
        "lat": 19.3506511,
        "lon": -155.3857052
      },
      "tags": {
        "barrier": "fence",
        "operator": "Hawaiian Electric Company",
        "operator:wikidata": "Q5684524",
        "power": "substation",
        "substation": "distribution",
        "voltage": "69000"
      },
      "lat": 19.3506511,
      "lon": -155.3857052
    },
    {
      "type": "way",
      "id": 619387461,
      "center": {
        "lat": 21.3371463,
        "lon": -157.7036819
      },
      "tags": {
        "barrier": "fence",
        "name": "Waimanalo Beach Substation",
        "operator": "Hawaiian Electric Company",
        "operator:wikidata": "Q5684524",
        "power": "substation",
        "substation": "distribution",
        "voltage": "46000;12470"
      },
      "lat": 21.3371463,
      "lon": -157.7036819
    },
    {
      "type": "way",
      "id": 619393184,
      "center": {
        "lat": 21.3892747,
        "lon": -157.9604078
      },
      "tags": {
        "name": "Waiau Substation",
        "operator": "Hawaiian Electric Company",
        "operator:wikidata": "Q5684524",
        "power": "substation",
        "substation": "transmission",
        "voltage": "138000;46000"
      },
      "lat": 21.3892747,
      "lon": -157.9604078
    },
    {
      "type": "way",
      "id": 619393185,
      "center": {
        "lat": 21.3898716,
        "lon": -157.9611196
      },
      "tags": {
        "name": "Waiau Substation",
        "operator": "Hawiian Electric Company",
        "power": "substation",
        "substation": "subtransmission",
        "voltage": "46000;11500"
      },
      "lat": 21.3898716,
      "lon": -157.9611196
    },
    {
      "type": "way",
      "id": 646161186,
      "center": {
        "lat": 21.3009439,
        "lon": -157.8530948
      },
      "tags": {
        "building": "yes",
        "name": "Archer Substation",
        "operator": "Hawaiian Electric Company",
        "operator:wikidata": "Q5684524",
        "operator:wikipedia": "en:Hawaiian Electric Industries",
        "power": "substation",
        "substation": "transmission",
        "voltage": "138000;46000;11500"
      },
      "lat": 21.3009439,
      "lon": -157.8530948
    },
    {
      "type": "way",
      "id": 646161187,
      "center": {
        "lat": 21.2867172,
        "lon": -157.8233398
      },
      "tags": {
        "building": "yes",
        "name": "Kamoku Substation",
        "operator": "Hawaiian Electric Company",
        "operator:wikidata": "Q5684524",
        "power": "substation",
        "substation": "transmission",
        "voltage": "138000;46000;25000"
      },
      "lat": 21.2867172,
      "lon": -157.8233398
    },
    {
      "type": "way",
      "id": 646161188,
      "center": {
        "lat": 21.3229744,
        "lon": -157.8603867
      },
      "tags": {
        "name": "School Street Substation",
        "operator": "Hawaiian Electric Company",
        "operator:wikidata": "Q5684524",
        "power": "substation",
        "substation": "transmission",
        "voltage": "138000;46000;11500;4160"
      },
      "lat": 21.3229744,
      "lon": -157.8603867
    },
    {
      "type": "way",
      "id": 646169843,
      "center": {
        "lat": 21.3368775,
        "lon": -157.9191865
      },
      "tags": {
        "name": "Airport Substation",
        "operator": "Hawaiian Electric Company",
        "operator:wikidata": "Q5684524",
        "operator:wikipedia": "en:Hawaiian Electric Industries",
        "power": "substation",
        "substation": "transmission",
        "voltage": "138000;11500"
      },
      "lat": 21.3368775,
      "lon": -157.9191865
    },
    {
      "type": "way",
      "id": 646174076,
      "center": {
        "lat": 21.3389847,
        "lon": -157.9242804
      },
      "tags": {
        "name": "Airport Transition Station",
        "operator": "Hawaiian Electric Company",
        "operator:wikidata": "Q5684524",
        "power": "substation",
        "substation": "transition",
        "voltage": "138000"
      },
      "lat": 21.3389847,
      "lon": -157.9242804
    },
    {
      "type": "way",
      "id": 646659784,
      "center": {
        "lat": 21.3575215,
        "lon": -157.9273247
      },
      "tags": {
        "barrier": "fence",
        "fence_type": "chain_link",
        "name": "Makalapa Substation",
        "operator": "Hawaiian Electric Company",
        "operator:wikidata": "Q5684524",
        "power": "substation",
        "substation": "transmission",
        "voltage": "138000;46000;11500"
      },
      "lat": 21.3575215,
      "lon": -157.9273247
    },
    {
      "type": "way",
      "id": 647163140,
      "center": {
        "lat": 21.2829906,
        "lon": -157.8285468
      },
      "tags": {
        "name": "Waikiki Substation",
        "operator": "Hawaiian Electric Company",
        "operator:wikidata": "Q5684524",
        "operator:wikipedia": "en:Hawaiian Electric Industries",
        "power": "substation",
        "substation": "distribution",
        "voltage": "46000;12470"
      },
      "lat": 21.2829906,
      "lon": -157.8285468
    },
    {
      "type": "way",
      "id": 648650220,
      "center": {
        "lat": 21.3053893,
        "lon": -157.8633426
      },
      "tags": {
        "name": "Honolulu Substation",
        "operator": "Hawaiian Electric Company",
        "operator:wikidata": "Q5684524",
        "power": "substation",
        "substation": "distribution",
        "voltage": "46000;11500"
      },
      "lat": 21.3053893,
      "lon": -157.8633426
    },
    {
      "type": "way",
      "id": 648650221,
      "center": {
        "lat": 21.3063875,
        "lon": -157.8789408
      },
      "tags": {
        "name": "Mokuone Substation",
        "operator": "Hawaiian Electric Company",
        "operator:wikidata": "Q5684524",
        "power": "substation",
        "substation": "distribution",
        "voltage": "46000;12470"
      },
      "lat": 21.3063875,
      "lon": -157.8789408
    },
    {
      "type": "way",
      "id": 648650222,
      "center": {
        "lat": 21.3297657,
        "lon": -157.8771607
      },
      "tags": {
        "name": "Kalihi Substation",
        "operator": "Hawaiian Electric Company",
        "operator:wikidata": "Q5684524",
        "power": "substation",
        "substation": "distribution",
        "voltage": "46000;4160"
      },
      "lat": 21.3297657,
      "lon": -157.8771607
    },
    {
      "type": "way",
      "id": 648650223,
      "center": {
        "lat": 21.3283723,
        "lon": -157.9021049
      },
      "tags": {
        "name": "Lagoon Substation",
        "operator": "Hawaiian Electric Company",
        "operator:wikidata": "Q5684524",
        "power": "substation",
        "substation": "distribution",
        "voltage": "46000;11500"
      },
      "lat": 21.3283723,
      "lon": -157.9021049
    },
    {
      "type": "way",
      "id": 648650224,
      "center": {
        "lat": 21.3348715,
        "lon": -157.9153634
      },
      "tags": {
        "fixme": "Is this still a substaion? Can\u2019t tell based on imagery",
        "name": "Keehi Substation",
        "operator": "Hawaiian Electric Company",
        "operator:wikidata": "Q5684524",
        "power": "substation",
        "substation": "distribution",
        "voltage": "46000;11500"
      },
      "lat": 21.3348715,
      "lon": -157.9153634
    },
    {
      "type": "way",
      "id": 648650225,
      "center": {
        "lat": 21.3449277,
        "lon": -157.9020124
      },
      "tags": {
        "addr:city": "Honolulu",
        "addr:housenumber": "2887",
        "addr:postcode": "96818",
        "addr:state": "HI",
        "addr:street": "Ala Ilima Street",
        "name": "Lakeside Substation",
        "operator": "Hawaiian Electric Company",
        "operator:wikidata": "Q5684524",
        "power": "substation",
        "substation": "distribution",
        "voltage": "46000"
      },
      "lat": 21.3449277,
      "lon": -157.9020124
    },
    {
      "type": "way",
      "id": 648652638,
      "center": {
        "lat": 21.2917817,
        "lon": -157.825496
      },
      "tags": {
        "name": "Moiliili Substation",
        "operator": "Hawaiian Electric Company",
        "operator:wikidata": "Q5684524",
        "power": "substation",
        "substation": "distribution",
        "voltage": "46000;12500"
      },
      "lat": 21.2917817,
      "lon": -157.825496
    },
    {
      "type": "way",
      "id": 648652639,
      "center": {
        "lat": 21.282742,
        "lon": -157.8026412
      },
      "tags": {
        "name": "Kaimuki Substation",
        "operator": "Hawaiian Electric Company",
        "operator:wikidata": "Q5684524",
        "power": "substation",
        "substation": "distribution",
        "voltage": "46000;4160"
      },
      "lat": 21.282742,
      "lon": -157.8026412
    },
    {
      "type": "way",
      "id": 648652640,
      "center": {
        "lat": 21.2846648,
        "lon": -157.7903981
      },
      "tags": {
        "operator": "Hawaiian Electric Company",
        "operator:wikidata": "Q5684524",
        "power": "substation",
        "substation": "distribution",
        "voltage": "46000"
      },
      "lat": 21.2846648,
      "lon": -157.7903981
    },
    {
      "type": "way",
      "id": 648656808,
      "center": {
        "lat": 21.2974216,
        "lon": -157.8141056
      },
      "tags": {
        "operator": "Hawaiian Electric Company",
        "operator:wikidata": "Q5684524",
        "power": "substation",
        "substation": "distribution",
        "voltage": "46000;12470"
      },
      "lat": 21.2974216,
      "lon": -157.8141056
    },
    {
      "type": "way",
      "id": 648656809,
      "center": {
        "lat": 21.3136356,
        "lon": -157.8054023
      },
      "tags": {
        "name": "Woodlawn Substation",
        "operator": "Hawaiian Electric Company",
        "operator:wikidata": "Q5684524",
        "power": "substation",
        "substation": "distribution",
        "voltage": "46000;4160"
      },
      "lat": 21.3136356,
      "lon": -157.8054023
    },
    {
      "type": "way",
      "id": 648955412,
      "center": {
        "lat": 21.330736,
        "lon": -157.9620729
      },
      "tags": {
        "name": "Mamala Substation",
        "operator": "United States Air Force",
        "power": "substation",
        "substation": "distribution",
        "voltage": "46000;11500"
      },
      "lat": 21.330736,
      "lon": -157.9620729
    },
    {
      "type": "way",
      "id": 648955414,
      "center": {
        "lat": 21.343693,
        "lon": -157.9482606
      },
      "tags": {
        "name": "Hickam Substation",
        "operator": "United States Air Force",
        "power": "substation",
        "substation": "distribution",
        "voltage": "46000;11500"
      },
      "lat": 21.343693,
      "lon": -157.9482606
    },
    {
      "type": "way",
      "id": 648961573,
      "center": {
        "lat": 21.3487468,
        "lon": -157.952522
      },
      "tags": {
        "barrier": "fence",
        "power": "substation",
        "substation": "distribution",
        "voltage": "46000"
      },
      "lat": 21.3487468,
      "lon": -157.952522
    },
    {
      "type": "way",
      "id": 648961575,
      "center": {
        "lat": 21.3546775,
        "lon": -157.9397497
      },
      "tags": {
        "barrier": "fence",
        "power": "substation",
        "substation": "distribution",
        "voltage": "46000"
      },
      "lat": 21.3546775,
      "lon": -157.9397497
    },
    {
      "type": "way",
      "id": 648964355,
      "center": {
        "lat": 21.3772791,
        "lon": -157.9329443
      },
      "tags": {
        "name": "Aiea Substation",
        "operator": "Hawaiian Electric Company",
        "operator:wikidata": "Q5684524",
        "power": "substation",
        "substation": "distribution",
        "voltage": "46000;11500"
      },
      "lat": 21.3772791,
      "lon": -157.9329443
    },
    {
      "type": "way",
      "id": 648964356,
      "center": {
        "lat": 21.381849,
        "lon": -157.9361305
      },
      "tags": {
        "name": "Kaonohi Substation",
        "operator": "Hawaiian Electric Company",
        "operator:wikidata": "Q5684524",
        "power": "substation",
        "substation": "distribution",
        "voltage": "46000;11500"
      },
      "lat": 21.381849,
      "lon": -157.9361305
    },
    {
      "type": "way",
      "id": 648967184,
      "center": {
        "lat": 21.4044573,
        "lon": -157.9654761
      },
      "tags": {
        "name": "Waimano Substation",
        "operator": "Hawaiian Electric Company",
        "operator:wikidata": "Q5684524",
        "power": "substation",
        "substation": "distribution",
        "voltage": "46000;11500"
      },
      "lat": 21.4044573,
      "lon": -157.9654761
    },
    {
      "type": "way",
      "id": 648967185,
      "center": {
        "lat": 21.3920817,
        "lon": -157.969355
      },
      "tags": {
        "operator": "Hawaiian Electric Company",
        "operator:wikidata": "Q5684524",
        "operator:wikipedia": "en:Hawaiian Electric Industries",
        "power": "substation",
        "substation": "distribution",
        "voltage": "46000"
      },
      "lat": 21.3920817,
      "lon": -157.969355
    },
    {
      "type": "way",
      "id": 648967186,
      "center": {
        "lat": 21.3888155,
        "lon": -157.9729279
      },
      "tags": {
        "operator": "Hawaiian Electric Company",
        "operator:wikidata": "Q5684524",
        "power": "substation",
        "substation": "distribution",
        "voltage": "46000"
      },
      "lat": 21.3888155,
      "lon": -157.9729279
    },
    {
      "type": "way",
      "id": 648967187,
      "center": {
        "lat": 21.3991694,
        "lon": -157.9929582
      },
      "tags": {
        "operator": "Hawaiian Electric Company",
        "operator:wikidata": "Q5684524",
        "power": "substation",
        "substation": "distribution",
        "voltage": "46000"
      },
      "lat": 21.3991694,
      "lon": -157.9929582
    },
    {
      "type": "way",
      "id": 651481240,
      "center": {
        "lat": 21.3853165,
        "lon": -158.0007546
      },
      "tags": {
        "name": "Waipahu Substation",
        "operator": "Hawaiian Electric Company",
        "operator:wikidata": "Q5684524",
        "power": "substation",
        "substation": "distribution",
        "voltage": "46000;12470"
      },
      "lat": 21.3853165,
      "lon": -158.0007546
    },
    {
      "type": "way",
      "id": 651481242,
      "center": {
        "lat": 21.3634984,
        "lon": -157.9761852
      },
      "tags": {
        "name": "West Loch Substation",
        "operator": "United States Navy",
        "power": "substation",
        "substation": "distribution",
        "voltage": "46000;11500"
      },
      "lat": 21.3634984,
      "lon": -157.9761852
    },
    {
      "type": "way",
      "id": 651481245,
      "center": {
        "lat": 21.377462,
        "lon": -158.0176718
      },
      "tags": {
        "name": "Hoaeae Substation",
        "operator": "Hawaiian Electric Company",
        "operator:wikidata": "Q5684524",
        "power": "substation",
        "substation": "distribution",
        "voltage": "46000;12470"
      },
      "lat": 21.377462,
      "lon": -158.0176718
    },
    {
      "type": "way",
      "id": 651481248,
      "center": {
        "lat": 21.3378282,
        "lon": -158.0344462
      },
      "tags": {
        "name": "Fort Weaver Substation",
        "operator": "Hawaiian Electric Company",
        "operator:wikidata": "Q5684524",
        "power": "substation",
        "substation": "distribution",
        "voltage": "46000;12470"
      },
      "lat": 21.3378282,
      "lon": -158.0344462
    },
    {
      "type": "way",
      "id": 651481251,
      "center": {
        "lat": 21.3222972,
        "lon": -158.025672
      },
      "tags": {
        "barrier": "wall",
        "name": "Ocean Pointe Substation",
        "operator": "Hawaiian Electric Company",
        "operator:wikidata": "Q5684524",
        "power": "substation",
        "substation": "distribution",
        "voltage": "46000;12470"
      },
      "lat": 21.3222972,
      "lon": -158.025672
    },
    {
      "type": "way",
      "id": 651481252,
      "center": {
        "lat": 21.3233023,
        "lon": -158.0166012
      },
      "tags": {
        "name": "Ewa Beach Substation",
        "operator": "Hawaiian Electric Company",
        "operator:wikidata": "Q5684524",
        "power": "substation",
        "substation": "distribution",
        "voltage": "46000;12470"
      },
      "lat": 21.3233023,
      "lon": -158.0166012
    },
    {
      "type": "way",
      "id": 651481253,
      "center": {
        "lat": 21.325173,
        "lon": -157.9859162
      },
      "tags": {
        "name": "Fort Weaver Substation",
        "operator": "Hawaiian Electric Company",
        "operator:wikidata": "Q5684524",
        "power": "substation",
        "substation": "distribution",
        "voltage": "46000;12470"
      },
      "lat": 21.325173,
      "lon": -157.9859162
    },
    {
      "type": "way",
      "id": 651481254,
      "center": {
        "lat": 21.3523278,
        "lon": -158.0054252
      },
      "tags": {
        "power": "substation",
        "substation": "distribution",
        "voltage": "46000"
      },
      "lat": 21.3523278,
      "lon": -158.0054252
    },
    {
      "type": "way",
      "id": 651847342,
      "center": {
        "lat": 21.3272849,
        "lon": -158.0607795
      },
      "tags": {
        "power": "substation",
        "substation": "distribution",
        "voltage": "46000"
      },
      "lat": 21.3272849,
      "lon": -158.0607795
    },
    {
      "type": "way",
      "id": 651847726,
      "center": {
        "lat": 21.3135587,
        "lon": -157.8872186
      },
      "tags": {
        "name": "Sand Island Substation",
        "operator": "Hawaiian Electric Company",
        "operator:wikidata": "Q5684524",
        "power": "substation",
        "substation": "distribution",
        "voltage": "46000;12500"
      },
      "lat": 21.3135587,
      "lon": -157.8872186
    },
    {
      "type": "way",
      "id": 651849225,
      "center": {
        "lat": 21.2802451,
        "lon": -157.7835091
      },
      "tags": {
        "name": "Hawaiian Electric Kahala Substation",
        "operator": "Hawaiian Electric Company",
        "operator:wikidata": "Q5684524",
        "power": "substation",
        "substation": "distribution",
        "voltage": "46000"
      },
      "lat": 21.2802451,
      "lon": -157.7835091
    },
    {
      "type": "way",
      "id": 651849226,
      "center": {
        "lat": 21.2776004,
        "lon": -157.7730492
      },
      "tags": {
        "operator": "Hawaiian Electric Company",
        "operator:wikidata": "Q5684524",
        "operator:wikipedia": "en:Hawaiian Electric Industries",
        "power": "substation",
        "substation": "distribution",
        "voltage": "46000"
      },
      "lat": 21.2776004,
      "lon": -157.7730492
    },
    {
      "type": "way",
      "id": 651849227,
      "center": {
        "lat": 21.2913944,
        "lon": -157.7605516
      },
      "tags": {
        "operator": "Hawaiian Electric Company",
        "operator:wikidata": "Q5684524",
        "power": "substation",
        "substation": "distribution",
        "voltage": "46000"
      },
      "lat": 21.2913944,
      "lon": -157.7605516
    },
    {
      "type": "way",
      "id": 651849228,
      "center": {
        "lat": 21.2890097,
        "lon": -157.7140974
      },
      "tags": {
        "name": "Ahi Substation",
        "operator": "Hawaiian Electric Company",
        "operator:wikidata": "Q5684524",
        "power": "substation",
        "substation": "distribution",
        "voltage": "46000;12470"
      },
      "lat": 21.2890097,
      "lon": -157.7140974
    },
    {
      "type": "way",
      "id": 651849229,
      "center": {
        "lat": 21.289359,
        "lon": -157.7015639
      },
      "tags": {
        "operator": "Hawaiian Electric Company",
        "operator:wikidata": "Q5684524",
        "operator:wikipedia": "en:Hawaiian Electric Industries",
        "power": "substation",
        "substation": "distribution",
        "voltage": "46000"
      },
      "lat": 21.289359,
      "lon": -157.7015639
    },
    {
      "type": "way",
      "id": 651849230,
      "center": {
        "lat": 21.2935704,
        "lon": -157.684601
      },
      "tags": {
        "name": "Kamiloiki Substation",
        "operator": "Hawaiian Electric Company",
        "operator:wikidata": "Q5684524",
        "power": "substation",
        "substation": "distribution",
        "voltage": "46000;12470"
      },
      "lat": 21.2935704,
      "lon": -157.684601
    },
    {
      "type": "way",
      "id": 651849926,
      "center": {
        "lat": 21.3782795,
        "lon": -157.7508927
      },
      "tags": {
        "operator": "Hawaiian Electric Company",
        "operator:wikidata": "Q5684524",
        "power": "substation",
        "substation": "distribution",
        "voltage": "46000"
      },
      "lat": 21.3782795,
      "lon": -157.7508927
    },
    {
      "type": "way",
      "id": 651849927,
      "center": {
        "lat": 21.3944466,
        "lon": -157.7461945
      },
      "tags": {
        "name": "Kailua Substation",
        "operator": "Hawaiian Electric Company",
        "operator:wikidata": "Q5684524",
        "power": "substation",
        "substation": "distribution",
        "voltage": "46000;12470;4160"
      },
      "lat": 21.3944466,
      "lon": -157.7461945
    },
    {
      "type": "way",
      "id": 651849928,
      "center": {
        "lat": 21.3945814,
        "lon": -157.7456518
      },
      "tags": {
        "name": "Kailua Substation",
        "operator": "Hawaiian Electric Company",
        "operator:wikidata": "Q5684524",
        "power": "substation",
        "substation": "distribution",
        "voltage": "46000;12470;4160"
      },
      "lat": 21.3945814,
      "lon": -157.7456518
    },
    {
      "type": "way",
      "id": 652587879,
      "center": {
        "lat": 21.4195777,
        "lon": -157.7495087
      },
      "tags": {
        "operator": "Hawaiian Electric Company",
        "operator:wikidata": "Q5684524",
        "power": "substation",
        "substation": "distribution",
        "voltage": "46000"
      },
      "lat": 21.4195777,
      "lon": -157.7495087
    },
    {
      "type": "way",
      "id": 652587880,
      "center": {
        "lat": 21.4376502,
        "lon": -157.7575898
      },
      "tags": {
        "name": "Mokapu Substation",
        "operator": "Hawaiian Electric Company",
        "operator:wikidata": "Q5684524",
        "power": "substation",
        "substation": "distribution",
        "voltage": "46000;11500"
      },
      "lat": 21.4376502,
      "lon": -157.7575898
    },
    {
      "type": "way",
      "id": 652587881,
      "center": {
        "lat": 21.4283054,
        "lon": -157.7541567
      },
      "tags": {
        "name": "Kalaheo Substation",
        "operator": "Hawaiian Electric Company",
        "operator:wikidata": "Q5684524",
        "power": "substation",
        "substation": "distribution",
        "voltage": "46000;12470"
      },
      "lat": 21.4283054,
      "lon": -157.7541567
    },
    {
      "type": "way",
      "id": 652587883,
      "center": {
        "lat": 21.3770207,
        "lon": -157.8167184
      },
      "tags": {
        "operator": "Hawaiian Electric Company",
        "operator:wikidata": "Q5684524",
        "power": "substation",
        "substation": "distribution",
        "voltage": "46000"
      },
      "lat": 21.3770207,
      "lon": -157.8167184
    },
    {
      "type": "way",
      "id": 653518647,
      "center": {
        "lat": 21.4055822,
        "lon": -157.7915794
      },
      "tags": {
        "operator": "Hawaiian Electric Company",
        "operator:wikidata": "Q5684524",
        "power": "substation",
        "substation": "distribution",
        "voltage": "46000"
      },
      "lat": 21.4055822,
      "lon": -157.7915794
    },
    {
      "type": "way",
      "id": 653518648,
      "center": {
        "lat": 21.4127274,
        "lon": -157.8042881
      },
      "tags": {
        "operator": "Hawaiian Electric Company",
        "operator:wikidata": "Q5684524",
        "power": "substation",
        "substation": "distribution",
        "voltage": "46000"
      },
      "lat": 21.4127274,
      "lon": -157.8042881
    },
    {
      "type": "way",
      "id": 653518649,
      "center": {
        "lat": 21.4596313,
        "lon": -157.8418881
      },
      "tags": {
        "operator": "Hawaiian Electric Company",
        "operator:wikidata": "Q5684524",
        "power": "substation",
        "substation": "distribution",
        "voltage": "46000"
      },
      "lat": 21.4596313,
      "lon": -157.8418881
    },
    {
      "type": "way",
      "id": 653518650,
      "center": {
        "lat": 21.4597246,
        "lon": -157.8422599
      },
      "tags": {
        "power": "substation",
        "substation": "distribution",
        "voltage": "46000"
      },
      "lat": 21.4597246,
      "lon": -157.8422599
    },
    {
      "type": "way",
      "id": 653518651,
      "center": {
        "lat": 21.5837871,
        "lon": -157.8937178
      },
      "tags": {
        "power": "substation",
        "substation": "distribution",
        "voltage": "46000"
      },
      "lat": 21.5837871,
      "lon": -157.8937178
    },
    {
      "type": "way",
      "id": 653518652,
      "center": {
        "lat": 21.6120168,
        "lon": -157.9146671
      },
      "tags": {
        "name": "Hauula Substation",
        "operator": "Hawaiian Electric Company",
        "operator:wikidata": "Q5684524",
        "power": "substation",
        "substation": "distribution",
        "voltage": "46000;11500"
      },
      "lat": 21.6120168,
      "lon": -157.9146671
    },
    {
      "type": "way",
      "id": 653518655,
      "center": {
        "lat": 21.6901881,
        "lon": -157.994329
      },
      "tags": {
        "name": "Kuilima Substation",
        "operator": "Hawaiian Electric Company",
        "operator:wikidata": "Q5684524",
        "power": "substation",
        "substation": "distribution",
        "voltage": "46000;11500"
      },
      "lat": 21.6901881,
      "lon": -157.994329
    },
    {
      "type": "way",
      "id": 653518835,
      "center": {
        "lat": 21.6530692,
        "lon": -158.0597556
      },
      "tags": {
        "name": "Waimea Substation",
        "operator": "Hawaiian Electric Company",
        "operator:wikidata": "Q5684524",
        "power": "substation",
        "substation": "distribution",
        "voltage": "46000;12470"
      },
      "lat": 21.6530692,
      "lon": -158.0597556
    },
    {
      "type": "way",
      "id": 653518836,
      "center": {
        "lat": 21.5769516,
        "lon": -158.106688
      },
      "tags": {
        "name": "Waialua Substation",
        "operator": "Hawaiian Electric Company",
        "operator:wikidata": "Q5684524",
        "power": "substation",
        "substation": "distribution",
        "voltage": "46000;11500"
      },
      "lat": 21.5769516,
      "lon": -158.106688
    },
    {
      "type": "way",
      "id": 653845362,
      "center": {
        "lat": 21.5264575,
        "lon": -158.0428258
      },
      "tags": {
        "power": "substation",
        "substation": "distribution",
        "voltage": "46000"
      },
      "lat": 21.5264575,
      "lon": -158.0428258
    },
    {
      "type": "way",
      "id": 653845363,
      "center": {
        "lat": 21.6202358,
        "lon": -158.0761831
      },
      "tags": {
        "name": "Kawailoa Makai Substation",
        "power": "substation",
        "substation": "generation",
        "voltage": "46000;23000"
      },
      "lat": 21.6202358,
      "lon": -158.0761831
    },
    {
      "type": "way",
      "id": 654133021,
      "center": {
        "lat": 21.3234772,
        "lon": -157.8831874
      },
      "tags": {
        "name": "Kapalama Substation",
        "operator": "Hawaiian Electric Company",
        "operator:wikidata": "Q5684524",
        "power": "substation",
        "substation": "distribution",
        "voltage": "46000;11500"
      },
      "lat": 21.3234772,
      "lon": -157.8831874
    },
    {
      "type": "way",
      "id": 654133022,
      "center": {
        "lat": 21.3151035,
        "lon": -157.8534168
      },
      "tags": {
        "operator": "Hawaiian Electric Company",
        "operator:wikidata": "Q5684524",
        "power": "substation",
        "substation": "distribution",
        "voltage": "46000"
      },
      "lat": 21.3151035,
      "lon": -157.8534168
    },
    {
      "type": "way",
      "id": 654133023,
      "center": {
        "lat": 21.3194582,
        "lon": -157.842297
      },
      "tags": {
        "name": "Pauoa Substation",
        "operator": "Hawaiian Electric Company",
        "operator:wikidata": "Q5684524",
        "power": "substation",
        "substation": "distribution",
        "voltage": "46000;12470"
      },
      "lat": 21.3194582,
      "lon": -157.842297
    },
    {
      "type": "way",
      "id": 654133024,
      "center": {
        "lat": 21.3324966,
        "lon": -157.8514293
      },
      "tags": {
        "operator": "Hawaiian Electric Company",
        "operator:wikidata": "Q5684524",
        "power": "substation",
        "substation": "distribution",
        "voltage": "46000"
      },
      "lat": 21.3324966,
      "lon": -157.8514293
    },
    {
      "type": "way",
      "id": 654133025,
      "center": {
        "lat": 21.3401742,
        "lon": -157.8349951
      },
      "tags": {
        "operator": "Hawaiian Electric Company",
        "operator:wikidata": "Q5684524",
        "power": "substation",
        "substation": "distribution",
        "voltage": "46000"
      },
      "lat": 21.3401742,
      "lon": -157.8349951
    },
    {
      "type": "way",
      "id": 654133026,
      "center": {
        "lat": 21.3345374,
        "lon": -157.8670042
      },
      "tags": {
        "operator": "Hawaiian Electric Company",
        "operator:wikidata": "Q5684524",
        "power": "substation",
        "substation": "distribution",
        "voltage": "46000"
      },
      "lat": 21.3345374,
      "lon": -157.8670042
    },
    {
      "type": "way",
      "id": 654133027,
      "center": {
        "lat": 21.3431474,
        "lon": -157.8635362
      },
      "tags": {
        "operator": "Hawaiian Electric Company",
        "operator:wikidata": "Q5684524",
        "power": "substation",
        "substation": "distribution",
        "voltage": "46000"
      },
      "lat": 21.3431474,
      "lon": -157.8635362
    },
    {
      "type": "way",
      "id": 654133028,
      "center": {
        "lat": 21.3553528,
        "lon": -157.8588299
      },
      "tags": {
        "operator": "Hawaiian Electric Company",
        "operator:wikidata": "Q5684524",
        "power": "substation",
        "substation": "distribution",
        "voltage": "46000"
      },
      "lat": 21.3553528,
      "lon": -157.8588299
    },
    {
      "type": "way",
      "id": 654133029,
      "center": {
        "lat": 21.3403229,
        "lon": -157.894516
      },
      "tags": {
        "name": "Mapunapuna Substation",
        "operator": "Hawaiian Electric Company",
        "operator:wikidata": "Q5684524",
        "power": "substation",
        "substation": "distribution",
        "voltage": "46000;11500"
      },
      "lat": 21.3403229,
      "lon": -157.894516
    },
    {
      "type": "way",
      "id": 654133031,
      "center": {
        "lat": 21.3601275,
        "lon": -157.8972577
      },
      "tags": {
        "power": "substation",
        "substation": "distribution",
        "voltage": "46000"
      },
      "lat": 21.3601275,
      "lon": -157.8972577
    },
    {
      "type": "way",
      "id": 654133032,
      "center": {
        "lat": 21.3646644,
        "lon": -157.9018916
      },
      "tags": {
        "name": "Hila Substation",
        "operator": "Hawaiian Electric Company",
        "operator:wikidata": "Q5684524",
        "power": "substation",
        "substation": "distribution",
        "voltage": "46000;11500"
      },
      "lat": 21.3646644,
      "lon": -157.9018916
    },
    {
      "type": "way",
      "id": 654133033,
      "center": {
        "lat": 21.3746435,
        "lon": -157.9099818
      },
      "tags": {
        "name": "Quarry Substation",
        "power": "substation",
        "substation": "distribution",
        "voltage": "46000;12470"
      },
      "lat": 21.3746435,
      "lon": -157.9099818
    },
    {
      "type": "way",
      "id": 655494665,
      "center": {
        "lat": 21.4976696,
        "lon": -158.0700061
      },
      "tags": {
        "name": "Menoher Substation",
        "operator": "United States Army",
        "power": "substation",
        "substation": "distribution",
        "voltage": "46000;7200"
      },
      "lat": 21.4976696,
      "lon": -158.0700061
    },
    {
      "type": "way",
      "id": 655494666,
      "center": {
        "lat": 21.4935102,
        "lon": -158.049512
      },
      "tags": {
        "name": "Castner Substation",
        "operator": "United States Army",
        "power": "substation",
        "substation": "distribution",
        "voltage": "46000;7200"
      },
      "lat": 21.4935102,
      "lon": -158.049512
    },
    {
      "type": "way",
      "id": 655494667,
      "center": {
        "lat": 21.4867186,
        "lon": -158.0405626
      },
      "tags": {
        "name": "Wheeler Substation",
        "operator": "United States Army",
        "power": "substation",
        "substation": "distribution",
        "voltage": "46000"
      },
      "lat": 21.4867186,
      "lon": -158.0405626
    },
    {
      "type": "way",
      "id": 655494668,
      "center": {
        "lat": 21.4717587,
        "lon": -158.0546988
      },
      "tags": {
        "power": "substation",
        "substation": "distribution",
        "voltage": "46000"
      },
      "lat": 21.4717587,
      "lon": -158.0546988
    },
    {
      "type": "way",
      "id": 655494669,
      "center": {
        "lat": 21.4652504,
        "lon": -158.006284
      },
      "tags": {
        "name": "Mililani Substation",
        "operator": "Hawaiian Electric Company",
        "operator:wikidata": "Q5684524",
        "power": "substation",
        "substation": "distribution",
        "voltage": "46000;12500"
      },
      "lat": 21.4652504,
      "lon": -158.006284
    },
    {
      "type": "way",
      "id": 655494670,
      "center": {
        "lat": 21.4776717,
        "lon": -157.9657329
      },
      "tags": {
        "power": "substation",
        "substation": "distribution",
        "voltage": "46000"
      },
      "lat": 21.4776717,
      "lon": -157.9657329
    },
    {
      "type": "way",
      "id": 655494671,
      "center": {
        "lat": 21.4279361,
        "lon": -158.0157817
      },
      "tags": {
        "power": "substation",
        "substation": "distribution",
        "voltage": "46000"
      },
      "lat": 21.4279361,
      "lon": -158.0157817
    },
    {
      "type": "way",
      "id": 655498108,
      "center": {
        "lat": 21.3916794,
        "lon": -158.035558
      },
      "tags": {
        "operator": "Hawaiian Electric Company",
        "operator:wikidata": "Q5684524",
        "power": "substation",
        "substation": "distribution",
        "voltage": "46000"
      },
      "lat": 21.3916794,
      "lon": -158.035558
    },
    {
      "type": "way",
      "id": 655498109,
      "center": {
        "lat": 21.3868247,
        "lon": -158.0533719
      },
      "tags": {
        "power": "substation",
        "substation": "distribution",
        "voltage": "46000"
      },
      "lat": 21.3868247,
      "lon": -158.0533719
    },
    {
      "type": "way",
      "id": 655498110,
      "center": {
        "lat": 21.3534641,
        "lon": -158.0645077
      },
      "tags": {
        "power": "substation",
        "substation": "distribution",
        "voltage": "46000"
      },
      "lat": 21.3534641,
      "lon": -158.0645077
    },
    {
      "type": "way",
      "id": 655498111,
      "center": {
        "lat": 21.3338233,
        "lon": -158.1151664
      },
      "tags": {
        "name": "Ko Olina Substation",
        "operator": "Hawaiian Electric Company",
        "operator:wikidata": "Q5684524",
        "power": "substation",
        "substation": "distribution",
        "voltage": "46000;12470"
      },
      "lat": 21.3338233,
      "lon": -158.1151664
    },
    {
      "type": "way",
      "id": 655498112,
      "center": {
        "lat": 21.3232079,
        "lon": -158.1096978
      },
      "tags": {
        "power": "substation",
        "substation": "distribution",
        "voltage": "46000"
      },
      "lat": 21.3232079,
      "lon": -158.1096978
    },
    {
      "type": "way",
      "id": 655499000,
      "center": {
        "lat": 21.4217052,
        "lon": -158.1634654
      },
      "tags": {
        "name": "Mikilua Substation",
        "operator": "Hawaiian Electric Company",
        "operator:wikidata": "Q5684524",
        "power": "substation",
        "substation": "distribution",
        "voltage": "46000;12470"
      },
      "lat": 21.4217052,
      "lon": -158.1634654
    },
    {
      "type": "way",
      "id": 655499001,
      "center": {
        "lat": 21.4261805,
        "lon": -158.1598448
      },
      "tags": {
        "power": "substation",
        "substation": "distribution",
        "voltage": "46000"
      },
      "lat": 21.4261805,
      "lon": -158.1598448
    },
    {
      "type": "way",
      "id": 655499002,
      "center": {
        "lat": 21.440413,
        "lon": -158.1513693
      },
      "tags": {
        "power": "substation",
        "substation": "distribution",
        "voltage": "46000"
      },
      "lat": 21.440413,
      "lon": -158.1513693
    },
    {
      "type": "way",
      "id": 655499003,
      "center": {
        "lat": 21.4706628,
        "lon": -158.2046576
      },
      "tags": {
        "name": "Makaha Substation",
        "operator": "Hawaiian Electric Company",
        "operator:wikidata": "Q5684524",
        "power": "substation",
        "substation": "distribution",
        "voltage": "46000;12470"
      },
      "lat": 21.4706628,
      "lon": -158.2046576
    },
    {
      "type": "way",
      "id": 668002517,
      "center": {
        "lat": 21.9742197,
        "lon": -159.3974128
      },
      "tags": {
        "power": "substation",
        "source": "DigitalGlobe-Premium"
      },
      "lat": 21.9742197,
      "lon": -159.3974128
    },
    {
      "type": "way",
      "id": 675542438,
      "center": {
        "lat": 21.3563983,
        "lon": -158.1272618
      },
      "tags": {
        "power": "substation"
      },
      "lat": 21.3563983,
      "lon": -158.1272618
    },
    {
      "type": "way",
      "id": 687502134,
      "center": {
        "lat": 19.7268605,
        "lon": -155.0910142
      },
      "tags": {
        "barrier": "fence",
        "operator": "Hawaiian Electric Company",
        "operator:wikidata": "Q5684524",
        "power": "substation",
        "substation": "distribution",
        "voltage": "69000"
      },
      "lat": 19.7268605,
      "lon": -155.0910142
    },
    {
      "type": "way",
      "id": 694232468,
      "center": {
        "lat": 21.4084151,
        "lon": -157.7462008
      },
      "tags": {
        "name": "Kalama Substation",
        "operator": "Hawaiian Electric Company",
        "operator:wikidata": "Q5684524",
        "power": "substation",
        "substation": "distribution",
        "voltage": "46000;4160"
      },
      "lat": 21.4084151,
      "lon": -157.7462008
    },
    {
      "type": "way",
      "id": 694232469,
      "center": {
        "lat": 21.3307001,
        "lon": -158.0544494
      },
      "tags": {
        "name": "Kapolei Substation",
        "operator": "Hawaiian Electric Company",
        "operator:wikidata": "Q5684524",
        "power": "substation",
        "substation": "distribution",
        "voltage": "46000;12470"
      },
      "lat": 21.3307001,
      "lon": -158.0544494
    },
    {
      "type": "way",
      "id": 694235962,
      "center": {
        "lat": 21.3595511,
        "lon": -158.0569818
      },
      "tags": {
        "name": "Kaloi Substation",
        "operator": "Hawaiian Electric Company",
        "operator:wikidata": "Q5684524",
        "power": "substation",
        "substation": "distribution",
        "voltage": "46000;12470"
      },
      "lat": 21.3595511,
      "lon": -158.0569818
    },
    {
      "type": "way",
      "id": 711844683,
      "center": {
        "lat": 21.321256,
        "lon": -158.086978
      },
      "tags": {
        "power": "substation"
      },
      "lat": 21.321256,
      "lon": -158.086978
    },
    {
      "type": "way",
      "id": 711872232,
      "center": {
        "lat": 21.9046289,
        "lon": -159.4937362
      },
      "tags": {
        "barrier": "fence",
        "name": "Aepo Substation",
        "operator": "Kauai Island Utility Cooperative",
        "operator:short": "KIUC",
        "operator:wikidata": "Q6378658",
        "power": "substation",
        "substation": "transmission",
        "voltage": "57000"
      },
      "lat": 21.9046289,
      "lon": -159.4937362
    },
    {
      "type": "way",
      "id": 711872233,
      "center": {
        "lat": 21.9050535,
        "lon": -159.4939572
      },
      "tags": {
        "barrier": "fence",
        "operator": "AES",
        "operator:wikidata": "Q291508",
        "operator:wikipedia": "en:AES Corporation",
        "power": "substation",
        "substation": "generation",
        "voltage": "57000"
      },
      "lat": 21.9050535,
      "lon": -159.4939572
    },
    {
      "type": "way",
      "id": 713863327,
      "center": {
        "lat": 21.9207951,
        "lon": -159.501438
      },
      "tags": {
        "name": "Lawai Substation",
        "operator": "Kauai Island Utility Cooperative",
        "operator:short": "KIUC",
        "operator:wikidata": "Q6378658",
        "power": "substation",
        "substation": "distribution",
        "voltage": "57100;12470"
      },
      "lat": 21.9207951,
      "lon": -159.501438
    },
    {
      "type": "way",
      "id": 713863328,
      "center": {
        "lat": 21.9762547,
        "lon": -159.3759273
      },
      "tags": {
        "name": "Lihue Substation",
        "operator": "Kauai Island Utility Cooperative",
        "operator:short": "KIUC",
        "operator:wikidata": "Q6378658",
        "power": "substation",
        "substation": "distribution",
        "voltage": "57100;12470"
      },
      "lat": 21.9762547,
      "lon": -159.3759273
    },
    {
      "type": "way",
      "id": 713863330,
      "center": {
        "lat": 22.1965176,
        "lon": -159.5557965
      },
      "tags": {
        "name": "Wainiha Substation",
        "operator": "Kauai Island Utility Cooperative",
        "operator:short": "KIUC",
        "operator:wikidata": "Q6378658",
        "power": "substation",
        "substation": "distribution",
        "voltage": "57100;12470"
      },
      "lat": 22.1965176,
      "lon": -159.5557965
    },
    {
      "type": "way",
      "id": 777180188,
      "center": {
        "lat": 20.8848463,
        "lon": -156.6595079
      },
      "tags": {
        "barrier": "fence",
        "name": "Lahaina Switching Station",
        "operator": "Maui Electric Company",
        "power": "substation",
        "substation": "switching",
        "voltage": "69000"
      },
      "lat": 20.8848463,
      "lon": -156.6595079
    },
    {
      "type": "way",
      "id": 800871264,
      "center": {
        "lat": 21.4265674,
        "lon": -158.0018599
      },
      "tags": {
        "name": "Waipio Substation",
        "operator": "Hawaiian Electric Company",
        "operator:wikidata": "Q5684524",
        "power": "substation",
        "substation": "distribution",
        "voltage": "46000;12470"
      },
      "lat": 21.4265674,
      "lon": -158.0018599
    },
    {
      "type": "way",
      "id": 803740134,
      "center": {
        "lat": 21.9629498,
        "lon": -159.4580219
      },
      "tags": {
        "power": "substation"
      },
      "lat": 21.9629498,
      "lon": -159.4580219
    },
    {
      "type": "way",
      "id": 807001101,
      "center": {
        "lat": 20.7086616,
        "lon": -156.2569007
      },
      "tags": {
        "power": "substation"
      },
      "lat": 20.7086616,
      "lon": -156.2569007
    },
    {
      "type": "way",
      "id": 828663254,
      "center": {
        "lat": 19.6841713,
        "lon": -155.136281
      },
      "tags": {
        "barrier": "fence",
        "name": "Kaumana Substation",
        "operator": "Hawaiian Electric Company",
        "operator:wikidata": "Q5684524",
        "power": "substation",
        "substation": "distribution",
        "voltage": "69000"
      },
      "lat": 19.6841713,
      "lon": -155.136281
    },
    {
      "type": "way",
      "id": 830985397,
      "center": {
        "lat": 19.6459548,
        "lon": -155.9999078
      },
      "tags": {
        "barrier": "fence",
        "name": "Kailua Substation",
        "operator": "Hawaiian Electric Company",
        "operator:wikidata": "Q5684524",
        "power": "substation",
        "substation": "distribution",
        "voltage": "69000;12470"
      },
      "lat": 19.6459548,
      "lon": -155.9999078
    },
    {
      "type": "way",
      "id": 831081184,
      "center": {
        "lat": 19.6632201,
        "lon": -156.008894
      },
      "tags": {
        "barrier": "fence",
        "operator": "Hawaiian Electric Company",
        "operator:wikidata": "Q5684524",
        "power": "substation",
        "substation": "distribution",
        "voltage": "69000;12470"
      },
      "lat": 19.6632201,
      "lon": -156.008894
    },
    {
      "type": "way",
      "id": 831086098,
      "center": {
        "lat": 19.7159198,
        "lon": -156.0325808
      },
      "tags": {
        "barrier": "fence",
        "operator": "Hawaiian Electric Company",
        "operator:wikidata": "Q5684524",
        "power": "substation",
        "substation": "distribution",
        "voltage": "69000;12470"
      },
      "lat": 19.7159198,
      "lon": -156.0325808
    },
    {
      "type": "way",
      "id": 836930788,
      "center": {
        "lat": 21.4561713,
        "lon": -158.1932303
      },
      "tags": {
        "power": "substation",
        "substation": "generation",
        "voltage": "46000;34500"
      },
      "lat": 21.4561713,
      "lon": -158.1932303
    },
    {
      "type": "way",
      "id": 836931514,
      "center": {
        "lat": 21.340122,
        "lon": -158.0147779
      },
      "tags": {
        "name": "West Loch Solar Substation",
        "operator": "Hawaiian Electric Company",
        "operator:wikidata": "Q5684524",
        "power": "substation",
        "substation": "generation",
        "voltage": "46000;34500"
      },
      "lat": 21.340122,
      "lon": -158.0147779
    },
    {
      "type": "way",
      "id": 865515526,
      "center": {
        "lat": 19.631993,
        "lon": -155.0306883
      },
      "tags": {
        "barrier": "fence",
        "operator": "Hawaiian Electric Company",
        "operator:wikidata": "Q5684524",
        "power": "substation",
        "substation": "distribution",
        "voltage": "69000"
      },
      "lat": 19.631993,
      "lon": -155.0306883
    },
    {
      "type": "way",
      "id": 865515538,
      "center": {
        "lat": 21.6146974,
        "lon": -158.0523372
      },
      "tags": {
        "power": "substation"
      },
      "lat": 21.6146974,
      "lon": -158.0523372
    },
    {
      "type": "way",
      "id": 865515543,
      "center": {
        "lat": 21.6189148,
        "lon": -158.0644739
      },
      "tags": {
        "power": "substation"
      },
      "lat": 21.6189148,
      "lon": -158.0644739
    },
    {
      "type": "way",
      "id": 865515546,
      "center": {
        "lat": 21.4594218,
        "lon": -157.9754888
      },
      "tags": {
        "power": "substation"
      },
      "lat": 21.4594218,
      "lon": -157.9754888
    },
    {
      "type": "way",
      "id": 865515555,
      "center": {
        "lat": 21.4785838,
        "lon": -158.0575625
      },
      "tags": {
        "power": "substation"
      },
      "lat": 21.4785838,
      "lon": -158.0575625
    },
    {
      "type": "way",
      "id": 865515559,
      "center": {
        "lat": 21.3247359,
        "lon": -158.0429764
      },
      "tags": {
        "power": "substation"
      },
      "lat": 21.3247359,
      "lon": -158.0429764
    },
    {
      "type": "way",
      "id": 879470116,
      "center": {
        "lat": 19.1953286,
        "lon": -155.4732031
      },
      "tags": {
        "barrier": "fence",
        "name": "Pahala Substation",
        "operator": "Hawaiian Electric Company",
        "operator:wikidata": "Q5684524",
        "power": "substation",
        "substation": "distribution",
        "voltage": "69000"
      },
      "lat": 19.1953286,
      "lon": -155.4732031
    },
    {
      "type": "way",
      "id": 936885771,
      "center": {
        "lat": 20.8794033,
        "lon": -156.4970204
      },
      "tags": {
        "barrier": "fence",
        "name": "Waiinu Substation",
        "operator": "Maui Electric Company",
        "power": "substation",
        "substation": "distribution",
        "voltage": "69000;23000;12470"
      },
      "lat": 20.8794033,
      "lon": -156.4970204
    },
    {
      "type": "way",
      "id": 952701276,
      "center": {
        "lat": 19.5964004,
        "lon": -155.3545208
      },
      "tags": {
        "barrier": "fence",
        "operator": "Hawaiian Electric Company",
        "operator:wikidata": "Q5684524",
        "power": "substation",
        "voltage": "69000"
      },
      "lat": 19.5964004,
      "lon": -155.3545208
    },
    {
      "type": "way",
      "id": 1030753941,
      "center": {
        "lat": 19.0569923,
        "lon": -155.675346
      },
      "tags": {
        "barrier": "fence",
        "operator": "Hawaiian Electric Company",
        "operator:wikidata": "Q5684524",
        "power": "substation",
        "substation": "switching",
        "voltage": "69000"
      },
      "lat": 19.0569923,
      "lon": -155.675346
    },
    {
      "type": "way",
      "id": 1030753943,
      "center": {
        "lat": 19.0684269,
        "lon": -155.5675384
      },
      "tags": {
        "power": "substation",
        "substation": "distribution",
        "voltage": "25000;12000"
      },
      "lat": 19.0684269,
      "lon": -155.5675384
    },
    {
      "type": "way",
      "id": 1030753946,
      "center": {
        "lat": 19.1488147,
        "lon": -155.5117494
      },
      "tags": {
        "barrier": "fence",
        "operator": "Hawaiian Electric Company",
        "operator:wikidata": "Q5684524",
        "power": "substation",
        "substation": "distribution",
        "voltage": "69000"
      },
      "lat": 19.1488147,
      "lon": -155.5117494
    },
    {
      "type": "way",
      "id": 1030753961,
      "center": {
        "lat": 19.6402374,
        "lon": -155.0458691
      },
      "tags": {
        "barrier": "fence",
        "operator": "Hawaiian Electric Company",
        "operator:wikidata": "Q5684524",
        "power": "substation",
        "substation": "distribution",
        "voltage": "69000"
      },
      "lat": 19.6402374,
      "lon": -155.0458691
    },
    {
      "type": "way",
      "id": 1030847208,
      "center": {
        "lat": 19.8404369,
        "lon": -155.1027097
      },
      "tags": {
        "barrier": "fence",
        "operator": "Hawaiian Electric Company",
        "operator:wikidata": "Q5684524",
        "power": "substation",
        "substation": "transmission",
        "voltage": "69000;34500"
      },
      "lat": 19.8404369,
      "lon": -155.1027097
    },
    {
      "type": "way",
      "id": 1030847212,
      "center": {
        "lat": 19.8427485,
        "lon": -155.088513
      },
      "tags": {
        "barrier": "fence",
        "name": "Hu Honua Bioenergy Facility Substation",
        "operator": "Hawaiian Electric Company",
        "operator:wikidata": "Q5684524",
        "power": "substation",
        "substation": "industrial",
        "voltage": "69000"
      },
      "lat": 19.8427485,
      "lon": -155.088513
    },
    {
      "type": "way",
      "id": 1030847215,
      "center": {
        "lat": 19.7117873,
        "lon": -155.1475201
      },
      "tags": {
        "barrier": "fence",
        "name": "Wailuku Hydroelectric Substation",
        "operator": "Hawaiian Electric Company",
        "operator:wikidata": "Q5684524",
        "power": "substation",
        "substation": "distribution",
        "voltage": "69000"
      },
      "lat": 19.7117873,
      "lon": -155.1475201
    },
    {
      "type": "way",
      "id": 1030847217,
      "center": {
        "lat": 19.6975349,
        "lon": -155.0920904
      },
      "tags": {
        "barrier": "fence",
        "operator": "Hawaiian Electric Company",
        "operator:wikidata": "Q5684524",
        "power": "substation",
        "substation": "distribution",
        "voltage": "69000"
      },
      "lat": 19.6975349,
      "lon": -155.0920904
    },
    {
      "type": "way",
      "id": 1030920130,
      "center": {
        "lat": 19.1612083,
        "lon": -155.8612266
      },
      "tags": {
        "barrier": "fence",
        "operator": "Hawaiian Electric Company",
        "operator:wikidata": "Q5684524",
        "power": "substation",
        "substation": "distribution",
        "voltage": "69000"
      },
      "lat": 19.1612083,
      "lon": -155.8612266
    },
    {
      "type": "way",
      "id": 1030920132,
      "center": {
        "lat": 19.4044699,
        "lon": -155.8813624
      },
      "tags": {
        "barrier": "fence",
        "name": "Kealia Substation",
        "operator": "Hawaiian Electric Company",
        "operator:wikidata": "Q5684524",
        "power": "substation",
        "substation": "distribution",
        "voltage": "69000;12470"
      },
      "lat": 19.4044699,
      "lon": -155.8813624
    },
    {
      "type": "way",
      "id": 1030920138,
      "center": {
        "lat": 19.4912468,
        "lon": -155.9139733
      },
      "tags": {
        "barrier": "fence",
        "name": "Captain Cook Substation",
        "operator": "Hawaiian Electric Company",
        "operator:wikidata": "Q5684524",
        "power": "substation",
        "substation": "distribution",
        "voltage": "69000;12470"
      },
      "lat": 19.4912468,
      "lon": -155.9139733
    },
    {
      "type": "way",
      "id": 1030920140,
      "center": {
        "lat": 19.5689389,
        "lon": -155.9436071
      },
      "tags": {
        "barrier": "fence",
        "operator": "Hawaiian Electric Company",
        "operator:wikidata": "Q5684524",
        "power": "substation",
        "substation": "distribution",
        "voltage": "69000"
      },
      "lat": 19.5689389,
      "lon": -155.9436071
    },
    {
      "type": "way",
      "id": 1030920145,
      "center": {
        "lat": 19.664764,
        "lon": -155.9619744
      },
      "tags": {
        "barrier": "fence",
        "operator": "Hawaiian Electric Company",
        "operator:wikidata": "Q5684524",
        "power": "substation",
        "substation": "distribution",
        "voltage": "69000;12470"
      },
      "lat": 19.664764,
      "lon": -155.9619744
    },
    {
      "type": "way",
      "id": 1030920146,
      "center": {
        "lat": 19.6163752,
        "lon": -155.9694421
      },
      "tags": {
        "barrier": "fence",
        "name": "Honualoa Substation",
        "operator": "Hawaiian Electric Company",
        "operator:wikidata": "Q5684524",
        "power": "substation",
        "substation": "distribution",
        "voltage": "69000;12470"
      },
      "lat": 19.6163752,
      "lon": -155.9694421
    },
    {
      "type": "way",
      "id": 1030987422,
      "center": {
        "lat": 19.7324082,
        "lon": -156.0293955
      },
      "tags": {
        "barrier": "fence",
        "name": "Keahole Substation",
        "operator": "Hawaiian Electric Company",
        "operator:wikidata": "Q5684524",
        "power": "substation",
        "substation": "distribution",
        "voltage": "69000;12470"
      },
      "lat": 19.7324082,
      "lon": -156.0293955
    },
    {
      "type": "way",
      "id": 1030987424,
      "center": {
        "lat": 19.7317415,
        "lon": -156.0273988
      },
      "tags": {
        "name": "Keahole Switchyard",
        "operator": "Hawaiian Electric Company",
        "operator:wikidata": "Q5684524",
        "power": "substation",
        "substation": "generation",
        "voltage": "69000"
      },
      "lat": 19.7317415,
      "lon": -156.0273988
    },
    {
      "type": "way",
      "id": 1030987436,
      "center": {
        "lat": 19.8046033,
        "lon": -155.8446617
      },
      "tags": {
        "barrier": "fence",
        "operator": "Hawaiian Electric Company",
        "operator:wikidata": "Q5684524",
        "power": "substation",
        "substation": "distribution",
        "voltage": "69000;12470"
      },
      "lat": 19.8046033,
      "lon": -155.8446617
    },
    {
      "type": "way",
      "id": 1030987437,
      "center": {
        "lat": 19.8208583,
        "lon": -155.8355184
      },
      "tags": {
        "barrier": "fence",
        "operator": "Hawaiian Electric Company",
        "operator:wikidata": "Q5684524",
        "power": "substation",
        "substation": "distribution",
        "voltage": "69000;12470"
      },
      "lat": 19.8208583,
      "lon": -155.8355184
    },
    {
      "type": "way",
      "id": 1030987441,
      "center": {
        "lat": 19.7580697,
        "lon": -155.5324912
      },
      "tags": {
        "barrier": "fence",
        "operator": "Hawaiian Electric Company",
        "operator:wikidata": "Q5684524",
        "power": "substation",
        "substation": "distribution",
        "voltage": "69000;12470"
      },
      "lat": 19.7580697,
      "lon": -155.5324912
    },
    {
      "type": "way",
      "id": 1031366148,
      "center": {
        "lat": 20.0245939,
        "lon": -155.6964443
      },
      "tags": {
        "barrier": "fence",
        "operator": "Hawaiian Electric Company",
        "operator:wikidata": "Q5684524",
        "power": "substation",
        "substation": "distribution",
        "voltage": "69000;12470"
      },
      "lat": 20.0245939,
      "lon": -155.6964443
    },
    {
      "type": "way",
      "id": 1031366159,
      "center": {
        "lat": 20.0219294,
        "lon": -155.6603266
      },
      "tags": {
        "barrier": "fence",
        "operator": "Hawaiian Electric Company",
        "operator:wikidata": "Q5684524",
        "power": "substation",
        "substation": "distribution",
        "voltage": "69000"
      },
      "lat": 20.0219294,
      "lon": -155.6603266
    },
    {
      "type": "way",
      "id": 1031366166,
      "center": {
        "lat": 20.0377164,
        "lon": -155.3644851
      },
      "tags": {
        "barrier": "fence",
        "name": "Paaulio Substation",
        "operator": "Hawaiian Electric Company",
        "operator:wikidata": "Q5684524",
        "power": "substation",
        "substation": "distribution",
        "voltage": "34500;4160"
      },
      "lat": 20.0377164,
      "lon": -155.3644851
    },
    {
      "type": "way",
      "id": 1031366175,
      "center": {
        "lat": 19.9881648,
        "lon": -155.2429955
      },
      "tags": {
        "barrier": "fence",
        "name": "Laupahoehoe Substation",
        "operator": "Hawaiian Electric Company",
        "operator:wikidata": "Q5684524",
        "power": "substation",
        "substation": "distribution",
        "voltage": "34500;2400"
      },
      "lat": 19.9881648,
      "lon": -155.2429955
    },
    {
      "type": "way",
      "id": 1031366177,
      "center": {
        "lat": 19.9187057,
        "lon": -155.1470494
      },
      "tags": {
        "barrier": "fence",
        "operator": "Hawaiian Electric Company",
        "operator:wikidata": "Q5684524",
        "power": "substation",
        "substation": "distribution",
        "voltage": "69000;12470"
      },
      "lat": 19.9187057,
      "lon": -155.1470494
    },
    {
      "type": "way",
      "id": 1031366181,
      "center": {
        "lat": 19.8401802,
        "lon": -155.1039051
      },
      "tags": {
        "barrier": "fence",
        "operator": "Hawaiian Electric Company",
        "operator:wikidata": "Q5684524",
        "power": "substation",
        "substation": "distribution",
        "voltage": "34500"
      },
      "lat": 19.8401802,
      "lon": -155.1039051
    },
    {
      "type": "way",
      "id": 1031404086,
      "center": {
        "lat": 19.8009564,
        "lon": -155.9831197
      },
      "tags": {
        "barrier": "fence",
        "operator": "Hawaiian Electric Company",
        "operator:wikidata": "Q5684524",
        "power": "substation",
        "substation": "distribution",
        "voltage": "69000"
      },
      "lat": 19.8009564,
      "lon": -155.9831197
    },
    {
      "type": "way",
      "id": 1031404092,
      "center": {
        "lat": 20.024494,
        "lon": -155.7290482
      },
      "tags": {
        "barrier": "fence",
        "operator": "Hawaiian Electric Company",
        "operator:wikidata": "Q5684524",
        "power": "substation",
        "substation": "distribution",
        "voltage": "69000"
      },
      "lat": 20.024494,
      "lon": -155.7290482
    },
    {
      "type": "way",
      "id": 1031404094,
      "center": {
        "lat": 20.0251952,
        "lon": -155.8150263
      },
      "tags": {
        "barrier": "fence",
        "name": "Kawaihae Substation",
        "operator": "Hawaiian Electric Company",
        "operator:wikidata": "Q5684524",
        "power": "substation",
        "substation": "distribution",
        "voltage": "69000;12470"
      },
      "lat": 20.0251952,
      "lon": -155.8150263
    },
    {
      "type": "way",
      "id": 1031404096,
      "center": {
        "lat": 20.0711795,
        "lon": -155.8459572
      },
      "tags": {
        "barrier": "fence",
        "operator": "Hawaiian Electric Company",
        "operator:wikidata": "Q5684524",
        "power": "substation",
        "substation": "distribution",
        "voltage": "69000;12470"
      },
      "lat": 20.0711795,
      "lon": -155.8459572
    },
    {
      "type": "way",
      "id": 1031404097,
      "center": {
        "lat": 20.2549414,
        "lon": -155.8535938
      },
      "tags": {
        "barrier": "fence",
        "operator": "Hawaiian Electric Company",
        "operator:wikidata": "Q5684524",
        "power": "substation",
        "substation": "distribution",
        "voltage": "12470"
      },
      "lat": 20.2549414,
      "lon": -155.8535938
    },
    {
      "type": "way",
      "id": 1039750023,
      "center": {
        "lat": 20.9296879,
        "lon": -156.6774798
      },
      "tags": {
        "power": "substation"
      },
      "lat": 20.9296879,
      "lon": -156.6774798
    },
    {
      "type": "way",
      "id": 1040097013,
      "center": {
        "lat": 20.8784818,
        "lon": -156.6752743
      },
      "tags": {
        "barrier": "fence",
        "name": "Lahaina Substation",
        "operator": "Maui Electric Company",
        "power": "substation",
        "substation": "distribution",
        "voltage": "69000"
      },
      "lat": 20.8784818,
      "lon": -156.6752743
    },
    {
      "type": "way",
      "id": 1082620485,
      "center": {
        "lat": 20.6837131,
        "lon": -156.4300062
      },
      "tags": {
        "barrier": "fence",
        "name": "Wailea Substation",
        "operator": "Maui Electric Company",
        "power": "substation",
        "substation": "distribution",
        "voltage": "69000"
      },
      "lat": 20.6837131,
      "lon": -156.4300062
    },
    {
      "type": "way",
      "id": 1082620487,
      "center": {
        "lat": 20.6819513,
        "lon": -156.4137672
      },
      "tags": {
        "barrier": "fence",
        "operator": "Maui Electric Company",
        "power": "substation",
        "substation": "distribution",
        "voltage": "69000"
      },
      "lat": 20.6819513,
      "lon": -156.4137672
    },
    {
      "type": "way",
      "id": 1082620489,
      "center": {
        "lat": 20.7800721,
        "lon": -156.3451645
      },
      "tags": {
        "barrier": "fence",
        "name": "Pulehu Switching Station",
        "operator": "Maui Electric Company",
        "power": "substation",
        "substation": "switching",
        "voltage": "69000"
      },
      "lat": 20.7800721,
      "lon": -156.3451645
    },
    {
      "type": "way",
      "id": 1082620492,
      "center": {
        "lat": 20.7868248,
        "lon": -156.3501132
      },
      "tags": {
        "barrier": "fence",
        "name": "Kula Park Substation",
        "operator": "Maui Electric Company",
        "power": "substation",
        "substation": "distribution",
        "voltage": "69000"
      },
      "lat": 20.7868248,
      "lon": -156.3501132
    },
    {
      "type": "way",
      "id": 1082620495,
      "center": {
        "lat": 20.8015088,
        "lon": -156.4938062
      },
      "tags": {
        "barrier": "fence",
        "name": "Maalaea Substation",
        "operator": "Maui Electric Company",
        "power": "substation",
        "substation": "transmission",
        "voltage": "69000;23000"
      },
      "lat": 20.8015088,
      "lon": -156.4938062
    },
    {
      "type": "way",
      "id": 1082620497,
      "center": {
        "lat": 20.7552428,
        "lon": -156.3069066
      },
      "tags": {
        "barrier": "fence",
        "name": "Kula Substation",
        "operator": "Maui Electric Company",
        "power": "substation",
        "substation": "distribution",
        "voltage": "69000"
      },
      "lat": 20.7552428,
      "lon": -156.3069066
    },
    {
      "type": "way",
      "id": 1082620499,
      "center": {
        "lat": 20.8249502,
        "lon": -156.330467
      },
      "tags": {
        "barrier": "fence",
        "name": "Pukalani Substation",
        "operator": "Maui Electric Company",
        "power": "substation",
        "substation": "distribution",
        "voltage": "69000"
      },
      "lat": 20.8249502,
      "lon": -156.330467
    },
    {
      "type": "way",
      "id": 1082620500,
      "center": {
        "lat": 20.8422722,
        "lon": -156.4629493
      },
      "tags": {
        "barrier": "fence",
        "operator": "Maui Electric Company",
        "power": "substation",
        "substation": "distribution",
        "voltage": "23000"
      },
      "lat": 20.8422722,
      "lon": -156.4629493
    },
    {
      "type": "way",
      "id": 1082620525,
      "center": {
        "lat": 20.8935486,
        "lon": -156.4942039
      },
      "tags": {
        "barrier": "fence",
        "operator": "Maui Electric Company",
        "operator:wikidata": "Q130224278",
        "power": "substation",
        "substation": "distribution",
        "voltage": "23000"
      },
      "lat": 20.8935486,
      "lon": -156.4942039
    },
    {
      "type": "way",
      "id": 1082620529,
      "center": {
        "lat": 20.9182254,
        "lon": -156.4973247
      },
      "tags": {
        "barrier": "fence",
        "name": "Waiehu Substation",
        "operator": "Maui Electric Company",
        "power": "substation",
        "substation": "distribution",
        "voltage": "23000"
      },
      "lat": 20.9182254,
      "lon": -156.4973247
    },
    {
      "type": "way",
      "id": 1082620537,
      "center": {
        "lat": 20.8881,
        "lon": -156.5121196
      },
      "tags": {
        "barrier": "fence",
        "operator": "Maui Electric Company",
        "power": "substation",
        "substation": "distribution",
        "voltage": "23000"
      },
      "lat": 20.8881,
      "lon": -156.5121196
    },
    {
      "type": "way",
      "id": 1082725965,
      "center": {
        "lat": 20.9143622,
        "lon": -156.382211
      },
      "tags": {
        "barrier": "fence",
        "name": "Paia Mauka Substation",
        "operator": "Maui Electric Company",
        "power": "substation",
        "substation": "distribution",
        "voltage": "23000;12470"
      },
      "lat": 20.9143622,
      "lon": -156.382211
    },
    {
      "type": "way",
      "id": 1082725968,
      "center": {
        "lat": 20.9070601,
        "lon": -156.4045009
      },
      "tags": {
        "barrier": "fence",
        "name": "Spreckelsville Substation",
        "operator": "Maui Electric Company",
        "power": "substation",
        "substation": "distribution",
        "voltage": "23000;12470"
      },
      "lat": 20.9070601,
      "lon": -156.4045009
    },
    {
      "type": "way",
      "id": 1082725970,
      "center": {
        "lat": 20.862264,
        "lon": -156.4746937
      },
      "tags": {
        "barrier": "fence",
        "operator": "Maui Electric Company",
        "power": "substation",
        "substation": "distribution",
        "voltage": "69000"
      },
      "lat": 20.862264,
      "lon": -156.4746937
    },
    {
      "type": "way",
      "id": 1082725976,
      "center": {
        "lat": 20.8392027,
        "lon": -156.5093098
      },
      "tags": {
        "barrier": "fence",
        "operator": "Maui Electric Company",
        "power": "substation",
        "substation": "distribution",
        "voltage": "69000"
      },
      "lat": 20.8392027,
      "lon": -156.5093098
    },
    {
      "type": "way",
      "id": 1082725982,
      "center": {
        "lat": 20.8120871,
        "lon": -156.5478707
      },
      "tags": {
        "barrier": "fence",
        "name": "Kaheawa Wind Power II Substation",
        "operator": "Maui Electric Company",
        "power": "substation",
        "substation": "generation",
        "voltage": "69000"
      },
      "lat": 20.8120871,
      "lon": -156.5478707
    },
    {
      "type": "way",
      "id": 1134988515,
      "center": {
        "lat": 19.9018627,
        "lon": -155.7630925
      },
      "tags": {
        "operator": "Hawaiian Electric Company",
        "operator:wikidata": "Q5684524",
        "power": "substation",
        "substation": "transmission",
        "voltage": "69000"
      },
      "lat": 19.9018627,
      "lon": -155.7630925
    },
    {
      "type": "way",
      "id": 1134988516,
      "center": {
        "lat": 19.9020115,
        "lon": -155.763587
      },
      "tags": {
        "operator": "AES",
        "operator:wikidata": "Q291508",
        "power": "substation",
        "substation": "generation",
        "voltage": "69000;34500"
      },
      "lat": 19.9020115,
      "lon": -155.763587
    },
    {
      "type": "way",
      "id": 1158836982,
      "center": {
        "lat": 21.4277773,
        "lon": -158.0202686
      },
      "tags": {
        "power": "substation"
      },
      "lat": 21.4277773,
      "lon": -158.0202686
    },
    {
      "type": "way",
      "id": 1204185852,
      "center": {
        "lat": 20.8764807,
        "lon": -156.4828481
      },
      "tags": {
        "power": "substation"
      },
      "lat": 20.8764807,
      "lon": -156.4828481
    },
    {
      "type": "way",
      "id": 1227681633,
      "center": {
        "lat": 21.1522763,
        "lon": -157.0363808
      },
      "tags": {
        "power": "substation"
      },
      "lat": 21.1522763,
      "lon": -157.0363808
    },
    {
      "type": "way",
      "id": 1232327977,
      "center": {
        "lat": 21.4013726,
        "lon": -157.9489171
      },
      "tags": {
        "operator": "Hawaiian Electric Company",
        "operator:wikidata": "Q5684524",
        "power": "substation"
      },
      "lat": 21.4013726,
      "lon": -157.9489171
    },
    {
      "type": "way",
      "id": 1348583614,
      "center": {
        "lat": 20.0416476,
        "lon": -155.6050385
      },
      "tags": {
        "power": "substation",
        "substation": "minor_distribution"
      },
      "lat": 20.0416476,
      "lon": -155.6050385
    },
    {
      "type": "way",
      "id": 1382733528,
      "center": {
        "lat": 18.9793223,
        "lon": -155.6877914
      },
      "tags": {
        "name": "Pakini Nui Wind Farm",
        "operator": "HECO",
        "power": "substation",
        "substation": "generation",
        "voltage": "69000"
      },
      "lat": 18.9793223,
      "lon": -155.6877914
    },
    {
      "type": "way",
      "id": 1383904204,
      "center": {
        "lat": 21.3564677,
        "lon": -158.0463203
      },
      "tags": {
        "name": "Kulanihakoi Substation",
        "operator": "Hawaiian Electric Company",
        "operator:wikidata": "Q5684524",
        "power": "substation",
        "ref": "PZ.005089",
        "substation": "distribution",
        "voltage": "46000"
      },
      "lat": 21.3564677,
      "lon": -158.0463203
    },
    {
      "type": "way",
      "id": 1388787325,
      "center": {
        "lat": 21.4644319,
        "lon": -157.9987482
      },
      "tags": {
        "power": "substation"
      },
      "lat": 21.4644319,
      "lon": -157.9987482
    },
    {
      "type": "way",
      "id": 1388790135,
      "center": {
        "lat": 19.4815047,
        "lon": -154.899581
      },
      "tags": {
        "power": "substation"
      },
      "lat": 19.4815047,
      "lon": -154.899581
    },
    {
      "type": "way",
      "id": 1395059668,
      "center": {
        "lat": 21.4267558,
        "lon": -157.9707257
      },
      "tags": {
        "power": "substation",
        "substation": "generation",
        "voltage": "46000"
      },
      "lat": 21.4267558,
      "lon": -157.9707257
    },
    {
      "type": "way",
      "id": 1395063295,
      "center": {
        "lat": 21.4286868,
        "lon": -157.9914192
      },
      "tags": {
        "barrier": "fence",
        "operator": "AES Corporation",
        "power": "substation",
        "substation": "generation",
        "voltage": "46000"
      },
      "lat": 21.4286868,
      "lon": -157.9914192
    },
    {
      "type": "way",
      "id": 1408711187,
      "center": {
        "lat": 21.3522094,
        "lon": -157.9347406
      },
      "tags": {
        "power": "substation"
      },
      "lat": 21.3522094,
      "lon": -157.9347406
    },
    {
      "type": "way",
      "id": 1408952383,
      "center": {
        "lat": 21.3220044,
        "lon": -157.8725014
      },
      "tags": {
        "building": "construction",
        "name": "Kapalama Canal Underground Tunnel Shaft",
        "operator": "Hawaiian Electric",
        "power": "substation",
        "substation": "distribution"
      },
      "lat": 21.3220044,
      "lon": -157.8725014
    },
    {
      "type": "way",
      "id": 1408952384,
      "center": {
        "lat": 21.3223859,
        "lon": -157.8732126
      },
      "tags": {
        "building": "construction",
        "name": "Kapalama Canal Microtunnel Shaft 2",
        "operator": "Hawaiian Electric",
        "power": "substation",
        "substation": "minor_distribution"
      },
      "lat": 21.3223859,
      "lon": -157.8732126
    },
    {
      "type": "way",
      "id": 1423055917,
      "center": {
        "lat": 20.8466919,
        "lon": -156.4811257
      },
      "tags": {
        "operator": "Maui Electric Company",
        "operator:wikidata": "Q130224278",
        "power": "substation",
        "substation": "transmission",
        "voltage": "69000"
      },
      "lat": 20.8466919,
      "lon": -156.4811257
    },
    {
      "type": "way",
      "id": 1423055918,
      "center": {
        "lat": 20.8461479,
        "lon": -156.481177
      },
      "tags": {
        "operator": "AES Corporation",
        "power": "substation",
        "substation": "generation",
        "voltage": "69000"
      },
      "lat": 20.8461479,
      "lon": -156.481177
    },
    {
      "type": "way",
      "id": 1450732172,
      "center": {
        "lat": 21.4031078,
        "lon": -157.9898086
      },
      "tags": {
        "operator": "Hawaiian Electric Company",
        "operator:wikidata": "Q5684524",
        "power": "substation",
        "substation": "distribution"
      },
      "lat": 21.4031078,
      "lon": -157.9898086
    },
    {
      "type": "way",
      "id": 1462831756,
      "center": {
        "lat": 21.3281314,
        "lon": -158.1043641
      },
      "tags": {
        "power": "substation"
      },
      "lat": 21.3281314,
      "lon": -158.1043641
    },
    {
      "type": "way",
      "id": 1469193235,
      "center": {
        "lat": 21.3745608,
        "lon": -158.0613247
      },
      "tags": {
        "power": "substation"
      },
      "lat": 21.3745608,
      "lon": -158.0613247
    },
    {
      "type": "way",
      "id": 1485092691,
      "center": {
        "lat": 21.4055017,
        "lon": -158.1505409
      },
      "tags": {
        "power": "substation"
      },
      "lat": 21.4055017,
      "lon": -158.1505409
    },