{
  "source": {
    "name": "EIA Form 861 Annual Electric Power Industry Report (2024)",
    "year": 2024,
    "state": "Michigan",
    "methodology": "Utility annual electricity sales (MWh) from Sales_Ult_Cust worksheet distributed equally across each utility's service county-equivalents (Service_Territory worksheet). County-equivalent centroid geometry from US Census GeoJSON.",
    "workbook": "Sales_Ult_Cust_2024.xlsx + Service_Territory_2024.xlsx",
    "workbook_url": "https://www.eia.gov/electricity/data/eia861/zip/f8612024.zip",
    "download_page": "https://www.eia.gov/electricity/data/eia861/",
    "geometry_source": "https://raw.githubusercontent.com/plotly/datasets/master/geojson-counties-fips.json",
    "generated_at": "2026-04-24T22:23:06.212774Z"
  },
  "count": 83,
  "total_gwh_annual": 96888.1,
  "elements": [
    {
      "type": "node",
      "id": "consumer-county-001",
      "lat": 44.681357,
      "lon": -83.312792,
      "tags": {
        "name": "Alcona Consumer Node",
        "consumer": "yes",
        "consumer:type": "county-equivalent",
        "load:mw": "80.76",
        "consumption:gwh:annual": "707.50",
        "year": "2024",
        "operator": "County-equivalent aggregate",
        "source:name": "EIA Form 861 Annual Electric Power Industry Report"
      }
    },
    {
      "type": "node",
      "id": "consumer-county-003",
      "lat": 46.506505,
      "lon": -86.631954,
      "tags": {
        "name": "Alger Consumer Node",
        "consumer": "yes",
        "consumer:type": "county-equivalent",
        "load:mw": "33.00",
        "consumption:gwh:annual": "289.04",
        "year": "2024",
        "operator": "County-equivalent aggregate",
        "source:name": "EIA Form 861 Annual Electric Power Industry Report"
      }
    },
    {
      "type": "node",
      "id": "consumer-county-005",
      "lat": 42.608308,
      "lon": -86.110341,
      "tags": {
        "name": "Allegan Consumer Node",
        "consumer": "yes",
        "consumer:type": "county-equivalent",
        "load:mw": "196.68",
        "consumption:gwh:annual": "1722.88",
        "year": "2024",
        "operator": "County-equivalent aggregate",
        "source:name": "EIA Form 861 Annual Electric Power Industry Report"
      }
    },
    {
      "type": "node",
      "id": "consumer-county-007",
      "lat": 45.049289,
      "lon": -83.38609,
      "tags": {
        "name": "Alpena Consumer Node",
        "consumer": "yes",
        "consumer:type": "county-equivalent",
        "load:mw": "11.28",
        "consumption:gwh:annual": "98.82",
        "year": "2024",
        "operator": "County-equivalent aggregate",
        "source:name": "EIA Form 861 Annual Electric Power Industry Report"
      }
    },
    {
      "type": "node",
      "id": "consumer-county-009",
      "lat": 45.017988,
      "lon": -85.31988,
      "tags": {
        "name": "Antrim Consumer Node",
        "consumer": "yes",
        "consumer:type": "county-equivalent",
        "load:mw": "76.50",
        "consumption:gwh:annual": "670.12",
        "year": "2024",
        "operator": "County-equivalent aggregate",
        "source:name": "EIA Form 861 Annual Electric Power Industry Report"
      }
    },
    {
      "type": "node",
      "id": "consumer-county-011",
      "lat": 44.020822,
      "lon": -83.770802,
      "tags": {
        "name": "Arenac Consumer Node",
        "consumer": "yes",
        "consumer:type": "county-equivalent",
        "load:mw": "69.48",
        "consumption:gwh:annual": "608.68",
        "year": "2024",
        "operator": "County-equivalent aggregate",
        "source:name": "EIA Form 861 Annual Electric Power Industry Report"
      }
    },
    {
      "type": "node",
      "id": "consumer-county-013",
      "lat": 46.89831,
      "lon": -88.258956,
      "tags": {
        "name": "Baraga Consumer Node",
        "consumer": "yes",
        "consumer:type": "county-equivalent",
        "load:mw": "34.44",
        "consumption:gwh:annual": "301.70",
        "year": "2024",
        "operator": "County-equivalent aggregate",
        "source:name": "EIA Form 861 Annual Electric Power Industry Report"
      }
    },
    {
      "type": "node",
      "id": "consumer-county-015",
      "lat": 42.620328,
      "lon": -85.273908,
      "tags": {
        "name": "Barry Consumer Node",
        "consumer": "yes",
        "consumer:type": "county-equivalent",
        "load:mw": "79.70",
        "consumption:gwh:annual": "698.14",
        "year": "2024",
        "operator": "County-equivalent aggregate",
        "source:name": "EIA Form 861 Annual Electric Power Industry Report"
      }
    },
    {
      "type": "node",
      "id": "consumer-county-017",
      "lat": 43.694022,
      "lon": -83.898023,
      "tags": {
        "name": "Bay Consumer Node",
        "consumer": "yes",
        "consumer:type": "county-equivalent",
        "load:mw": "325.28",
        "consumption:gwh:annual": "2849.42",
        "year": "2024",
        "operator": "County-equivalent aggregate",
        "source:name": "EIA Form 861 Annual Electric Power Industry Report"
      }
    },
    {
      "type": "node",
      "id": "consumer-county-019",
      "lat": 44.693585,
      "lon": -86.137845,
      "tags": {
        "name": "Benzie Consumer Node",
        "consumer": "yes",
        "consumer:type": "county-equivalent",
        "load:mw": "77.21",
        "consumption:gwh:annual": "676.36",
        "year": "2024",
        "operator": "County-equivalent aggregate",
        "source:name": "EIA Form 861 Annual Electric Power Industry Report"
      }
    },
    {
      "type": "node",
      "id": "consumer-county-021",
      "lat": 41.968303,
      "lon": -86.568022,
      "tags": {
        "name": "Berrien Consumer Node",
        "consumer": "yes",
        "consumer:type": "county-equivalent",
        "load:mw": "64.62",
        "consumption:gwh:annual": "566.11",
        "year": "2024",
        "operator": "County-equivalent aggregate",
        "source:name": "EIA Form 861 Annual Electric Power Industry Report"
      }
    },
    {
      "type": "node",
      "id": "consumer-county-023",
      "lat": 41.811793,
      "lon": -85.108694,
      "tags": {
        "name": "Branch Consumer Node",
        "consumer": "yes",
        "consumer:type": "county-equivalent",
        "load:mw": "344.20",
        "consumption:gwh:annual": "3015.22",
        "year": "2024",
        "operator": "County-equivalent aggregate",
        "source:name": "EIA Form 861 Annual Electric Power Industry Report"
      }
    },
    {
      "type": "node",
      "id": "consumer-county-025",
      "lat": 42.228375,
      "lon": -85.103482,
      "tags": {
        "name": "Calhoun Consumer Node",
        "consumer": "yes",
        "consumer:type": "county-equivalent",
        "load:mw": "69.48",
        "consumption:gwh:annual": "608.68",
        "year": "2024",
        "operator": "County-equivalent aggregate",
        "source:name": "EIA Form 861 Annual Electric Power Industry Report"
      }
    },
    {
      "type": "node",
      "id": "consumer-county-027",
      "lat": 41.808453,
      "lon": -86.012156,
      "tags": {
        "name": "Cass Consumer Node",
        "consumer": "yes",
        "consumer:type": "county-equivalent",
        "load:mw": "64.62",
        "consumption:gwh:annual": "566.11",
        "year": "2024",
        "operator": "County-equivalent aggregate",
        "source:name": "EIA Form 861 Annual Electric Power Industry Report"
      }
    },
    {
      "type": "node",
      "id": "consumer-county-029",
      "lat": 45.545375,
      "lon": -85.406117,
      "tags": {
        "name": "Charlevoix Consumer Node",
        "consumer": "yes",
        "consumer:type": "county-equivalent",
        "load:mw": "76.50",
        "consumption:gwh:annual": "670.12",
        "year": "2024",
        "operator": "County-equivalent aggregate",
        "source:name": "EIA Form 861 Annual Electric Power Industry Report"
      }
    },
    {
      "type": "node",
      "id": "consumer-county-031",
      "lat": 45.62506,
      "lon": -84.511205,
      "tags": {
        "name": "Cheboygan Consumer Node",
        "consumer": "yes",
        "consumer:type": "county-equivalent",
        "load:mw": "79.63",
        "consumption:gwh:annual": "697.52",
        "year": "2024",
        "operator": "County-equivalent aggregate",
        "source:name": "EIA Form 861 Annual Electric Power Industry Report"
      }
    },
    {
      "type": "node",
      "id": "consumer-county-033",
      "lat": 46.233554,
      "lon": -84.215912,
      "tags": {
        "name": "Chippewa Consumer Node",
        "consumer": "yes",
        "consumer:type": "county-equivalent",
        "load:mw": "16.48",
        "consumption:gwh:annual": "144.38",
        "year": "2024",
        "operator": "County-equivalent aggregate",
        "source:name": "EIA Form 861 Annual Electric Power Industry Report"
      }
    },
    {
      "type": "node",
      "id": "consumer-county-035",
      "lat": 44.062009,
      "lon": -84.779686,
      "tags": {
        "name": "Clare Consumer Node",
        "consumer": "yes",
        "consumer:type": "county-equivalent",
        "load:mw": "79.70",
        "consumption:gwh:annual": "698.14",
        "year": "2024",
        "operator": "County-equivalent aggregate",
        "source:name": "EIA Form 861 Annual Electric Power Industry Report"
      }
    },
    {
      "type": "node",
      "id": "consumer-county-037",
      "lat": 42.924494,
      "lon": -84.51317,
      "tags": {
        "name": "Clinton Consumer Node",
        "consumer": "yes",
        "consumer:type": "county-equivalent",
        "load:mw": "149.27",
        "consumption:gwh:annual": "1307.63",
        "year": "2024",
        "operator": "County-equivalent aggregate",
        "source:name": "EIA Form 861 Annual Electric Power Industry Report"
      }
    },
    {
      "type": "node",
      "id": "consumer-county-039",
      "lat": 44.717277,
      "lon": -84.562479,
      "tags": {
        "name": "Crawford Consumer Node",
        "consumer": "yes",
        "consumer:type": "county-equivalent",
        "load:mw": "76.50",
        "consumption:gwh:annual": "670.12",
        "year": "2024",
        "operator": "County-equivalent aggregate",
        "source:name": "EIA Form 861 Annual Electric Power Industry Report"
      }
    },
    {
      "type": "node",
      "id": "consumer-county-041",
      "lat": 45.753204,
      "lon": -86.838961,
      "tags": {
        "name": "Delta Consumer Node",
        "consumer": "yes",
        "consumer:type": "county-equivalent",
        "load:mw": "273.18",
        "consumption:gwh:annual": "2393.05",
        "year": "2024",
        "operator": "County-equivalent aggregate",
        "source:name": "EIA Form 861 Annual Electric Power Industry Report"
      }
    },
    {
      "type": "node",
      "id": "consumer-county-043",
      "lat": 45.861244,
      "lon": -87.976499,
      "tags": {
        "name": "Dickinson Consumer Node",
        "consumer": "yes",
        "consumer:type": "county-equivalent",
        "load:mw": "35.50",
        "consumption:gwh:annual": "310.96",
        "year": "2024",
        "operator": "County-equivalent aggregate",
        "source:name": "EIA Form 861 Annual Electric Power Industry Report"
      }
    },
    {
      "type": "node",
      "id": "consumer-county-045",
      "lat": 42.571151,
      "lon": -84.786428,
      "tags": {
        "name": "Eaton Consumer Node",
        "consumer": "yes",
        "consumer:type": "county-equivalent",
        "load:mw": "149.27",
        "consumption:gwh:annual": "1307.63",
        "year": "2024",
        "operator": "County-equivalent aggregate",
        "source:name": "EIA Form 861 Annual Electric Power Industry Report"
      }
    },
    {
      "type": "node",
      "id": "consumer-county-047",
      "lat": 45.603748,
      "lon": -84.987794,
      "tags": {
        "name": "Emmet Consumer Node",
        "consumer": "yes",
        "consumer:type": "county-equivalent",
        "load:mw": "79.63",
        "consumption:gwh:annual": "697.52",
        "year": "2024",
        "operator": "County-equivalent aggregate",
        "source:name": "EIA Form 861 Annual Electric Power Industry Report"
      }
    },
    {
      "type": "node",
      "id": "consumer-county-049",
      "lat": 43.026466,
      "lon": -83.761282,
      "tags": {
        "name": "Genesee Consumer Node",
        "consumer": "yes",
        "consumer:type": "county-equivalent",
        "load:mw": "289.95",
        "consumption:gwh:annual": "2539.99",
        "year": "2024",
        "operator": "County-equivalent aggregate",
        "source:name": "EIA Form 861 Annual Electric Power Industry Report"
      }
    },
    {
      "type": "node",
      "id": "consumer-county-051",
      "lat": 44.054988,
      "lon": -84.412261,
      "tags": {
        "name": "Gladwin Consumer Node",
        "consumer": "yes",
        "consumer:type": "county-equivalent",
        "load:mw": "69.48",
        "consumption:gwh:annual": "608.68",
        "year": "2024",
        "operator": "County-equivalent aggregate",
        "source:name": "EIA Form 861 Annual Electric Power Industry Report"
      }
    },
    {
      "type": "node",
      "id": "consumer-county-053",
      "lat": 46.489343,
      "lon": -89.979175,
      "tags": {
        "name": "Gogebic Consumer Node",
        "consumer": "yes",
        "consumer:type": "county-equivalent",
        "load:mw": "30.96",
        "consumption:gwh:annual": "271.21",
        "year": "2024",
        "operator": "County-equivalent aggregate",
        "source:name": "EIA Form 861 Annual Electric Power Industry Report"
      }
    },
    {
      "type": "node",
      "id": "consumer-county-055",
      "lat": 44.847009,
      "lon": -85.527757,
      "tags": {
        "name": "Grand Traverse Consumer Node",
        "consumer": "yes",
        "consumer:type": "county-equivalent",
        "load:mw": "103.45",
        "consumption:gwh:annual": "906.18",
        "year": "2024",
        "operator": "County-equivalent aggregate",
        "source:name": "EIA Form 861 Annual Electric Power Industry Report"
      }
    },
    {
      "type": "node",
      "id": "consumer-county-057",
      "lat": 43.275398,
      "lon": -84.526583,
      "tags": {
        "name": "Gratiot Consumer Node",
        "consumer": "yes",
        "consumer:type": "county-equivalent",
        "load:mw": "293.15",
        "consumption:gwh:annual": "2568.01",
        "year": "2024",
        "operator": "County-equivalent aggregate",
        "source:name": "EIA Form 861 Annual Electric Power Industry Report"
      }
    },
    {
      "type": "node",
      "id": "consumer-county-059",
      "lat": 41.7829,
      "lon": -84.633548,
      "tags": {
        "name": "Hillsdale Consumer Node",
        "consumer": "yes",
        "consumer:type": "county-equivalent",
        "load:mw": "69.48",
        "consumption:gwh:annual": "608.68",
        "year": "2024",
        "operator": "County-equivalent aggregate",
        "source:name": "EIA Form 861 Annual Electric Power Industry Report"
      }
    },
    {
      "type": "node",
      "id": "consumer-county-061",
      "lat": 47.108204,
      "lon": -88.495104,
      "tags": {
        "name": "Houghton Consumer Node",
        "consumer": "yes",
        "consumer:type": "county-equivalent",
        "load:mw": "31.19",
        "consumption:gwh:annual": "273.23",
        "year": "2024",
        "operator": "County-equivalent aggregate",
        "source:name": "EIA Form 861 Annual Electric Power Industry Report"
      }
    },
    {
      "type": "node",
      "id": "consumer-county-063",
      "lat": 43.904458,
      "lon": -83.072743,
      "tags": {
        "name": "Huron Consumer Node",
        "consumer": "yes",
        "consumer:type": "county-equivalent",
        "load:mw": "220.47",
        "consumption:gwh:annual": "1931.31",
        "year": "2024",
        "operator": "County-equivalent aggregate",
        "source:name": "EIA Form 861 Annual Electric Power Industry Report"
      }
    },
    {
      "type": "node",
      "id": "consumer-county-065",
      "lat": 42.678279,
      "lon": -84.317442,
      "tags": {
        "name": "Ingham Consumer Node",
        "consumer": "yes",
        "consumer:type": "county-equivalent",
        "load:mw": "369.74",
        "consumption:gwh:annual": "3238.94",
        "year": "2024",
        "operator": "County-equivalent aggregate",
        "source:name": "EIA Form 861 Annual Electric Power Industry Report"
      }
    },
    {
      "type": "node",
      "id": "consumer-county-067",
      "lat": 42.944596,
      "lon": -85.113812,
      "tags": {
        "name": "Ionia Consumer Node",
        "consumer": "yes",
        "consumer:type": "county-equivalent",
        "load:mw": "72.68",
        "consumption:gwh:annual": "636.70",
        "year": "2024",
        "operator": "County-equivalent aggregate",
        "source:name": "EIA Form 861 Annual Electric Power Industry Report"
      }
    },
    {
      "type": "node",
      "id": "consumer-county-069",
      "lat": 44.322829,
      "lon": -83.438978,
      "tags": {
        "name": "Iosco Consumer Node",
        "consumer": "yes",
        "consumer:type": "county-equivalent",
        "load:mw": "69.48",
        "consumption:gwh:annual": "608.68",
        "year": "2024",
        "operator": "County-equivalent aggregate",
        "source:name": "EIA Form 861 Annual Electric Power Industry Report"
      }
    },
    {
      "type": "node",
      "id": "consumer-county-071",
      "lat": 46.044496,
      "lon": -88.578647,
      "tags": {
        "name": "Iron Consumer Node",
        "consumer": "yes",
        "consumer:type": "county-equivalent",
        "load:mw": "33.06",
        "consumption:gwh:annual": "289.57",
        "year": "2024",
        "operator": "County-equivalent aggregate",
        "source:name": "EIA Form 861 Annual Electric Power Industry Report"
      }
    },
    {
      "type": "node",
      "id": "consumer-county-073",
      "lat": 43.58224,
      "lon": -84.88639,
      "tags": {
        "name": "Isabella Consumer Node",
        "consumer": "yes",
        "consumer:type": "county-equivalent",
        "load:mw": "293.15",
        "consumption:gwh:annual": "2568.01",
        "year": "2024",
        "operator": "County-equivalent aggregate",
        "source:name": "EIA Form 861 Annual Electric Power Industry Report"
      }
    },
    {
      "type": "node",
      "id": "consumer-county-075",
      "lat": 42.247457,
      "lon": -84.36594,
      "tags": {
        "name": "Jackson Consumer Node",
        "consumer": "yes",
        "consumer:type": "county-equivalent",
        "load:mw": "72.68",
        "consumption:gwh:annual": "636.70",
        "year": "2024",
        "operator": "County-equivalent aggregate",
        "source:name": "EIA Form 861 Annual Electric Power Industry Report"
      }
    },
    {
      "type": "node",
      "id": "consumer-county-077",
      "lat": 42.310693,
      "lon": -85.444793,
      "tags": {
        "name": "Kalamazoo Consumer Node",
        "consumer": "yes",
        "consumer:type": "county-equivalent",
        "load:mw": "134.11",
        "consumption:gwh:annual": "1174.79",
        "year": "2024",
        "operator": "County-equivalent aggregate",
        "source:name": "EIA Form 861 Annual Electric Power Industry Report"
      }
    },
    {
      "type": "node",
      "id": "consumer-county-079",
      "lat": 44.67741,
      "lon": -85.08462,
      "tags": {
        "name": "Kalkaska Consumer Node",
        "consumer": "yes",
        "consumer:type": "county-equivalent",
        "load:mw": "84.22",
        "consumption:gwh:annual": "737.80",
        "year": "2024",
        "operator": "County-equivalent aggregate",
        "source:name": "EIA Form 861 Annual Electric Power Industry Report"
      }
    },
    {
      "type": "node",
      "id": "consumer-county-081",
      "lat": 43.068072,
      "lon": -85.619596,
      "tags": {
        "name": "Kent Consumer Node",
        "consumer": "yes",
        "consumer:type": "county-equivalent",
        "load:mw": "76.50",
        "consumption:gwh:annual": "670.12",
        "year": "2024",
        "operator": "County-equivalent aggregate",
        "source:name": "EIA Form 861 Annual Electric Power Industry Report"
      }
    },
    {
      "type": "node",
      "id": "consumer-county-083",
      "lat": 47.621986,
      "lon": -88.362239,
      "tags": {
        "name": "Keweenaw Consumer Node",
        "consumer": "yes",
        "consumer:type": "county-equivalent",
        "load:mw": "7.68",
        "consumption:gwh:annual": "67.27",
        "year": "2024",
        "operator": "County-equivalent aggregate",
        "source:name": "EIA Form 861 Annual Electric Power Industry Report"
      }
    },
    {
      "type": "node",
      "id": "consumer-county-085",
      "lat": 44.034724,
      "lon": -85.8661,
      "tags": {
        "name": "Lake Consumer Node",
        "consumer": "yes",
        "consumer:type": "county-equivalent",
        "load:mw": "76.50",
        "consumption:gwh:annual": "670.12",
        "year": "2024",
        "operator": "County-equivalent aggregate",
        "source:name": "EIA Form 861 Annual Electric Power Industry Report"
      }
    },
    {
      "type": "node",
      "id": "consumer-county-087",
      "lat": 43.115384,
      "lon": -83.186937,
      "tags": {
        "name": "Lapeer Consumer Node",
        "consumer": "yes",
        "consumer:type": "county-equivalent",
        "load:mw": "289.95",
        "consumption:gwh:annual": "2539.99",
        "year": "2024",
        "operator": "County-equivalent aggregate",
        "source:name": "EIA Form 861 Annual Electric Power Industry Report"
      }
    },
    {
      "type": "node",
      "id": "consumer-county-089",
      "lat": 45.027019,
      "lon": -85.827459,
      "tags": {
        "name": "Leelanau Consumer Node",
        "consumer": "yes",
        "consumer:type": "county-equivalent",
        "load:mw": "96.43",
        "consumption:gwh:annual": "844.74",
        "year": "2024",
        "operator": "County-equivalent aggregate",
        "source:name": "EIA Form 861 Annual Electric Power Industry Report"
      }
    },
    {
      "type": "node",
      "id": "consumer-county-091",
      "lat": 41.852318,
      "lon": -84.004278,
      "tags": {
        "name": "Lenawee Consumer Node",
        "consumer": "yes",
        "consumer:type": "county-equivalent",
        "load:mw": "298.98",
        "consumption:gwh:annual": "2619.04",
        "year": "2024",
        "operator": "County-equivalent aggregate",
        "source:name": "EIA Form 861 Annual Electric Power Industry Report"
      }
    },
    {
      "type": "node",
      "id": "consumer-county-093",
      "lat": 42.62348,
      "lon": -83.916969,
      "tags": {
        "name": "Livingston Consumer Node",
        "consumer": "yes",
        "consumer:type": "county-equivalent",
        "load:mw": "289.95",
        "consumption:gwh:annual": "2539.99",
        "year": "2024",
        "operator": "County-equivalent aggregate",
        "source:name": "EIA Form 861 Annual Electric Power Industry Report"
      }
    },
    {
      "type": "node",
      "id": "consumer-county-095",
      "lat": 46.669032,
      "lon": -85.609966,
      "tags": {
        "name": "Luce Consumer Node",
        "consumer": "yes",
        "consumer:type": "county-equivalent",
        "load:mw": "16.48",
        "consumption:gwh:annual": "144.38",
        "year": "2024",
        "operator": "County-equivalent aggregate",
        "source:name": "EIA Form 861 Annual Electric Power Industry Report"
      }
    },
    {
      "type": "node",
      "id": "consumer-county-097",
      "lat": 45.964018,
      "lon": -84.95719,
      "tags": {
        "name": "Mackinac Consumer Node",
        "consumer": "yes",
        "consumer:type": "county-equivalent",
        "load:mw": "19.61",
        "consumption:gwh:annual": "171.78",
        "year": "2024",
        "operator": "County-equivalent aggregate",
        "source:name": "EIA Form 861 Annual Electric Power Industry Report"
      }
    },
    {
      "type": "node",
      "id": "consumer-county-099",
      "lat": 42.619171,
      "lon": -82.868802,
      "tags": {
        "name": "Macomb Consumer Node",
        "consumer": "yes",
        "consumer:type": "county-equivalent",
        "load:mw": "220.47",
        "consumption:gwh:annual": "1931.31",
        "year": "2024",
        "operator": "County-equivalent aggregate",
        "source:name": "EIA Form 861 Annual Electric Power Industry Report"
      }
    },
    {
      "type": "node",
      "id": "consumer-county-101",
      "lat": 44.319552,
      "lon": -86.273764,
      "tags": {
        "name": "Manistee Consumer Node",
        "consumer": "yes",
        "consumer:type": "county-equivalent",
        "load:mw": "84.22",
        "consumption:gwh:annual": "737.80",
        "year": "2024",
        "operator": "County-equivalent aggregate",
        "source:name": "EIA Form 861 Annual Electric Power Industry Report"
      }
    },
    {
      "type": "node",
      "id": "consumer-county-103",
      "lat": 46.749969,
      "lon": -87.6548,
      "tags": {
        "name": "Marquette Consumer Node",
        "consumer": "yes",
        "consumer:type": "county-equivalent",
        "load:mw": "64.81",
        "consumption:gwh:annual": "567.74",
        "year": "2024",
        "operator": "County-equivalent aggregate",
        "source:name": "EIA Form 861 Annual Electric Power Industry Report"
      }
    },
    {
      "type": "node",
      "id": "consumer-county-105",
      "lat": 43.993517,
      "lon": -86.436212,
      "tags": {
        "name": "Mason Consumer Node",
        "consumer": "yes",
        "consumer:type": "county-equivalent",
        "load:mw": "76.50",
        "consumption:gwh:annual": "670.12",
        "year": "2024",
        "operator": "County-equivalent aggregate",
        "source:name": "EIA Form 861 Annual Electric Power Industry Report"
      }
    },
    {
      "type": "node",
      "id": "consumer-county-107",
      "lat": 43.606399,
      "lon": -85.372206,
      "tags": {
        "name": "Mecosta Consumer Node",
        "consumer": "yes",
        "consumer:type": "county-equivalent",
        "load:mw": "79.70",
        "consumption:gwh:annual": "698.14",
        "year": "2024",
        "operator": "County-equivalent aggregate",
        "source:name": "EIA Form 861 Annual Electric Power Industry Report"
      }
    },
    {
      "type": "node",
      "id": "consumer-county-109",
      "lat": 45.347575,
      "lon": -87.548491,
      "tags": {
        "name": "Menominee Consumer Node",
        "consumer": "yes",
        "consumer:type": "county-equivalent",
        "load:mw": "33.00",
        "consumption:gwh:annual": "289.04",
        "year": "2024",
        "operator": "County-equivalent aggregate",
        "source:name": "EIA Form 861 Annual Electric Power Industry Report"
      }
    },
    {
      "type": "node",
      "id": "consumer-county-111",
      "lat": 43.584297,
      "lon": -84.351335,
      "tags": {
        "name": "Midland Consumer Node",
        "consumer": "yes",
        "consumer:type": "county-equivalent",
        "load:mw": "289.95",
        "consumption:gwh:annual": "2539.99",
        "year": "2024",
        "operator": "County-equivalent aggregate",
        "source:name": "EIA Form 861 Annual Electric Power Industry Report"
      }
    },
    {
      "type": "node",
      "id": "consumer-county-113",
      "lat": 44.349594,
      "lon": -85.023596,
      "tags": {
        "name": "Missaukee Consumer Node",
        "consumer": "yes",
        "consumer:type": "county-equivalent",
        "load:mw": "76.50",
        "consumption:gwh:annual": "670.12",
        "year": "2024",
        "operator": "County-equivalent aggregate",
        "source:name": "EIA Form 861 Annual Electric Power Industry Report"
      }
    },
    {
      "type": "node",
      "id": "consumer-county-115",
      "lat": 41.86924,
      "lon": -83.374677,
      "tags": {
        "name": "Monroe Consumer Node",
        "consumer": "yes",
        "consumer:type": "county-equivalent",
        "load:mw": "298.98",
        "consumption:gwh:annual": "2619.04",
        "year": "2024",
        "operator": "County-equivalent aggregate",
        "source:name": "EIA Form 861 Annual Electric Power Industry Report"
      }
    },
    {
      "type": "node",
      "id": "consumer-county-117",
      "lat": 43.293188,
      "lon": -85.228772,
      "tags": {
        "name": "Montcalm Consumer Node",
        "consumer": "yes",
        "consumer:type": "county-equivalent",
        "load:mw": "300.17",
        "consumption:gwh:annual": "2629.45",
        "year": "2024",
        "operator": "County-equivalent aggregate",
        "source:name": "EIA Form 861 Annual Electric Power Industry Report"
      }
    },
    {
      "type": "node",
      "id": "consumer-county-119",
      "lat": 45.027676,
      "lon": -84.18778,
      "tags": {
        "name": "Montmorency Consumer Node",
        "consumer": "yes",
        "consumer:type": "county-equivalent",
        "load:mw": "87.78",
        "consumption:gwh:annual": "768.94",
        "year": "2024",
        "operator": "County-equivalent aggregate",
        "source:name": "EIA Form 861 Annual Electric Power Industry Report"
      }
    },
    {
      "type": "node",
      "id": "consumer-county-121",
      "lat": 43.3175,
      "lon": -86.340278,
      "tags": {
        "name": "Muskegon Consumer Node",
        "consumer": "yes",
        "consumer:type": "county-equivalent",
        "load:mw": "76.50",
        "consumption:gwh:annual": "670.12",
        "year": "2024",
        "operator": "County-equivalent aggregate",
        "source:name": "EIA Form 861 Annual Electric Power Industry Report"
      }
    },
    {
      "type": "node",
      "id": "consumer-county-123",
      "lat": 43.448473,
      "lon": -85.747591,
      "tags": {
        "name": "Newaygo Consumer Node",
        "consumer": "yes",
        "consumer:type": "county-equivalent",
        "load:mw": "76.50",
        "consumption:gwh:annual": "670.12",
        "year": "2024",
        "operator": "County-equivalent aggregate",
        "source:name": "EIA Form 861 Annual Electric Power Industry Report"
      }
    },
    {
      "type": "node",
      "id": "consumer-county-125",
      "lat": 42.602934,
      "lon": -83.352093,
      "tags": {
        "name": "Oakland Consumer Node",
        "consumer": "yes",
        "consumer:type": "county-equivalent",
        "load:mw": "289.95",
        "consumption:gwh:annual": "2539.99",
        "year": "2024",
        "operator": "County-equivalent aggregate",
        "source:name": "EIA Form 861 Annual Electric Power Industry Report"
      }
    },
    {
      "type": "node",
      "id": "consumer-county-127",
      "lat": 43.639986,
      "lon": -86.486191,
      "tags": {
        "name": "Oceana Consumer Node",
        "consumer": "yes",
        "consumer:type": "county-equivalent",
        "load:mw": "76.50",
        "consumption:gwh:annual": "670.12",
        "year": "2024",
        "operator": "County-equivalent aggregate",
        "source:name": "EIA Form 861 Annual Electric Power Industry Report"
      }
    },
    {
      "type": "node",
      "id": "consumer-county-129",
      "lat": 44.311863,
      "lon": -84.201767,
      "tags": {
        "name": "Ogemaw Consumer Node",
        "consumer": "yes",
        "consumer:type": "county-equivalent",
        "load:mw": "69.48",
        "consumption:gwh:annual": "608.68",
        "year": "2024",
        "operator": "County-equivalent aggregate",
        "source:name": "EIA Form 861 Annual Electric Power Industry Report"
      }
    },
    {
      "type": "node",
      "id": "consumer-county-131",
      "lat": 46.857328,
      "lon": -89.406742,
      "tags": {
        "name": "Ontonagon Consumer Node",
        "consumer": "yes",
        "consumer:type": "county-equivalent",
        "load:mw": "38.64",
        "consumption:gwh:annual": "338.48",
        "year": "2024",
        "operator": "County-equivalent aggregate",
        "source:name": "EIA Form 861 Annual Electric Power Industry Report"
      }
    },
    {
      "type": "node",
      "id": "consumer-county-133",
      "lat": 44.047967,
      "lon": -85.287444,
      "tags": {
        "name": "Osceola Consumer Node",
        "consumer": "yes",
        "consumer:type": "county-equivalent",
        "load:mw": "79.70",
        "consumption:gwh:annual": "698.14",
        "year": "2024",
        "operator": "County-equivalent aggregate",
        "source:name": "EIA Form 861 Annual Electric Power Industry Report"
      }
    },
    {
      "type": "node",
      "id": "consumer-county-135",
      "lat": 44.716542,
      "lon": -84.177855,
      "tags": {
        "name": "Oscoda Consumer Node",
        "consumer": "yes",
        "consumer:type": "county-equivalent",
        "load:mw": "79.63",
        "consumption:gwh:annual": "697.52",
        "year": "2024",
        "operator": "County-equivalent aggregate",
        "source:name": "EIA Form 861 Annual Electric Power Industry Report"
      }
    },
    {
      "type": "node",
      "id": "consumer-county-137",
      "lat": 45.028629,
      "lon": -84.612029,
      "tags": {
        "name": "Otsego Consumer Node",
        "consumer": "yes",
        "consumer:type": "county-equivalent",
        "load:mw": "79.63",
        "consumption:gwh:annual": "697.52",
        "year": "2024",
        "operator": "County-equivalent aggregate",
        "source:name": "EIA Form 861 Annual Electric Power Industry Report"
      }
    },
    {
      "type": "node",
      "id": "consumer-county-139",
      "lat": 42.997372,
      "lon": -86.087829,
      "tags": {
        "name": "Ottawa Consumer Node",
        "consumer": "yes",
        "consumer:type": "county-equivalent",
        "load:mw": "222.37",
        "consumption:gwh:annual": "1947.95",
        "year": "2024",
        "operator": "County-equivalent aggregate",
        "source:name": "EIA Form 861 Annual Electric Power Industry Report"
      }
    },
    {
      "type": "node",
      "id": "consumer-county-141",
      "lat": 45.397002,
      "lon": -83.734818,
      "tags": {
        "name": "Presque Isle Consumer Node",
        "consumer": "yes",
        "consumer:type": "county-equivalent",
        "load:mw": "80.76",
        "consumption:gwh:annual": "707.50",
        "year": "2024",
        "operator": "County-equivalent aggregate",
        "source:name": "EIA Form 861 Annual Electric Power Industry Report"
      }
    },
    {
      "type": "node",
      "id": "consumer-county-143",
      "lat": 44.282333,
      "lon": -84.609955,
      "tags": {
        "name": "Roscommon Consumer Node",
        "consumer": "yes",
        "consumer:type": "county-equivalent",
        "load:mw": "69.48",
        "consumption:gwh:annual": "608.68",
        "year": "2024",
        "operator": "County-equivalent aggregate",
        "source:name": "EIA Form 861 Annual Electric Power Industry Report"
      }
    },
    {
      "type": "node",
      "id": "consumer-county-145",
      "lat": 43.386793,
      "lon": -83.981855,
      "tags": {
        "name": "Saginaw Consumer Node",
        "consumer": "yes",
        "consumer:type": "county-equivalent",
        "load:mw": "293.15",
        "consumption:gwh:annual": "2568.01",
        "year": "2024",
        "operator": "County-equivalent aggregate",
        "source:name": "EIA Form 861 Annual Electric Power Industry Report"
      }
    },
    {
      "type": "node",
      "id": "consumer-county-151",
      "lat": 43.406747,
      "lon": -82.678279,
      "tags": {
        "name": "Sanilac Consumer Node",
        "consumer": "yes",
        "consumer:type": "county-equivalent",
        "load:mw": "220.47",
        "consumption:gwh:annual": "1931.31",
        "year": "2024",
        "operator": "County-equivalent aggregate",
        "source:name": "EIA Form 861 Annual Electric Power Industry Report"
      }
    },
    {
      "type": "node",
      "id": "consumer-county-153",
      "lat": 45.931557,
      "lon": -86.216215,
      "tags": {
        "name": "Schoolcraft Consumer Node",
        "consumer": "yes",
        "consumer:type": "county-equivalent",
        "load:mw": "25.97",
        "consumption:gwh:annual": "227.47",
        "year": "2024",
        "operator": "County-equivalent aggregate",
        "source:name": "EIA Form 861 Annual Electric Power Industry Report"
      }
    },
    {
      "type": "node",
      "id": "consumer-county-155",
      "lat": 42.977502,
      "lon": -84.227624,
      "tags": {
        "name": "Shiawassee Consumer Node",
        "consumer": "yes",
        "consumer:type": "county-equivalent",
        "load:mw": "289.95",
        "consumption:gwh:annual": "2539.99",
        "year": "2024",
        "operator": "County-equivalent aggregate",
        "source:name": "EIA Form 861 Annual Electric Power Industry Report"
      }
    },
    {
      "type": "node",
      "id": "consumer-county-147",
      "lat": 42.829587,
      "lon": -82.589698,
      "tags": {
        "name": "St. Clair Consumer Node",
        "consumer": "yes",
        "consumer:type": "county-equivalent",
        "load:mw": "220.47",
        "consumption:gwh:annual": "1931.31",
        "year": "2024",
        "operator": "County-equivalent aggregate",
        "source:name": "EIA Form 861 Annual Electric Power Industry Report"
      }
    },
    {
      "type": "node",
      "id": "consumer-county-149",
      "lat": 41.783044,
      "lon": -85.555642,
      "tags": {
        "name": "St. Joseph Consumer Node",
        "consumer": "yes",
        "consumer:type": "county-equivalent",
        "load:mw": "157.52",
        "consumption:gwh:annual": "1379.88",
        "year": "2024",
        "operator": "County-equivalent aggregate",
        "source:name": "EIA Form 861 Annual Electric Power Industry Report"
      }
    },
    {
      "type": "node",
      "id": "consumer-county-157",
      "lat": 43.56733,
      "lon": -83.513943,
      "tags": {
        "name": "Tuscola Consumer Node",
        "consumer": "yes",
        "consumer:type": "county-equivalent",
        "load:mw": "289.95",
        "consumption:gwh:annual": "2539.99",
        "year": "2024",
        "operator": "County-equivalent aggregate",
        "source:name": "EIA Form 861 Annual Electric Power Industry Report"
      }
    },
    {
      "type": "node",
      "id": "consumer-county-159",
      "lat": 42.282428,
      "lon": -86.204384,
      "tags": {
        "name": "Van Buren Consumer Node",
        "consumer": "yes",
        "consumer:type": "county-equivalent",
        "load:mw": "134.11",
        "consumption:gwh:annual": "1174.79",
        "year": "2024",
        "operator": "County-equivalent aggregate",
        "source:name": "EIA Form 861 Annual Electric Power Industry Report"
      }
    },
    {
      "type": "node",
      "id": "consumer-county-161",
      "lat": 42.265257,
      "lon": -83.736953,
      "tags": {
        "name": "Washtenaw Consumer Node",
        "consumer": "yes",
        "consumer:type": "county-equivalent",
        "load:mw": "289.95",
        "consumption:gwh:annual": "2539.99",
        "year": "2024",
        "operator": "County-equivalent aggregate",
        "source:name": "EIA Form 861 Annual Electric Power Industry Report"
      }
    },
    {
      "type": "node",
      "id": "consumer-county-163",
      "lat": 42.258937,
      "lon": -83.141705,
      "tags": {
        "name": "Wayne Consumer Node",
        "consumer": "yes",
        "consumer:type": "county-equivalent",
        "load:mw": "251.06",
        "consumption:gwh:annual": "2199.26",
        "year": "2024",
        "operator": "County-equivalent aggregate",
        "source:name": "EIA Form 861 Annual Electric Power Industry Report"
      }
    },
    {
      "type": "node",
      "id": "consumer-county-165",
      "lat": 44.264128,
      "lon": -85.575272,
      "tags": {
        "name": "Wexford Consumer Node",
        "consumer": "yes",
        "consumer:type": "county-equivalent",
        "load:mw": "84.22",
        "consumption:gwh:annual": "737.80",
        "year": "2024",
        "operator": "County-equivalent aggregate",
        "source:name": "EIA Form 861 Annual Electric Power Industry Report"
      }
    }
  ]
}
