{
  "version": 0.6,
  "generator": "Overpass API 0.7.62.11 87bfad18",
  "osm3s": {
    "timestamp_osm_base": "2026-04-24T20:51:16Z",
    "timestamp_areas_base": "2026-04-24T15:53:36Z",
    "copyright": "The data included in this document is from www.openstreetmap.org. The data is made available under ODbL."
  },
  "elements": [
    {
      "type": "way",
      "id": 37999116,
      "center": {
        "lat": 39.1223489,
        "lon": -94.5599957
      },
      "tags": {
        "landuse": "industrial",
        "name": "Evergy Northeast Power Plant",
        "operator": "Evergy",
        "operator:wikidata": "Q7987107",
        "plant:method": "combustion",
        "plant:output:electricity": "490.2 MW",
        "plant:source": "oil",
        "power": "plant",
        "ref:US:EIA": "2081",
        "source": "https://www.industryabout.com/country-territories-3/873-usa/fossil-fuels-energy/22015-northeast-missouri-oil-power-plant;https://investors.evergy.com/static-files/ae18740a-c416-4cf2-8a66-c2b3ac65a29e",
        "start_date": "1972-05",
        "wikidata": "Q11992628"
      },
      "lat": 39.1223489,
      "lon": -94.5599957
    },
    {
      "type": "way",
      "id": 96166869,
      "center": {
        "lat": 37.1390722,
        "lon": -94.1043351
      },
      "tags": {
        "landuse": "industrial",
        "name": "Empire Energy Center",
        "operator": "Empire District Electric Company",
        "plant:method": "combustion",
        "plant:output:electricity": "379 MW",
        "plant:source": "gas",
        "power": "plant",
        "ref:US:EIA": "6223",
        "source": "U.S. Energy Information Administration - EIA-860 - 2021",
        "start_date": "1978-03",
        "wikidata": "Q11967365"
      },
      "lat": 37.1390722,
      "lon": -94.1043351
    },
    {
      "type": "way",
      "id": 144210343,
      "center": {
        "lat": 36.596382,
        "lon": -93.3100604
      },
      "tags": {
        "building": "industrial",
        "name": "Table Rock Station",
        "operator": "USCE-Little Rock District",
        "plant:output:electricity": "200 MW",
        "plant:source": "hydro",
        "power": "plant",
        "ref:US:EIA": "2166",
        "source": "Bing",
        "start_date": "1959-05",
        "wikidata": "Q12005035"
      },
      "lat": 36.596382,
      "lon": -93.3100604
    },
    {
      "type": "way",
      "id": 249573944,
      "center": {
        "lat": 38.2033196,
        "lon": -92.6253049
      },
      "tags": {
        "alt_name": "Osage Dam",
        "ele": "172",
        "name": "Bagnell Dam",
        "operator": "Ameren Missouri",
        "operator:wikidata": "Q7885672",
        "plant:output:electricity": "208 MW",
        "plant:source": "hydro",
        "power": "plant",
        "ref:US:EIA": "2106",
        "ref:US:NID": "MO30014",
        "source": "U.S. Energy Information Administration - EIA-860 - 2020",
        "start_date": "1931-10",
        "waterway": "dam",
        "wikidata": "Q14693496"
      },
      "lat": 38.2033196,
      "lon": -92.6253049
    },
    {
      "type": "way",
      "id": 261656684,
      "center": {
        "lat": 36.6589714,
        "lon": -93.1234854
      },
      "tags": {
        "name": "Ozark Beach Power Plant",
        "operator": "Empire District Electric Co",
        "plant:output:electricity": "16 MW",
        "plant:source": "hydro",
        "power": "plant",
        "ref:US:EIA": "6280",
        "source": "bing",
        "start_date": "1931-06",
        "wikidata": "Q7236845"
      },
      "lat": 36.6589714,
      "lon": -93.1234854
    },
    {
      "type": "way",
      "id": 301505685,
      "center": {
        "lat": 37.5208033,
        "lon": -90.8346116
      },
      "tags": {
        "landuse": "industrial",
        "name": "Taum Sauk Hydroelectric Power Station",
        "operator": "Ameren",
        "plant:method": "water-pumped-storage",
        "plant:output:electricity": "408 MW",
        "plant:source": "hydro",
        "power": "plant",
        "ref:US:EIA": "2108",
        "source": "U.S. Energy Information Administration - EIA-860 - 2020",
        "start_date": "1963-12",
        "wikidata": "Q1435154",
        "wikipedia": "en:Taum Sauk Hydroelectric Power Station"
      },
      "lat": 37.5208033,
      "lon": -90.8346116
    },
    {
      "type": "way",
      "id": 318507188,
      "center": {
        "lat": 40.2878806,
        "lon": -94.7913782
      },
      "tags": {
        "barrier": "fence",
        "landuse": "industrial",
        "name": "Nodaway Power Plant",
        "operator": "Associated Electric Coop, Inc",
        "plant:method": "combustion",
        "plant:output:electricity": "315.6 MW",
        "plant:source": "gas",
        "power": "plant",
        "ref:US:EIA": "7754",
        "source": "U.S. Energy Information Administration - EIA-860 - 2021",
        "start_date": "1999-06"
      },
      "lat": 40.2878806,
      "lon": -94.7913782
    },
    {
      "type": "way",
      "id": 328483809,
      "center": {
        "lat": 36.8775384,
        "lon": -89.6167886
      },
      "tags": {
        "landuse": "industrial",
        "name": "Sikeston BMU",
        "operator": "City of Sikeston - (MO)",
        "plant:method": "combustion",
        "plant:output:electricity": "240 MW",
        "plant:source": "coal",
        "power": "plant",
        "ref:US:EIA": "6768",
        "source": "U.S. Energy Information Administration - EIA-860 - 2019",
        "start_date": "1981-09",
        "website": "https://www.sikestonbmu.org/"
      },
      "lat": 36.8775384,
      "lon": -89.6167886
    },
    {
      "type": "way",
      "id": 376175448,
      "center": {
        "lat": 38.67963,
        "lon": -94.482837
      },
      "tags": {
        "landuse": "industrial",
        "name": "South Harper",
        "operator": "Evergy",
        "operator:wikidata": "Q7987107",
        "plant:method": "combustion",
        "plant:output:electricity": "351 MW",
        "plant:source": "gas",
        "power": "plant",
        "ref:US:EIA": "56151",
        "source": "U.S. Energy Information Administration - EIA-860 - 2021",
        "start_date": "2005-08",
        "wikidata": "Q12002136"
      },
      "lat": 38.67963,
      "lon": -94.482837
    },
    {
      "type": "way",
      "id": 377505292,
      "center": {
        "lat": 37.0657012,
        "lon": -94.6143518
      },
      "tags": {
        "landuse": "industrial",
        "name": "State Line Combined Cycle Gas Power Plant",
        "operator": "Empire District Electric Co",
        "plant:method": "combustion",
        "plant:output:electricity": "690.5 MW",
        "plant:source": "gas",
        "power": "plant",
        "ref:US:EIA": "7296",
        "source": "http://globalenergyobservatory.org/geoid/5539",
        "start_date": "1995-05-01"
      },
      "lat": 37.0657012,
      "lon": -94.6143518
    },
    {
      "type": "way",
      "id": 384676406,
      "center": {
        "lat": 38.7634859,
        "lon": -91.7803405
      },
      "tags": {
        "landuse": "industrial",
        "name": "Callaway Energy Center",
        "operator": "Ameren",
        "plant:method": "fission",
        "plant:output:electricity": "1235.8 MW",
        "plant:source": "nuclear",
        "power": "plant",
        "ref:US:EIA": "6153",
        "source": "U.S. Energy Information Administration - EIA-860 - 2021",
        "start_date": "1984-12",
        "wikidata": "Q1493850",
        "wikipedia": "en:Callaway Nuclear Generating Station"
      },
      "lat": 38.7634859,
      "lon": -91.7803405
    },
    {
      "type": "way",
      "id": 401465628,
      "center": {
        "lat": 38.5558053,
        "lon": -92.1026184
      },
      "tags": {
        "barrier": "fence",
        "landuse": "industrial",
        "name": "Moreau Power Plant",
        "operator": "Ameren",
        "plant:method": "combustion",
        "plant:output:electricity": "60.8 MW",
        "plant:source": "oil",
        "power": "plant",
        "ref:US:EIA": "6652",
        "source": "https://www.industryabout.com/country-territories-3/873-usa/fossil-fuels-energy/22014-moreau-oil-power-plant",
        "start_date": "1978-08"
      },
      "lat": 38.5558053,
      "lon": -92.1026184
    },
    {
      "type": "way",
      "id": 401542564,
      "center": {
        "lat": 39.0191699,
        "lon": -92.2629008
      },
      "tags": {
        "barrier": "fence",
        "landuse": "industrial",
        "name": "Columbia Energy Center",
        "operator": "City of Columbia - (MO)",
        "plant:method": "combustion",
        "plant:output:electricity": "162.8 MW",
        "plant:source": "gas",
        "power": "plant",
        "ref:US:EIA": "55447",
        "source": "https://www.industryabout.com/country-territories-3/873-usa/fossil-fuels-energy/22003-columbia-energy-center-gas-power-plant",
        "start_date": "2001-06",
        "wikidata": "Q17762624"
      },
      "lat": 39.0191699,
      "lon": -92.2629008
    },
    {
      "type": "way",
      "id": 419909886,
      "center": {
        "lat": 37.107373,
        "lon": -93.2619063
      },
      "tags": {
        "name": "James River Power Station",
        "operator": "City Utilities of Springfield - (MO)",
        "plant:output:electricity": "197.5 MW",
        "plant:source": "gas",
        "power": "plant",
        "ref:US:EIA": "2161",
        "source": "U.S. Energy Information Administration - EIA-860 - 2021",
        "start_date": "1957-06"
      },
      "lat": 37.107373,
      "lon": -93.2619063
    },
    {
      "type": "way",
      "id": 421890246,
      "center": {
        "lat": 39.352949,
        "lon": -91.2285288
      },
      "tags": {
        "landuse": "industrial",
        "name": "Peno Creek Power Plant",
        "operator": "Ameren",
        "plant:method": "combustion",
        "plant:output:electricity": "240 MW",
        "plant:source": "gas",
        "power": "plant",
        "ref:US:EIA": "7964",
        "source": "U.S. Energy Information Administration - EIA-860 - 2021",
        "start_date": "2002-05"
      },
      "lat": 39.352949,
      "lon": -91.2285288
    },
    {
      "type": "way",
      "id": 422852281,
      "center": {
        "lat": 38.5570724,
        "lon": -90.8352079
      },
      "tags": {
        "addr:city": "Labadie",
        "addr:housenumber": "226",
        "addr:postcode": "63055",
        "addr:state": "MO",
        "addr:street": "Labadie Power Plant Rd",
        "landuse": "industrial",
        "name": "Labadie Energy Center",
        "operator": "Ameren",
        "plant:method": "combustion",
        "plant:output:electricity": "2389.4 MW",
        "plant:source": "coal",
        "power": "plant",
        "ref:US:EIA": "2103",
        "source": "U.S. Energy Information Administration - EIA-860 - 2021",
        "start_date": "1970-06",
        "wikidata": "Q11982905"
      },
      "lat": 38.5570724,
      "lon": -90.8352079
    },
    {
      "type": "way",
      "id": 449938174,
      "center": {
        "lat": 38.7930449,
        "lon": -94.301248
      },
      "tags": {
        "landuse": "industrial",
        "name": "Dogwood Energy Facility",
        "operator": "Dogwood Power Management, LLC",
        "plant:method": "combustion",
        "plant:output:electricity": "655.2 MW",
        "plant:source": "gas",
        "plant:type": "combined_cycle",
        "power": "plant",
        "ref:US:EIA": "55178",
        "source": "U.S. Energy Information Administration - EIA-860 - 2021",
        "start_date": "2001-06",
        "wikidata": "Q17766773"
      },
      "lat": 38.7930449,
      "lon": -94.301248
    },
    {
      "type": "way",
      "id": 449938178,
      "center": {
        "lat": 39.128067,
        "lon": -94.4798127
      },
      "tags": {
        "landuse": "industrial",
        "name": "Hawthorn Station",
        "operator": "Evergy",
        "operator:wikidata": "Q7987107",
        "operator:wikipedia": "en:Evergy",
        "plant:method": "combustion",
        "plant:output:electricity": "1046.2 MW",
        "plant:source": "coal;gas",
        "power": "plant",
        "ref:US:EIA": "2079",
        "route": "power",
        "source": "https://investors.evergy.com/static-files/69f82b24-dfa4-4228-93c6-8e92ea4e38d5",
        "start_date": "1969-05",
        "wikidata": "Q19373861"
      },
      "lat": 39.128067,
      "lon": -94.4798127
    },
    {
      "type": "way",
      "id": 470253736,
      "center": {
        "lat": 36.7501761,
        "lon": -91.8666339
      },
      "tags": {
        "landuse": "industrial",
        "name": "City of West Plains Power Station",
        "operator": "City of West Plains - (MO)",
        "plant:method": "combustion",
        "plant:output:electricity": "47.4 MW",
        "plant:source": "gas",
        "power": "plant",
        "ref:US:EIA": "59664",
        "source": "U.S. Energy Information Administration - EIA-860 - 2022",
        "start_date": "2000-05"
      },
      "lat": 36.7501761,
      "lon": -91.8666339
    },
    {
      "type": "way",
      "id": 488465840,
      "center": {
        "lat": 38.9469698,
        "lon": -92.3332001
      },
      "tags": {
        "landuse": "industrial",
        "name": "MU Combined Heat and Power Plant",
        "operator": "University of Missouri",
        "plant:output:electricity": "91.4 MW",
        "plant:output:hot_water": "yes",
        "plant:source": "gas;oil",
        "power": "plant",
        "ref:US:EIA": "50969",
        "source": "U.S. Energy Information Administration - EIA-860 - 2021",
        "start_date": "1961-07"
      },
      "lat": 38.9469698,
      "lon": -92.3332001
    },
    {
      "type": "way",
      "id": 506142348,
      "center": {
        "lat": 39.4632839,
        "lon": -94.9860959
      },
      "tags": {
        "addr:city": "Weston",
        "addr:housenumber": "20250",
        "addr:postcode": "64098",
        "addr:state": "MO",
        "addr:street": "MO 45",
        "landuse": "industrial",
        "name": "Iatan Generating Station",
        "operator": "Evergy",
        "operator:wikidata": "Q7987107",
        "plant:method": "combustion",
        "plant:output:electricity": "1725 MW",
        "plant:source": "coal",
        "power": "plant",
        "ref:US:EIA": "6065",
        "source": "U.S. Energy Information Administration - EIA-860 - 2021",
        "start_date": "1980-05",
        "wikidata": "Q11976755"
      },
      "lat": 39.4632839,
      "lon": -94.9860959
    },
    {
      "type": "way",
      "id": 523530359,
      "center": {
        "lat": 38.9588556,
        "lon": -92.3684146
      },
      "tags": {
        "generator:source": "solar",
        "plant:method": "photovoltaic",
        "plant:output:electricity": "yes",
        "plant:source": "solar",
        "power": "plant"
      },
      "lat": 38.9588556,
      "lon": -92.3684146
    },
    {
      "type": "way",
      "id": 543659456,
      "center": {
        "lat": 38.8274762,
        "lon": -90.6776185
      },
      "tags": {
        "barrier": "fence",
        "name": "O'Fallon Renewable Energy Center",
        "operator": "Ameren",
        "plant:method": "photovoltaic",
        "plant:output:electricity": "4.5 MW",
        "plant:source": "solar",
        "power": "plant",
        "ref:US:EIA": "61826",
        "source": "U.S. Energy Information Administration - EIA-860 - 2021",
        "start_date": "2014-12"
      },
      "lat": 38.8274762,
      "lon": -90.6776185
    },
    {
      "type": "way",
      "id": 551766274,
      "center": {
        "lat": 38.9656693,
        "lon": -92.3171526
      },
      "tags": {
        "landuse": "industrial",
        "name": "Columbia Municipal Gas Power Plant",
        "operator": "City of Columbia - (MO)",
        "plant:output:electricity": "61.1 MW",
        "plant:source": "biogas;gas;oil",
        "power": "plant",
        "ref:US:EIA": "2123",
        "source": "https://www.industryabout.com/country-territories-3/873-usa/fossil-fuels-energy/22004-columbia-municipal-gas-power-plant",
        "start_date": "1957-01"
      },
      "lat": 38.9656693,
      "lon": -92.3171526
    },
    {
      "type": "way",
      "id": 572224741,
      "center": {
        "lat": 39.1221048,
        "lon": -93.206218
      },
      "tags": {
        "landuse": "industrial",
        "name": "Marshall Municipal Steam Plant (MO)",
        "operator": "City of Marshall - (MO)",
        "plant:method": "combustion",
        "plant:output:electricity": "30.8 MW",
        "plant:source": "gas;oil",
        "power": "plant",
        "ref:US:EIA": "2144",
        "source": "U.S. Energy Information Administration - EIA-860 - 2022",
        "start_date": "1948-06"
      },
      "lat": 39.1221048,
      "lon": -93.206218
    },
    {
      "type": "way",
      "id": 610277574,
      "center": {
        "lat": 39.3100237,
        "lon": -91.5365403
      },
      "tags": {
        "landuse": "industrial",
        "name": "Audrain Gas Power Plant",
        "operator": "Ameren",
        "plant:method": "combustion",
        "plant:output:electricity": "814.4 MW",
        "plant:source": "gas",
        "power": "plant",
        "ref:US:EIA": "55234",
        "source": "U.S. Energy Information Administration - EIA-860 - 2021",
        "start_date": "2001-02",
        "wikidata": "Q11959594"
      },
      "lat": 39.3100237,
      "lon": -91.5365403
    },
    {
      "type": "way",
      "id": 611749379,
      "center": {
        "lat": 39.7240063,
        "lon": -94.8789085
      },
      "tags": {
        "addr:city": "Saint Joseph",
        "addr:housenumber": "1413",
        "addr:postcode": "64504",
        "addr:state": "MO",
        "addr:street": "Southwest Lower Lake Road",
        "landuse": "industrial",
        "name": "Lake Road (MO) Generating Station",
        "operator": "Evergy",
        "operator:wikidata": "Q7987107",
        "plant:output:electricity": "278.4 MW",
        "plant:output:hot_water": "yes",
        "plant:source": "gas;oil",
        "power": "plant",
        "ref:US:EIA": "2098",
        "source": "https://www.gem.wiki/Lake_Road_Generating_Station_(MO)",
        "start_date": "1950-07",
        "wikidata": "Q11982985"
      },
      "lat": 39.7240063,
      "lon": -94.8789085
    },
    {
      "type": "way",
      "id": 635536633,
      "center": {
        "lat": 38.8617096,
        "lon": -94.2984035
      },
      "tags": {
        "barrier": "fence",
        "landuse": "industrial",
        "name": "Greenwood Energy Center",
        "operator": "Evergy",
        "operator:wikidata": "Q7987107",
        "plant:method": "combustion",
        "plant:output:electricity": "258.8 MW",
        "plant:source": "gas",
        "power": "plant",
        "ref:US:EIA": "6074",
        "source": "U.S. Energy Information Administration - EIA-860 - 2021",
        "start_date": "1975-05",
        "wikidata": "Q17778415"
      },
      "lat": 38.8617096,
      "lon": -94.2984035
    },
    {
      "type": "way",
      "id": 641969613,
      "center": {
        "lat": 37.1467185,
        "lon": -93.3901352
      },
      "tags": {
        "landuse": "industrial",
        "name": "John Twitty Energy Center",
        "operator": "City Utilities of Springfield",
        "plant:method": "combustion",
        "plant:output:electricity": "603 MW",
        "plant:source": "coal;gas",
        "power": "plant",
        "ref:US:EIA": "6195",
        "source": "U.S. Energy Information Administration - EIA-860 - 2021",
        "start_date": "1976-06"
      },
      "lat": 37.1467185,
      "lon": -93.3901352
    },
    {
      "type": "way",
      "id": 683232984,
      "center": {
        "lat": 40.4597895,
        "lon": -93.0218164
      },
      "tags": {
        "landuse": "industrial",
        "name": "Unionville Power Plant",
        "operator": "Associated Electric Coop, Inc",
        "plant:method": "combustion",
        "plant:output:electricity": "53.2 MW",
        "plant:source": "oil",
        "power": "plant",
        "ref:US:EIA": "6563",
        "source": "U.S. Energy Information Administration - EIA-860 - 2022",
        "start_date": "1976-06"
      },
      "lat": 40.4597895,
      "lon": -93.0218164
    },
    {
      "type": "way",
      "id": 683236704,
      "center": {
        "lat": 36.5857742,
        "lon": -90.1774817
      },
      "tags": {
        "landuse": "industrial",
        "name": "St Francis Energy Facility",
        "operator": "Associated Electric Coop, Inc",
        "plant:method": "combustion",
        "plant:output:electricity": "465 MW",
        "plant:source": "gas",
        "power": "plant",
        "ref:US:EIA": "7604",
        "source": "U.S. Energy Information Administration - EIA-860 - 2019",
        "start_date": "1999-07",
        "wikidata": "Q12002491"
      },
      "lat": 36.5857742,
      "lon": -90.1774817
    },
    {
      "type": "way",
      "id": 720665501,
      "center": {
        "lat": 36.5190515,
        "lon": -89.5657993
      },
      "tags": {
        "landuse": "industrial",
        "name": "New Madrid Power Plant",
        "operator": "Associated Electric Coop, Inc",
        "plant:method": "combustion",
        "plant:output:electricity": "1182 MW",
        "plant:source": "coal",
        "power": "plant",
        "ref:US:EIA": "2167",
        "source": "U.S. Energy Information Administration - EIA-860 - 2019",
        "start_date": "1972-10",
        "wikidata": "Q11991261"
      },
      "lat": 36.5190515,
      "lon": -89.5657993
    },
    {
      "type": "way",
      "id": 731589300,
      "center": {
        "lat": 39.5490662,
        "lon": -92.6314373
      },
      "tags": {
        "landuse": "industrial",
        "name": "Thomas Hill Energy Center",
        "operator": "Associated Electric Coop, Inc",
        "plant:method": "combustion",
        "plant:output:electricity": "1181.7 MW",
        "plant:source": "coal",
        "power": "plant",
        "ref:US:EIA": "2168",
        "source": "https://www.gem.wiki/Thomas_Hill_Energy_Center",
        "start_date": "1966-12",
        "wikidata": "Q12006078"
      },
      "lat": 39.5490662,
      "lon": -92.6314373
    },
    {
      "type": "way",
      "id": 759081993,
      "center": {
        "lat": 40.1156432,
        "lon": -93.6121726
      },
      "tags": {
        "addr:city": "Trenton",
        "addr:housenumber": "320",
        "addr:postcode": "64683",
        "addr:state": "MO",
        "addr:street": "Northwest 10th Avenue",
        "name": "Trenton Solar Farm",
        "operator": "MC Power Comapnies",
        "plant:method": "photovoltaic",
        "plant:output:electricity": "2.8 MW",
        "plant:source": "solar",
        "power": "plant",
        "ref:US:EIA": "60704",
        "source": "U.S. Energy Information Administration - EIA-860 - 2021",
        "start_date": "2015-10-26"
      },
      "lat": 40.1156432,
      "lon": -93.6121726
    },
    {
      "type": "way",
      "id": 772605879,
      "center": {
        "lat": 37.2486433,
        "lon": -93.1701929
      },
      "tags": {
        "name": "McCartney Power Plant",
        "operator": "City Utilities of Springfield - (MO)",
        "plant:output:electricity": "117.8 MW",
        "plant:source": "gas",
        "power": "plant",
        "ref:US:EIA": "7903",
        "source": "https://www.industryabout.com/country-territories-3/873-usa/fossil-fuels-energy/21977-mccartney-gas-power-plant",
        "start_date": "2002-07"
      },
      "lat": 37.2486433,
      "lon": -93.1701929
    },
    {
      "type": "way",
      "id": 815897594,
      "center": {
        "lat": 38.2737147,
        "lon": -94.3527503
      },
      "tags": {
        "name": "Butler Solar Power Project",
        "operator": "MC Power Companies Inc",
        "plant:method": "photovoltaic",
        "plant:output:electricity": "2.8 MW",
        "plant:source": "solar",
        "power": "plant",
        "ref:US:EIA": "58959",
        "source": "U.S. Energy Information Administration - EIA-860 - 2021",
        "start_date": "2014-03"
      },
      "lat": 38.2737147,
      "lon": -94.3527503
    },
    {
      "type": "way",
      "id": 825328202,
      "center": {
        "lat": 38.7536291,
        "lon": -93.997933
      },
      "tags": {
        "landuse": "industrial",
        "name": "Holden Power Plant",
        "operator": "Assosciated Electric Cooperative, Inc.",
        "plant:method": "combustion",
        "plant:output:electricity": "321.3 MW",
        "plant:source": "gas",
        "power": "plant",
        "ref:US:EIA": "7848",
        "source": "U.S. Energy Information Administration - EIA-860 - 2021;https://www.gem.wiki/Holden_power_station",
        "start_date": "2002-06"
      },
      "lat": 38.7536291,
      "lon": -93.997933
    },
    {
      "type": "way",
      "id": 837021067,
      "center": {
        "lat": 37.2462951,
        "lon": -93.1670869
      },
      "tags": {
        "name": "Springfield Solar Farm",
        "operator": "City Utilities of Springfield",
        "plant:method": "photovoltaic",
        "plant:output:electricity": "4.95 MW",
        "plant:source": "solar",
        "power": "plant",
        "ref:US:EIA": "59110",
        "source": "U.S. Energy Information Administration - EIA-860 - 2021",
        "start_date": "2014-06",
        "website": "https://www.cityutilities.net/save/solar-farm/"
      },
      "lat": 37.2462951,
      "lon": -93.1670869
    },
    {
      "type": "way",
      "id": 842036471,
      "center": {
        "lat": 39.2465244,
        "lon": -94.6449442
      },
      "tags": {
        "landuse": "industrial",
        "operator": "Tesla, Inc.",
        "plant:source": "battery",
        "power": "plant",
        "start_date": "2018-05-26"
      },
      "lat": 39.2465244,
      "lon": -94.6449442
    },
    {
      "type": "way",
      "id": 864879700,
      "center": {
        "lat": 36.8682424,
        "lon": -89.8401966
      },
      "tags": {
        "landuse": "industrial",
        "name": "Essex Power Station",
        "operator": "Associated Electric Coop, Inc",
        "plant:method": "combustion",
        "plant:output:electricity": "110 MW",
        "plant:source": "gas",
        "power": "plant",
        "ref:US:EIA": "7749",
        "source": "U.S. Energy Information Administration - EIA-860 - 2019",
        "start_date": "1999-06"
      },
      "lat": 36.8682424,
      "lon": -89.8401966
    },
    {
      "type": "way",
      "id": 889393228,
      "center": {
        "lat": 38.8684657,
        "lon": -91.9477465
      },
      "tags": {
        "landuse": "industrial",
        "name": "Fulton (MO)",
        "operator": "City of Fulton - (MO)",
        "plant:output:electricity": "33.2 MW",
        "plant:source": "gas;oil",
        "power": "plant",
        "ref:US:EIA": "2126",
        "source": "U.S. Energy Information Administration - EIA-860 - 2021",
        "start_date": "1966-09"
      },
      "lat": 38.8684657,
      "lon": -91.9477465
    },
    {
      "type": "way",
      "id": 889393238,
      "center": {
        "lat": 39.2155166,
        "lon": -92.1281804
      },
      "tags": {
        "landuse": "industrial",
        "power": "plant"
      },
      "lat": 39.2155166,
      "lon": -92.1281804
    },
    {
      "type": "way",
      "id": 902701567,
      "center": {
        "lat": 39.148253,
        "lon": -91.8310887
      },
      "tags": {
        "landuse": "industrial",
        "name": "Mexico Power Plant",
        "operator": "Ameren",
        "plant:method": "combustion",
        "plant:output:electricity": "60.7 MW",
        "plant:source": "oil",
        "power": "plant",
        "ref:US:EIA": "6650",
        "source": "U.S. Energy Information Administration - EIA-860 - 2021",
        "start_date": "1978-09"
      },
      "lat": 39.148253,
      "lon": -91.8310887
    },
    {
      "type": "way",
      "id": 960206065,
      "center": {
        "lat": 38.7878537,
        "lon": -94.2778106
      },
      "tags": {
        "barrier": "fence",
        "frequency": "60",
        "landuse": "industrial",
        "location": "outdoor",
        "name": "Ralph Green Power Plant",
        "operator": "Evergy",
        "operator:wikidata": "Q7987107",
        "plant:method": "combustion",
        "plant:output:electricity": "85 MW",
        "plant:source": "gas",
        "power": "plant",
        "ref:US:EIA": "2092",
        "source": "https://www.industryabout.com/country-territories-3/873-usa/fossil-fuels-energy/21989-ralph-green-gas-power-plant",
        "start_date": "1981-06",
        "wikidata": "Q19386160"
      },
      "lat": 38.7878537,
      "lon": -94.2778106
    },
    {
      "type": "way",
      "id": 960890981,
      "center": {
        "lat": 38.5935178,
        "lon": -92.2208296
      },
      "tags": {
        "landuse": "industrial",
        "name": "Fairgrounds Power Plant",
        "operator": "Ameren",
        "plant:method": "combustion",
        "plant:output:electricity": "68.3 MW",
        "plant:source": "oil",
        "power": "plant",
        "ref:US:EIA": "2082",
        "source": "http://www.energyjustice.net/map/displayfacility-64940.htm",
        "start_date": "1974-08"
      },
      "lat": 38.5935178,
      "lon": -92.2208296
    },
    {
      "type": "way",
      "id": 961185439,
      "center": {
        "lat": 39.4242143,
        "lon": -92.4845296
      },
      "tags": {
        "landuse": "industrial",
        "name": "Moberly Power Plant",
        "operator": "Ameren",
        "plant:method": "combustion",
        "plant:output:electricity": "60.6 MW",
        "plant:source": "oil",
        "power": "plant",
        "ref:US:EIA": "6651",
        "source": "https://www.countyoffice.org/amerenue-moberly-combustion-turbine-power-plant-moberly-mo-c7f/;http://globalenergyobservatory.org/geoid/4327",
        "start_date": "1978-08"
      },
      "lat": 39.4242143,
      "lon": -92.4845296
    },
    {
      "type": "way",
      "id": 1002858506,
      "center": {
        "lat": 37.0420889,
        "lon": -93.3404479
      },
      "tags": {
        "name": "Nixa Solar Farm",
        "operator": "MC Power Companies",
        "plant:method": "photovoltaic",
        "plant:output:electricity": "7.92 MW",
        "plant:source": "solar",
        "power": "plant",
        "ref:US:EIA": "60673",
        "source": "U.S. Energy Information Administration - EIA-860 - 2021",
        "start_date": "2017-11-14"
      },
      "lat": 37.0420889,
      "lon": -93.3404479
    },
    {
      "type": "way",
      "id": 1002859364,
      "center": {
        "lat": 37.7557716,
        "lon": -90.4260292
      },
      "tags": {
        "barrier": "fence",
        "name": "Farmington Solar Farm",
        "operator": "MC Power Companies",
        "operator:wikidata": "Q64141964",
        "plant:method": "photovoltaic",
        "plant:output:electricity": "2.5 MW",
        "plant:source": "solar",
        "power": "plant",
        "ref:US:EIA": "61450",
        "source": "U.S. Energy Information Administration - EIA-860 - 2021",
        "start_date": "2017-12-19"
      },
      "lat": 37.7557716,
      "lon": -90.4260292
    },
    {
      "type": "way",
      "id": 1002860694,
      "center": {
        "lat": 39.0950988,
        "lon": -93.2111323
      },
      "tags": {
        "addr:city": "Marshall",
        "addr:housenumber": "941",
        "addr:postcode": "65340",
        "addr:state": "MO",
        "addr:street": "Fairground Road",
        "name": "Marshall Solar Farm",
        "operator": "MC Power Companies",
        "plant:method": "photovoltaic",
        "plant:output:electricity": "2.8 MW",
        "plant:source": "solar",
        "power": "plant",
        "ref:US:EIA": "60707",
        "source": "U.S. Energy Information Administration - EIA-860 - 2021",
        "start_date": "2016-12-07"
      },
      "lat": 39.0950988,
      "lon": -93.2111323
    },
    {
      "type": "way",
      "id": 1002861600,
      "center": {
        "lat": 39.0020914,
        "lon": -93.7271459
      },
      "tags": {
        "addr:city": "Higginsville",
        "addr:housenumber": "20567",
        "addr:postcode": "64037",
        "addr:state": "MO",
        "addr:street": "Northeast Outer Road",
        "name": "Higginsville Solar Farm",
        "operator": "MC Power Companies",
        "plant:method": "photovoltaic",
        "plant:output:electricity": "2.5 MW",
        "plant:source": "solar",
        "power": "plant",
        "ref:US:EIA": "61316",
        "source": "U.S. Energy Information Administration - EIA-860 - 2021",
        "start_date": "2017-11-28"
      },
      "lat": 39.0020914,
      "lon": -93.7271459
    },
    {
      "type": "way",
      "id": 1002862958,
      "center": {
        "lat": 39.7884547,
        "lon": -93.5364433
      },
      "tags": {
        "addr:city": "Chillicothe",
        "addr:housenumber": "366",
        "addr:postcode": "64601",
        "addr:state": "MO",
        "addr:street": "East 3rd Street",
        "name": "Chillicothe Solar Farm",
        "operator": "MC Power Companies",
        "plant:method": "photovoltaic",
        "plant:output:electricity": "2.5 MW",
        "plant:source": "solar",
        "power": "plant",
        "ref:US:EIA": "61223",
        "source": "U.S. Energy Information Administration - EIA-860 - 2021",
        "start_date": "2017-07-06"
      },
      "lat": 39.7884547,
      "lon": -93.5364433
    },
    {
      "type": "way",
      "id": 1002865916,
      "center": {
        "lat": 38.8634068,
        "lon": -94.2971676
      },
      "tags": {
        "name": "Greenwood Solar",
        "operator": "Evergy",
        "operator:wikidata": "Q7987107",
        "plant:method": "photovoltaic",
        "plant:output:electricity": "3 MW",
        "plant:source": "solar",
        "power": "plant",
        "ref:US:EIA": "6074",
        "start_date": "2016-07-00"
      },
      "lat": 38.8634068,
      "lon": -94.2971676
    },
    {
      "type": "way",
      "id": 1002868714,
      "center": {
        "lat": 39.763629,
        "lon": -92.4561418
      },
      "tags": {
        "addr:city": "Macon",
        "addr:housenumber": "3007",
        "addr:postcode": "63552",
        "addr:state": "MO",
        "addr:street": "Kellogg Avenue",
        "name": "Macon Solar Farm",
        "operator": "MC Power Companies",
        "plant:method": "photovoltaic",
        "plant:output:electricity": "2.8 MW",
        "plant:source": "solar",
        "power": "plant",
        "ref:US:EIA": "59729",
        "source": "U.S. Energy Information Administration - EIA-860 - 2021",
        "start_date": "2015-05-13"
      },
      "lat": 39.763629,
      "lon": -92.4561418
    },
    {
      "type": "way",
      "id": 1002869684,
      "center": {
        "lat": 37.9856563,
        "lon": -91.7166876
      },
      "tags": {
        "addr:city": "Rolla",
        "addr:housenumber": "2301",
        "addr:postcode": "65401",
        "addr:state": "MO",
        "addr:street": "Brewer Drive",
        "name": "Rolla Solar Farm",
        "operator": "MC Power Companies",
        "plant:method": "photovoltaic",
        "plant:output:electricity": "2.8 MW",
        "plant:source": "solar",
        "power": "plant",
        "ref:US:EIA": "60705",
        "start_date": "2016-03-31"
      },
      "lat": 37.9856563,
      "lon": -91.7166876
    },
    {
      "type": "way",
      "id": 1002870918,
      "center": {
        "lat": 37.6683465,
        "lon": -92.6702004
      },
      "tags": {
        "addr:city": "Lebanon",
        "addr:housenumber": "2",
        "addr:postcode": "65536",
        "addr:state": "MO",
        "addr:street": "Sunrise Drive",
        "name": "Lebanon Solar Farm",
        "operator": "MC Power Companies",
        "plant:method": "photovoltaic",
        "plant:output:electricity": "2.5 MW",
        "plant:source": "solar",
        "power": "plant",
        "ref:US:EIA": "61135",
        "start_date": "2017-07-18"
      },
      "lat": 37.6683465,
      "lon": -92.6702004
    },
    {
      "type": "way",
      "id": 1002871903,
      "center": {
        "lat": 37.8050542,
        "lon": -92.2528124
      },
      "tags": {
        "addr:city": "Waynesville",
        "addr:housenumber": "24702",
        "addr:postcode": "65583",
        "addr:state": "MO",
        "addr:street": "Royal Oak Lane",
        "name": "Waynesville Solar Farm",
        "operator": "MC Power Companies",
        "plant:method": "photovoltaic",
        "plant:output:electricity": "2.8 MW",
        "plant:source": "solar",
        "power": "plant",
        "ref:US:EIA": "60706",
        "start_date": "2016-07-01"
      },
      "lat": 37.8050542,
      "lon": -92.2528124
    },
    {
      "type": "way",
      "id": 1002874684,
      "center": {
        "lat": 37.858722,
        "lon": -94.0031526
      },
      "tags": {
        "barrier": "fence",
        "name": "El Dorado Springs Solar Farm",
        "operator": "MC Power Companies",
        "operator:wikidata": "Q64141964",
        "plant:method": "photovoltaic",
        "plant:output:electricity": "2.5 MW",
        "plant:source": "solar",
        "power": "plant",
        "ref:US:EIA": "61566",
        "source": "U.S. Energy Information Administration - EIA-860 - 2021",
        "start_date": "2017-12-19"
      },
      "lat": 37.858722,
      "lon": -94.0031526
    },
    {
      "type": "way",
      "id": 1005684588,
      "center": {
        "lat": 39.1163018,
        "lon": -94.2880279
      },
      "tags": {
        "name": "Bundschu 1 Solar Farm",
        "operator": "Independence Power and Light",
        "plant:method": "photovoltaic",
        "plant:output:electricity": "3 MW",
        "plant:source": "solar",
        "power": "plant",
        "start_date": "2016-12-01"
      },
      "lat": 39.1163018,
      "lon": -94.2880279
    },
    {
      "type": "way",
      "id": 1005694411,
      "center": {
        "lat": 39.0711967,
        "lon": -94.4588241
      },
      "tags": {
        "barrier": "fence",
        "name": "Hardy Solar Farm",
        "operator": "Independence Power and Light",
        "plant:method": "photovoltaic",
        "plant:output:electricity": "4.4 MW",
        "plant:source": "solar",
        "power": "plant",
        "ref:US:EIA": "61588",
        "start_date": "2018-06-14"
      },
      "lat": 39.0711967,
      "lon": -94.4588241
    },
    {
      "type": "way",
      "id": 1005721187,
      "center": {
        "lat": 38.6359442,
        "lon": -90.2581952
      },
      "tags": {
        "location": "overground",
        "name": "Renewable Energy Center at BJH",
        "operator": "Union Electric Co - (MO)",
        "plant:method": "photovoltaic",
        "plant:output:electricity": "1.6 MW",
        "plant:source": "solar",
        "power": "plant",
        "ref:US:EIA": "64288",
        "source": "U.S. Energy Information Administration - EIA-860m - 2025",
        "start_date": "2019-10"
      },
      "lat": 38.6359442,
      "lon": -90.2581952
    },
    {
      "type": "way",
      "id": 1011927480,
      "center": {
        "lat": 40.1695223,
        "lon": -92.5706203
      },
      "tags": {
        "plant:method": "photovoltaic",
        "plant:output:electricity": "yes",
        "plant:source": "solar",
        "power": "plant"
      },
      "lat": 40.1695223,
      "lon": -92.5706203
    },
    {
      "type": "way",
      "id": 1013431825,
      "center": {
        "lat": 38.5561487,
        "lon": -90.3041732
      },
      "tags": {
        "barrier": "fence",
        "plant:method": "photovoltaic",
        "plant:output:electricity": "yes",
        "plant:source": "solar",
        "power": "plant"
      },
      "lat": 38.5561487,
      "lon": -90.3041732
    },
    {
      "type": "way",
      "id": 1023228999,
      "center": {
        "lat": 39.3032262,
        "lon": -94.6847796
      },
      "tags": {
        "plant:method": "photovoltaic",
        "plant:output:electricity": "yes",
        "plant:source": "solar",
        "power": "plant"
      },
      "lat": 39.3032262,
      "lon": -94.6847796
    },
    {
      "type": "way",
      "id": 1036136226,
      "center": {
        "lat": 39.07356,
        "lon": -93.7143744
      },
      "tags": {
        "barrier": "fence",
        "fence_type": "chain_link",
        "landuse": "industrial",
        "name": "Higginsville Power Plant",
        "operator": "City of Higginsville - (MO)",
        "plant:output:electricity": "51.6 MW",
        "plant:source": "gas;oil",
        "power": "plant",
        "ref:US:EIA": "2131",
        "source": "U.S. Energy Information Administration - EIA-860 - 2021",
        "start_date": "1945-01"
      },
      "lat": 39.07356,
      "lon": -93.7143744
    },
    {
      "type": "way",
      "id": 1059932957,
      "center": {
        "lat": 38.2624203,
        "lon": -93.4056864
      },
      "tags": {
        "name": "Harry Truman Power Plant",
        "operator": "USCE-Kansas City District",
        "plant:output:electricity": "161.4 MW",
        "plant:source": "hydro",
        "power": "plant",
        "ref:US:EIA": "6141",
        "source": "U.S. Energy Information Administration - EIA-860 - 2020",
        "start_date": "1979-12",
        "wikidata": "Q11974375"
      },
      "lat": 38.2624203,
      "lon": -93.4056864
    },
    {
      "type": "way",
      "id": 1064844354,
      "center": {
        "lat": 39.1967808,
        "lon": -94.3855282
      },
      "tags": {
        "barrier": "fence",
        "plant:method": "photovoltaic",
        "plant:output:electricity": "yes",
        "plant:source": "solar",
        "power": "plant"
      },
      "lat": 39.1967808,
      "lon": -94.3855282
    },
    {
      "type": "way",
      "id": 1064844355,
      "center": {
        "lat": 39.1994163,
        "lon": -94.3855253
      },
      "tags": {
        "barrier": "fence",
        "plant:method": "photovoltaic",
        "plant:output:electricity": "yes",
        "plant:source": "solar",
        "power": "plant"
      },
      "lat": 39.1994163,
      "lon": -94.3855253
    },
    {
      "type": "way",
      "id": 1064844356,
      "center": {
        "lat": 39.1950281,
        "lon": -94.3855325
      },
      "tags": {
        "barrier": "fence",
        "plant:method": "photovoltaic",
        "plant:output:electricity": "yes",
        "plant:source": "solar",
        "power": "plant"
      },
      "lat": 39.1950281,
      "lon": -94.3855325
    },
    {
      "type": "way",
      "id": 1064844363,
      "center": {
        "lat": 39.1996431,
        "lon": -94.3912762
      },
      "tags": {
        "barrier": "fence",
        "plant:method": "photovoltaic",
        "plant:output:electricity": "yes",
        "plant:source": "solar",
        "power": "plant"
      },
      "lat": 39.1996431,
      "lon": -94.3912762
    },
    {
      "type": "way",
      "id": 1065975056,
      "center": {
        "lat": 37.856428,
        "lon": -94.3778081
      },
      "tags": {
        "landuse": "industrial",
        "name": "Nevada Generating Station",
        "operator": "Evergy",
        "operator:wikidata": "Q7987107",
        "plant:method": "combustion",
        "plant:output:electricity": "22 MW",
        "plant:source": "oil",
        "power": "plant",
        "ref:US:EIA": "2090",
        "source": "U.S. Energy Information Administration - EIA-860 - 2021",
        "start_date": "1974-06"
      },
      "lat": 37.856428,
      "lon": -94.3778081
    },
    {
      "type": "way",
      "id": 1083902300,
      "center": {
        "lat": 38.2645316,
        "lon": -94.3441071
      },
      "tags": {
        "name": "Butler Municipal Power Plant",
        "operator": "City of Butler - (MO)",
        "plant:output:electricity": "10.9 MW",
        "plant:source": "oil",
        "power": "plant",
        "ref:US:EIA": "2115",
        "source": "U.S. Energy Information Administration - EIA-860 - 2021",
        "start_date": "1946-06"
      },
      "lat": 38.2645316,
      "lon": -94.3441071
    },
    {
      "type": "way",
      "id": 1083902308,
      "center": {
        "lat": 37.1764322,
        "lon": -94.2994226
      },
      "tags": {
        "landuse": "industrial",
        "name": "Carthage Power Plant",
        "operator": "City of Carthage - (MO)",
        "plant:method": "combustion",
        "plant:output:electricity": "41.8 MW",
        "plant:source": "oil",
        "power": "plant",
        "ref:US:EIA": "2121",
        "source": "U.S. Energy Information Administration - EIA-860 - 2021",
        "start_date": "1946-07"
      },
      "lat": 37.1764322,
      "lon": -94.2994226
    },
    {
      "type": "way",
      "id": 1083902312,
      "center": {
        "lat": 37.6941035,
        "lon": -93.7693472
      },
      "tags": {
        "name": "Stockton Hydro",
        "operator": "USCE-Kansas City District",
        "plant:output:electricity": "52 MW",
        "plant:source": "hydro",
        "power": "plant",
        "ref:US:EIA": "2124",
        "source": "U.S. Energy Information Administration - EIA-860 - 2021",
        "start_date": "1973-03"
      },
      "lat": 37.6941035,
      "lon": -93.7693472
    },
    {
      "type": "way",
      "id": 1085229099,
      "center": {
        "lat": 39.1067417,
        "lon": -94.3803612
      },
      "tags": {
        "landuse": "industrial",
        "name": "Station H Power Plant",
        "operator": "City of Independence - (MO)",
        "plant:method": "combustion",
        "plant:output:electricity": "43 MW",
        "plant:source": "gas",
        "power": "plant",
        "ref:US:EIA": "2135",
        "source": "U.S. Energy Information Administration - EIA-860 - 2021",
        "start_date": "1972-06"
      },
      "lat": 39.1067417,
      "lon": -94.3803612
    },
    {
      "type": "way",
      "id": 1085229100,
      "center": {
        "lat": 39.0560036,
        "lon": -94.3932136
      },
      "tags": {
        "landuse": "industrial",
        "name": "Station I Power Plant",
        "operator": "Independence Power and Light",
        "plant:method": "combustion",
        "plant:output:electricity": "38 MW",
        "plant:source": "oil",
        "power": "plant",
        "ref:US:EIA": "2136",
        "source": "U.S. Energy Information Administration - EIA-860 - 2021",
        "start_date": "1972-06"
      },
      "lat": 39.0560036,
      "lon": -94.3932136
    },
    {
      "type": "way",
      "id": 1085229103,
      "center": {
        "lat": 39.0946747,
        "lon": -94.4114888
      },
      "tags": {
        "landuse": "industrial",
        "name": "Jackson Square Power Plant",
        "operator": "City of Independence - (MO)",
        "plant:method": "combustion",
        "plant:output:electricity": "36 MW",
        "plant:source": "oil",
        "power": "plant",
        "ref:US:EIA": "2134",
        "source": "U.S. Energy Information Administration - EIA-860 - 2021",
        "start_date": "1969-06"
      },
      "lat": 39.0946747,
      "lon": -94.4114888
    },
    {
      "type": "way",
      "id": 1085229106,
      "center": {
        "lat": 39.6742364,
        "lon": -94.7752306
      },
      "tags": {
        "landuse": "industrial",
        "name": "St Joseph Landfill Generating Station",
        "operator": "Evergy",
        "operator:wikidata": "Q7987107",
        "plant:output:electricity": "1.6 MW",
        "plant:source": "biogas",
        "power": "plant",
        "ref:US:EIA": "58024",
        "source": "U.S. Energy Information Administration - EIA-860 - 2021",
        "start_date": "2011-12"
      },
      "lat": 39.6742364,
      "lon": -94.7752306
    },
    {
      "type": "way",
      "id": 1085229107,
      "center": {
        "lat": 39.0401979,
        "lon": -94.5713159
      },
      "tags": {
        "landuse": "industrial",
        "name": "KCP&L SmartGrid Innovation Park",
        "operator": "Evergy",
        "operator:wikidata": "Q7987107",
        "plant:output:electricity": "1 MW",
        "plant:source": "battery",
        "power": "plant",
        "ref:US:EIA": "59772",
        "source": "U.S. Energy Information Administration - EIA-860 - 2021",
        "start_date": "2012-06"
      },
      "lat": 39.0401979,
      "lon": -94.5713159
    },
    {
      "type": "way",
      "id": 1087113187,
      "center": {
        "lat": 39.3515197,
        "lon": -93.5025691
      },
      "tags": {
        "landuse": "industrial",
        "name": "Carrollton Power Plant",
        "operator": "Carrollton Board of Public Wks",
        "plant:output:electricity": "20.6 MW",
        "plant:source": "gas;oil",
        "power": "plant",
        "ref:US:EIA": "2120",
        "source": "U.S. Energy Information Administration - EIA-860 - 2021",
        "start_date": "1941-88"
      },
      "lat": 39.3515197,
      "lon": -93.5025691
    },
    {
      "type": "way",
      "id": 1087113188,
      "center": {
        "lat": 39.524827,
        "lon": -91.6440041
      },
      "tags": {
        "name": "Clarence Cannon Power Plant",
        "operator": "USCE-St Louis District",
        "plant:output:electricity": "58 MW",
        "plant:source": "hydro",
        "power": "plant",
        "ref:US:EIA": "6140",
        "source": "U.S. Energy Information Administration - EIA-860 - 2021",
        "start_date": "1984-11",
        "wikidata": "Q65207888"
      },
      "lat": 39.524827,
      "lon": -91.6440041
    },
    {
      "type": "way",
      "id": 1087113190,
      "center": {
        "lat": 39.6974959,
        "lon": -92.0534677
      },
      "tags": {
        "name": "Shelbina Power #3",
        "operator": "City of Shelbina - (MO)",
        "plant:output:electricity": "3.6 MW",
        "plant:source": "oil",
        "power": "plant",
        "ref:US:EIA": "7860",
        "source": "U.S. Energy Information Administration - EIA-860 - 2021",
        "start_date": "2002-04"
      },
      "lat": 39.6974959,
      "lon": -92.0534677
    },
    {
      "type": "way",
      "id": 1087113192,
      "center": {
        "lat": 40.0673503,
        "lon": -93.6043229
      },
      "tags": {
        "landuse": "industrial",
        "name": "Trenton South Power Plant",
        "operator": "Trenton Municipal Utilities - (MO)",
        "plant:output:electricity": "14 MW",
        "plant:source": "oil",
        "power": "plant",
        "ref:US:EIA": "7935",
        "source": "U.S. Energy Information Administration - EIA-860 - 2021",
        "start_date": "2000-07"
      },
      "lat": 40.0673503,
      "lon": -93.6043229
    },
    {
      "type": "way",
      "id": 1087113195,
      "center": {
        "lat": 39.7830351,
        "lon": -93.564382
      },
      "tags": {
        "landuse": "industrial",
        "name": "Chillicothe Power Plant",
        "operator": "Chillicothe Municipal Utils",
        "plant:output:electricity": "90 MW",
        "plant:source": "coal;gas;oil",
        "power": "plant",
        "ref:US:EIA": "2122",
        "source": "U.S. Energy Information Administration - EIA-860 - 2021",
        "start_date": "1938-06"
      },
      "lat": 39.7830351,
      "lon": -93.564382
    },
    {
      "type": "way",
      "id": 1087790438,
      "center": {
        "lat": 37.7377345,
        "lon": -89.8807977
      },
      "tags": {
        "plant:method": "photovoltaic",
        "plant:output:electricity": "yes",
        "plant:source": "solar",
        "power": "plant"
      },
      "lat": 37.7377345,
      "lon": -89.8807977
    },
    {
      "type": "way",
      "id": 1124270958,
      "center": {
        "lat": 37.0057197,
        "lon": -94.559977
      },
      "tags": {
        "plant:method": "photovoltaic",
        "plant:output:electricity": "yes",
        "plant:source": "solar",
        "power": "plant"
      },
      "lat": 37.0057197,
      "lon": -94.559977
    },
    {
      "type": "way",
      "id": 1127563864,
      "center": {
        "lat": 39.1331107,
        "lon": -94.4861394
      },
      "tags": {
        "name": "Hawthorn Solar",
        "operator": "Evergy",
        "operator:wikidata": "Q7987107",
        "plant:method": "photovoltaic",
        "plant:output:electricity": "10 MW",
        "plant:source": "solar",
        "power": "plant",
        "ref:US:EIA": "65296",
        "start_date": "2022-12"
      },
      "lat": 39.1331107,
      "lon": -94.4861394
    },
    {
      "type": "way",
      "id": 1153054969,
      "center": {
        "lat": 38.740623,
        "lon": -90.457745
      },
      "tags": {
        "landuse": "industrial",
        "name": "Maryland Heights Renewable Energy Center",
        "operator": "Ameren Missouri",
        "operator:wikidata": "Q7885672",
        "plant:method": "combustion",
        "plant:output:electricity": "9 MW",
        "plant:source": "gas;waste",
        "plant:type": "gas_turbine",
        "power": "plant",
        "start_date": "2012"
      },
      "lat": 38.740623,
      "lon": -90.457745
    },
    {
      "type": "way",
      "id": 1153928497,
      "center": {
        "lat": 37.1278857,
        "lon": -94.4324465
      },
      "tags": {
        "barrier": "fence",
        "name": "Prosperity Solar Farm CSG",
        "operator": "Empire District Electric Co",
        "plant:method": "photovoltaic",
        "plant:output:electricity": "2.3 MW",
        "plant:source": "solar",
        "power": "plant",
        "ref:US:EIA": "64225",
        "source": "U.S. Energy Information Administration - EIA-860 - 2022",
        "start_date": "2021-03"
      },
      "lat": 37.1278857,
      "lon": -94.4324465
    },
    {
      "type": "way",
      "id": 1160082480,
      "center": {
        "lat": 38.8923415,
        "lon": -91.4237314
      },
      "tags": {
        "name": "Montgomery County Community Solar Center",
        "operator": "Union Electric Co - (MO)",
        "plant:method": "photovoltaic",
        "plant:output:electricity": "5.7 MW",
        "plant:source": "solar",
        "power": "plant",
        "ref:US:EIA": "65726",
        "source": "U.S. Energy Information Administration - EIA-860 - 2022",
        "start_date": "2022-03"
      },
      "lat": 38.8923415,
      "lon": -91.4237314
    },
    {
      "type": "way",
      "id": 1184737010,
      "center": {
        "lat": 38.9573628,
        "lon": -92.7403982
      },
      "tags": {
        "barrier": "fence",
        "plant:method": "photovoltaic",
        "plant:output:electricity": "yes",
        "plant:source": "solar",
        "power": "plant"
      },
      "lat": 38.9573628,
      "lon": -92.7403982
    },
    {
      "type": "way",
      "id": 1213653549,
      "center": {
        "lat": 36.2334667,
        "lon": -90.0520001
      },
      "tags": {
        "landuse": "industrial",
        "name": "Kennett Power Plant",
        "operator": "City of Kennett - (MO)",
        "plant:method": "combustion",
        "plant:output:electricity": "31.4 MW",
        "plant:source": "gas",
        "power": "plant",
        "ref:US:EIA": "2139",
        "source": "U.S. Energy Information Administration - EIA-860 - 2022",
        "start_date": "1942-08"
      },
      "lat": 36.2334667,
      "lon": -90.0520001
    },
    {
      "type": "way",
      "id": 1221219313,
      "center": {
        "lat": 38.9648825,
        "lon": -90.9725133
      },
      "tags": {
        "barrier": "fence",
        "plant:method": "photovoltaic",
        "plant:output:electricity": "yes",
        "plant:source": "solar",
        "power": "plant"
      },
      "lat": 38.9648825,
      "lon": -90.9725133
    },
    {
      "type": "way",
      "id": 1221596158,
      "center": {
        "lat": 38.5094647,
        "lon": -94.0889208
      },
      "tags": {
        "barrier": "fence",
        "plant:method": "photovoltaic",
        "plant:output:electricity": "yes",
        "plant:source": "solar",
        "power": "plant"
      },
      "lat": 38.5094647,
      "lon": -94.0889208
    },
    {
      "type": "way",
      "id": 1222148805,
      "center": {
        "lat": 39.0503158,
        "lon": -94.265487
      },
      "tags": {
        "plant:method": "photovoltaic",
        "plant:output:electricity": "yes",
        "plant:source": "solar",
        "power": "plant"
      },
      "lat": 39.0503158,
      "lon": -94.265487
    },
    {
      "type": "way",
      "id": 1222151518,
      "center": {
        "lat": 39.3399683,
        "lon": -94.2435623
      },
      "tags": {
        "plant:method": "photovoltaic",
        "plant:output:electricity": "yes",
        "plant:source": "solar",
        "power": "plant"
      },
      "lat": 39.3399683,
      "lon": -94.2435623
    },
    {
      "type": "way",
      "id": 1223365577,
      "center": {
        "lat": 38.6914388,
        "lon": -90.7362673
      },
      "tags": {
        "barrier": "fence",
        "plant:method": "photovoltaic",
        "plant:output:electricity": "yes",
        "plant:source": "solar",
        "power": "plant"
      },
      "lat": 38.6914388,
      "lon": -90.7362673
    },
    {
      "type": "way",
      "id": 1228764282,
      "center": {
        "lat": 37.571626,
        "lon": -90.3172641
      },
      "tags": {
        "landuse": "industrial",
        "name": "Fredericktown Energy Center",
        "operator": "Missouri Jnt Muni.Pwr Elec. Ut. Comm.",
        "plant:method": "combustion",
        "plant:output:electricity": "27.6 MW",
        "plant:source": "gas",
        "power": "plant",
        "ref:US:EIA": "57946",
        "source": "U.S. Energy Information Administration - EIA-860 - 2022",
        "start_date": "2015-06"
      },
      "lat": 37.571626,
      "lon": -90.3172641
    },
    {
      "type": "way",
      "id": 1228911027,
      "center": {
        "lat": 36.7595575,
        "lon": -90.3900995
      },
      "tags": {
        "landuse": "industrial",
        "name": "Poplar Bluff Generating Station",
        "operator": "City of Poplar Bluff - (MO)",
        "plant:method": "combustion",
        "plant:output:electricity": "34.1 MW",
        "plant:source": "gas",
        "power": "plant",
        "ref:US:EIA": "7392",
        "source": "U.S. Energy Information Administration - EIA-860 - 2022",
        "start_date": "1976-05"
      },
      "lat": 36.7595575,
      "lon": -90.3900995
    },
    {
      "type": "way",
      "id": 1238172912,
      "center": {
        "lat": 38.5967347,
        "lon": -90.2120351
      },
      "tags": {
        "fixme": "boundary",
        "landuse": "industrial",
        "name": "Anheuser-Busch St. Louis Power Plant",
        "operator": "Anheuser-Busch Inc",
        "plant:method": "combustion",
        "plant:output:electricity": "26.1 MW",
        "plant:output:hot_water": "yes",
        "plant:source": "gas",
        "power": "plant",
        "ref:US:EIA": "10430",
        "source": "U.S. Energy Information Administration - EIA-860 - 2022",
        "start_date": "1939-01"
      },
      "lat": 38.5967347,
      "lon": -90.2120351
    },
    {
      "type": "way",
      "id": 1272158064,
      "center": {
        "lat": 38.8486793,
        "lon": -94.5444528
      },
      "tags": {
        "barrier": "fence",
        "plant:method": "photovoltaic",
        "plant:output:electricity": "yes",
        "plant:source": "solar",
        "power": "plant"
      },
      "lat": 38.8486793,
      "lon": -94.5444528
    },
    {
      "type": "way",
      "id": 1274464404,
      "center": {
        "lat": 37.1578337,
        "lon": -94.4201728
      },
      "tags": {
        "plant:method": "photovoltaic",
        "plant:output:electricity": "yes",
        "plant:source": "solar",
        "power": "plant"
      },
      "lat": 37.1578337,
      "lon": -94.4201728
    },
    {
      "type": "way",
      "id": 1371022557,
      "center": {
        "lat": 37.1013079,
        "lon": -94.4525595
      },
      "tags": {
        "plant:method": "photovoltaic",
        "plant:output:electricity": "yes",
        "plant:source": "solar",
        "power": "plant"
      },
      "lat": 37.1013079,
      "lon": -94.4525595
    },
    {
      "type": "way",
      "id": 1391222117,
      "center": {
        "lat": 37.9443028,
        "lon": -90.1398142
      },
      "tags": {
        "landuse": "industrial",
        "plant:method": "photovoltaic",
        "plant:source": "solar",
        "power": "plant"
      },
      "lat": 37.9443028,
      "lon": -90.1398142
    },
    {
      "type": "way",
      "id": 1444829419,
      "center": {
        "lat": 39.2770884,
        "lon": -92.1455507
      },
      "tags": {
        "name": "Altona Solar",
        "operator": "Birch Creek Power, LLC",
        "plant:method": "photovoltaic",
        "plant:output:electricity": "30 MW",
        "plant:source": "solar",
        "power": "plant",
        "ref:US:EIA": "66628",
        "source": "U.S. Energy Information Administration - EIA-860 - 2024",
        "start_date": "2024-08"
      },
      "lat": 39.2770884,
      "lon": -92.1455507
    },
    {
      "type": "way",
      "id": 1463848469,
      "center": {
        "lat": 38.7588281,
        "lon": -90.3817043
      },
      "tags": {
        "plant:method": "photovoltaic",
        "plant:output:electricity": "yes",
        "plant:source": "solar",
        "power": "plant"
      },
      "lat": 38.7588281,
      "lon": -90.3817043
    },
    {
      "type": "way",
      "id": 1488824778,
      "center": {
        "lat": 37.1803081,
        "lon": -94.565377
      },
      "tags": {
        "plant:method": "photovoltaic",
        "plant:output:electricity": "yes",
        "plant:source": "solar",
        "power": "plant"
      },
      "lat": 37.1803081,
      "lon": -94.565377
    },
    {
      "type": "way",
      "id": 1488824779,
      "center": {
        "lat": 37.1784284,
        "lon": -94.5665996
      },
      "tags": {
        "plant:method": "photovoltaic",
        "plant:output:electricity": "yes",
        "plant:source": "solar",
        "power": "plant"
      },
      "lat": 37.1784284,
      "lon": -94.5665996
    },
    {
      "type": "relation",
      "id": 13473553,
      "center": {
        "lat": 39.1162993,
        "lon": -94.2891098
      },
      "tags": {
        "name": "Bundschu 2 Solar Farm",
        "operator": "Independence Power and Light",
        "plant:method": "photovoltaic",
        "plant:output:electricity": "yes;4.4 MW",
        "plant:source": "solar",
        "power": "plant",
        "ref:US:EIA": "61092",
        "start_date": "2018-06-14",
        "type": "multipolygon"
      },
      "lat": 39.1162993,
      "lon": -94.2891098
    },
    {
      "type": "relation",
      "id": 13671390,
      "center": {
        "lat": 39.9892971,
        "lon": -94.5091578
      },
      "tags": {
        "name": "Lost Creek Wind Energy Facility",
        "operator": "Pattern Operators LP",
        "plant:method": "wind_turbine",
        "plant:output:electricity": "150 MW",
        "plant:source": "wind",
        "power": "plant",
        "ref:US:EIA": "57189",
        "site": "wind_farm",
        "source": "U.S. Energy Information Administration - EIA-860 - 2020",
        "start_date": "2010-05",
        "type": "site"
      },
      "lat": 39.9892971,
      "lon": -94.5091578
    },
    {
      "type": "relation",
      "id": 13671511,
      "center": {
        "lat": 40.0896582,
        "lon": -94.4942435
      },
      "tags": {
        "name": "Bluegrass Ridge wind farm",
        "operator": "Wind Capital Holdings, LLC",
        "plant:method": "wind_turbine",
        "plant:output:electricity": "56.7 MW",
        "plant:source": "wind",
        "power": "plant",
        "ref:US:EIA": "56555",
        "source": "U.S. Energy Information Administration - EIA-860 - 2020",
        "start_date": "2007-06",
        "type": "site"
      },
      "lat": 40.0896582,
      "lon": -94.4942435
    },
    {
      "type": "relation",
      "id": 13671663,
      "center": {
        "lat": 39.8420348,
        "lon": -94.4513337
      },
      "tags": {
        "name": "Osborn Wind Energy",
        "operator": "NextEra Energy",
        "operator:wikidata": "Q967868",
        "operator:wikipedia": "en:NextEra Energy",
        "plant:method": "wind_turbine",
        "plant:output:electricity": "200.9 MW",
        "plant:source": "wind",
        "power": "plant",
        "ref:US:EIA": "60672",
        "site": "wind_farm",
        "source": "U.S. Energy Information Administration - EIA-860 - 2020",
        "start_date": "2016-12",
        "type": "site"
      },
      "lat": 39.8420348,
      "lon": -94.4513337
    },
    {
      "type": "relation",
      "id": 13675430,
      "center": {
        "lat": 40.4448422,
        "lon": -95.2435684
      },
      "tags": {
        "name": "Rock Creek Wind Project",
        "operator": "Enel Green Power NA, Inc.",
        "plant:method": "wind_turbine",
        "plant:output:electricity": "300 MW",
        "plant:source": "wind",
        "power": "plant",
        "ref:US:EIA": "60655",
        "site": "wind_farm",
        "source": "U.S. Energy Information Administration - EIA-860 - 2020",
        "start_date": "2017-11",
        "type": "site"
      },
      "lat": 40.4448422,
      "lon": -95.2435684
    },
    {
      "type": "relation",
      "id": 13675472,
      "center": {
        "lat": 40.5531455,
        "lon": -95.4547358
      },
      "tags": {
        "name": "Farmers City wind farm",
        "operator": "Avangrid Renewables LLC",
        "plant:method": "wind_turbine",
        "plant:output:electricity": "146 MW",
        "plant:source": "wind",
        "power": "plant",
        "ref:US:EIA": "56767",
        "site": "wind_farm",
        "source": "U.S. Energy Information Administration - EIA-860 - 2020",
        "start_date": "2009-04",
        "type": "site"
      },
      "lat": 40.5531455,
      "lon": -95.4547358
    },
    {
      "type": "relation",
      "id": 14126680,
      "center": {
        "lat": 40.22121,
        "lon": -94.6757386
      },
      "tags": {
        "name": "Conception Wind Farm",
        "operator": "CR Clearing, LLC",
        "plant:method": "wind_turbine",
        "plant:output:electricity": "50.4 MW",
        "plant:source": "wind",
        "power": "plant",
        "ref:US:EIA": "56537",
        "source": "U.S. Energy Information Administration - EIA-860 - 2020",
        "start_date": "2008-04",
        "type": "site"
      },
      "lat": 40.22121,
      "lon": -94.6757386
    },
    {
      "type": "relation",
      "id": 14126683,
      "center": {
        "lat": 40.45313,
        "lon": -95.4679679
      },
      "tags": {
        "name": "Cow Branch Wind Power",
        "operator": "Cow Branch Wind Power, LLC",
        "plant:method": "wind_turbine",
        "plant:output:electricity": "50.4 MW",
        "plant:source": "wind",
        "power": "plant",
        "ref:US:EIA": "56536",
        "source": "U.S. Energy Information Administration - EIA-860 - 2020",
        "start_date": "2008-04",
        "type": "site"
      },
      "lat": 40.45313,
      "lon": -95.4679679
    },
    {
      "type": "relation",
      "id": 14126684,
      "center": {
        "lat": 40.2409143,
        "lon": -94.972972
      },
      "tags": {
        "name": "White Cloud Wind Project",
        "operator": "White Cloud Wind Project, LLC",
        "plant:method": "wind_turbine",
        "plant:output:electricity": "236.5 MW",
        "plant:source": "wind",
        "power": "plant",
        "ref:US:EIA": "62624",
        "source": "U.S. Energy Information Administration - EIA-860 - 2020",
        "start_date": "2020-12",
        "type": "site"
      },
      "lat": 40.2409143,
      "lon": -94.972972
    },
    {
      "type": "relation",
      "id": 14126685,
      "center": {
        "lat": 40.4111172,
        "lon": -95.5375583
      },
      "tags": {
        "name": "Loess Hills Wind Farm",
        "operator": "Loess Hills Wind Farm LLC",
        "plant:method": "wind_turbine",
        "plant:output:electricity": "5 MW",
        "plant:source": "wind",
        "power": "plant",
        "ref:US:EIA": "56538",
        "source": "U.S. Energy Information Administration - EIA-860 - 2020",
        "start_date": "2008-02",
        "type": "site"
      },
      "lat": 40.4111172,
      "lon": -95.5375583
    },
    {
      "type": "relation",
      "id": 14126686,
      "center": {
        "lat": 40.484465,
        "lon": -94.9229371
      },
      "tags": {
        "name": "Clear Creek Wind",
        "operator": "Clear Creek Wind, LLC",
        "plant:method": "wind_turbine",
        "plant:output:electricity": "242 MW",
        "plant:source": "wind",
        "power": "plant",
        "ref:US:EIA": "63025",
        "source": "U.S. Energy Information Administration - EIA-860 - 2020",
        "start_date": "2020-05",
        "type": "site"
      },
      "lat": 40.484465,
      "lon": -94.9229371
    },
    {
      "type": "relation",
      "id": 14151910,
      "center": {
        "lat": 40.3715462,
        "lon": -92.4537036
      },
      "tags": {
        "name": "High Prairie Wind Farm",
        "operator": "Ameren",
        "plant:method": "wind_turbine",
        "plant:output:electricity": "400 MW",
        "plant:source": "wind",
        "power": "plant",
        "ref:US:EIA": "62563",
        "source": "U.S. Energy Information Administration - EIA-860 - 2020",
        "start_date": "2020-12",
        "type": "site"
      },
      "lat": 40.3715462,
      "lon": -92.4537036
    },
    {
      "type": "relation",
      "id": 14159707,
      "center": {
        "lat": 37.4163619,
        "lon": -94.4791
      },
      "tags": {
        "name": "North Fork Ridge Wind Energy Center",
        "operator": "Empire District Electric Co",
        "plant:method": "wind_turbine",
        "plant:output:electricity": "149.4 MW",
        "plant:source": "wind",
        "power": "plant",
        "ref:US:EIA": "62478",
        "source": "U.S. Energy Information Administration - EIA-860 - 2020",
        "start_date": "2020-12",
        "type": "site"
      },
      "lat": 37.4163619,
      "lon": -94.4791
    },
    {
      "type": "relation",
      "id": 14444236,
      "center": {
        "lat": 39.1120903,
        "lon": -94.5812301
      },
      "tags": {
        "addr:city": "Kansas City",
        "addr:housenumber": "115",
        "addr:postcode": "64106",
        "addr:state": "MO",
        "addr:street": "Grand Boulevard",
        "description": "Gas-fired (formerly coal-fired) steam plant for district heating. Also produces chilled water and a small amount (2 MW) of electricity.",
        "industrial": "heating_station",
        "landuse": "industrial",
        "name": "Grand Avenue Plant",
        "operator": "Veolia Energy",
        "plant:method": "combustion",
        "plant:output:electricity": "5 MW",
        "plant:output:hot_water": "yes",
        "plant:source": "gas",
        "power": "plant",
        "ref:US:EIA": "58205",
        "source": "U.S. Energy Information Administration - EIA-860 - 2021",
        "start_date": "1991-07",
        "type": "multipolygon"
      },
      "lat": 39.1120903,
      "lon": -94.5812301
    },
    {
      "type": "relation",
      "id": 14471268,
      "center": {
        "lat": 38.9565552,
        "lon": -92.2427506
      },
      "tags": {
        "name": "Truman Solar",
        "operator": "Truman Solar, LLC",
        "plant:method": "photovoltaic",
        "plant:output:electricity": "10 MW",
        "plant:source": "solar",
        "power": "plant",
        "ref:US:EIA": "65230",
        "source": "U.S. Energy Information Administration - EIA-860 - 2021",
        "start_date": "2021-06",
        "type": "multipolygon"
      },
      "lat": 38.9565552,
      "lon": -92.2427506
    },
    {
      "type": "relation",
      "id": 14712140,
      "center": {
        "lat": 40.5199492,
        "lon": -95.3895128
      },
      "tags": {
        "name": "Atchison County Wind",
        "operator": "Ameren",
        "plant:method": "wind_turbine",
        "plant:output:electricity": "299 MW",
        "plant:source": "wind",
        "power": "plant",
        "ref:US:EIA": "63574",
        "source": "U.S. Energy Information Administration - EIA-860 - 2021",
        "start_date": "2021-03",
        "type": "site"
      },
      "lat": 40.5199492,
      "lon": -95.3895128
    },
    {
      "type": "relation",
      "id": 14712177,
      "center": {
        "lat": 37.287189,
        "lon": -94.033742
      },
      "tags": {
        "name": "Kings Point Wind Energy Center",
        "operator": "Empire District Electric Co",
        "plant:method": "wind_turbine",
        "plant:output:electricity": "149.4 MW",
        "plant:source": "wind",
        "power": "plant",
        "ref:US:EIA": "62475",
        "source": "U.S. Energy Information Administration - EIA-860 - 2021",
        "start_date": "2021-04",
        "type": "site"
      },
      "lat": 37.287189,
      "lon": -94.033742
    },
    {
      "type": "relation",
      "id": 15687614,
      "center": {
        "lat": 36.7848995,
        "lon": -91.8712517
      },
      "tags": {
        "name": "West Plains Solar I",
        "operator": "Evergy, Inc.",
        "plant:method": "photovoltaic",
        "plant:output:electricity": "8 MW",
        "plant:source": "solar",
        "power": "plant",
        "ref:US:EIA": "64982",
        "source": "U.S. Energy Information Administration - EIA-860 - 2022",
        "start_date": "2022-03",
        "type": "multipolygon"
      },
      "lat": 36.7848995,
      "lon": -91.8712517
    },
    {
      "type": "relation",
      "id": 15721999,
      "center": {
        "lat": 37.3198236,
        "lon": -89.5255724
      },
      "tags": {
        "name": "Cape Girardeau Renewable Energy Center",
        "operator": "Union Electric Co - (MO)",
        "plant:method": "photovoltaic",
        "plant:output:electricity": "1.2 MW",
        "plant:source": "solar",
        "power": "plant",
        "ref:US:EIA": "66159",
        "source": "U.S. Energy Information Administration - EIA-860 - 2022",
        "start_date": "2021-11",
        "type": "multipolygon"
      },
      "lat": 37.3198236,
      "lon": -89.5255724
    },
    {
      "type": "relation",
      "id": 19755679,
      "center": {
        "lat": 40.1315877,
        "lon": -92.5571163
      },
      "tags": {
        "name": "Morris Solar",
        "operator": "AES",
        "plant:method": "photovoltaic",
        "plant:output:electricity": "yes",
        "plant:source": "solar",
        "power": "plant",
        "type": "multipolygon",
        "website": "https://www.aes.com/energy-projects/morris-solar-project"
      },
      "lat": 40.1315877,
      "lon": -92.5571163
    },
    {
      "type": "relation",
      "id": 19755749,
      "center": {
        "lat": 39.3187636,
        "lon": -91.5520365
      },
      "tags": {
        "name": "Huck Finn Renewable Energy Center",
        "operator": "Union Electric Co - (MO)",
        "operator:wikidata": "Q7885672",
        "plant:method": "photovoltaic",
        "plant:output:electricity": "200 MW",
        "plant:source": "solar",
        "power": "plant",
        "ref:US:EIA": "68644",
        "source": "U.S. Energy Information Administration - EIA-860 - 2024",
        "start_date": "2024-12",
        "type": "multipolygon"
      },
      "lat": 39.3187636,
      "lon": -91.5520365
    },
    {
      "type": "relation",
      "id": 19755763,
      "center": {
        "lat": 38.9172722,
        "lon": -91.1465494
      },
      "tags": {
        "name": "Blue Bird Solar",
        "operator": "Blue Bird Solar, LLC",
        "plant:method": "photovoltaic",
        "plant:output:electricity": "139 MW",
        "plant:source": "solar",
        "power": "plant",
        "ref:US:EIA": "66747",
        "source": "U.S. Energy Information Administration - EIA-860 - 2024",
        "start_date": "2024-12",
        "type": "multipolygon"
      },
      "lat": 38.9172722,
      "lon": -91.1465494
    },
    {
      "type": "relation",
      "id": 19755770,
      "center": {
        "lat": 39.7570666,
        "lon": -94.0144634
      },
      "tags": {
        "name": "Adelite Solar",
        "operator": "Birch Creek Development",
        "plant:method": "photovoltaic",
        "plant:output:electricity": "yes",
        "plant:source": "solar",
        "power": "plant",
        "ref:US:EIA": "68927",
        "source": "U.S. Energy Information Administration - EIA-860 - 2024",
        "type": "multipolygon"
      },
      "lat": 39.7570666,
      "lon": -94.0144634
    },
    {
      "type": "relation",
      "id": 19756225,
      "center": {
        "lat": 39.1559068,
        "lon": -91.8487735
      },
      "tags": {
        "name": "Envoy Solar",
        "operator": "Birch Creek Power, LLC",
        "plant:method": "photovoltaic",
        "plant:output:electricity": "50 MW",
        "plant:source": "solar",
        "power": "plant",
        "ref:US:EIA": "66629",
        "source": "U.S. Energy Information Administration - EIA-860 - 2024",
        "type": "multipolygon"
      },
      "lat": 39.1559068,
      "lon": -91.8487735
    },
    {
      "type": "relation",
      "id": 20188459,
      "center": {
        "lat": 37.0406357,
        "lon": -89.5448781
      },
      "tags": {
        "name": "Kelso Solar",
        "operator": "Kelso Solar, LLC",
        "plant:method": "photovoltaic",
        "plant:output:electricity": "200 MW",
        "plant:source": "solar",
        "power": "plant",
        "ref:US:EIA": "69319",
        "start_date": "2025-12",
        "type": "multipolygon"
      },
      "lat": 37.0406357,
      "lon": -89.5448781
    }
  ]
}
