{
  "version": 0.6,
  "generator": "Overpass API 0.7.62.11 87bfad18",
  "osm3s": {
    "timestamp_osm_base": "2026-04-24T18:15:17Z",
    "timestamp_areas_base": "2026-04-24T09:42:59Z",
    "copyright": "The data included in this document is from www.openstreetmap.org. The data is made available under ODbL."
  },
  "elements": [
    {
      "type": "node",
      "id": 4854203553,
      "lat": 38.5424336,
      "lon": -90.9749217,
      "tags": {
        "man_made": "street_cabinet",
        "operator": "Ameren",
        "operator:wikidata": "Q462984",
        "power": "substation",
        "street_cabinet": "power",
        "substation": "minor_distribution"
      }
    },
    {
      "type": "node",
      "id": 13334253004,
      "lat": 38.5229259,
      "lon": -90.4873992,
      "tags": {
        "power": "substation"
      }
    },
    {
      "type": "node",
      "id": 13415903590,
      "lat": 37.5637711,
      "lon": -90.2999293,
      "tags": {
        "power": "substation"
      }
    },
    {
      "type": "way",
      "id": 23548405,
      "center": {
        "lat": 39.1511515,
        "lon": -94.5492463
      },
      "tags": {
        "barrier": "fence",
        "name": "Avondale Substation",
        "operator": "Evergy",
        "operator:wikidata": "Q7987107",
        "operator:wikipedia": "en:Evergy",
        "power": "substation",
        "source": "Yahoo",
        "substation": "distribution",
        "voltage": "161000;13000"
      },
      "lat": 39.1511515,
      "lon": -94.5492463
    },
    {
      "type": "way",
      "id": 28625424,
      "center": {
        "lat": 38.4034101,
        "lon": -90.3354442
      },
      "tags": {
        "name": "Meremac Substation",
        "operator": "Ameren Missouri",
        "operator:wikidata": "Q7885672",
        "power": "substation",
        "substation": "generation",
        "voltage": "138000"
      },
      "lat": 38.4034101,
      "lon": -90.3354442
    },
    {
      "type": "way",
      "id": 29221607,
      "center": {
        "lat": 37.0499846,
        "lon": -94.1265051
      },
      "tags": {
        "power": "substation"
      },
      "lat": 37.0499846,
      "lon": -94.1265051
    },
    {
      "type": "way",
      "id": 34638672,
      "center": {
        "lat": 37.1141104,
        "lon": -92.5962016
      },
      "tags": {
        "power": "substation",
        "source": "TIGER/Line\u00ae 2008 Place Shapefiles (http://www.census.gov/geo/www/tiger/)",
        "substation": "distribution",
        "voltage": "161000;69000"
      },
      "lat": 37.1141104,
      "lon": -92.5962016
    },
    {
      "type": "way",
      "id": 36530845,
      "center": {
        "lat": 39.1532286,
        "lon": -94.494501
      },
      "tags": {
        "barrier": "fence",
        "name": "Randolph Substation",
        "operator": "Evergy",
        "operator:wikidata": "Q7987107",
        "operator:wikipedia": "en:Evergy",
        "power": "substation",
        "source": "Yahoo",
        "substation": "distribution",
        "voltage": "161000"
      },
      "lat": 39.1532286,
      "lon": -94.494501
    },
    {
      "type": "way",
      "id": 37573317,
      "center": {
        "lat": 39.1116758,
        "lon": -94.5833519
      },
      "tags": {
        "addr:city": "Kansas City",
        "addr:housenumber": "115",
        "addr:postcode": "64106",
        "addr:state": "MO",
        "addr:street": "Main Street",
        "barrier": "fence",
        "name": "Navy Substation",
        "operator": "Evergy",
        "operator:wikidata": "Q7987107",
        "operator:wikipedia": "en:Evergy",
        "power": "substation",
        "ref": "17",
        "source": "Yahoo",
        "substation": "distribution",
        "voltage": "161000;13000"
      },
      "lat": 39.1116758,
      "lon": -94.5833519
    },
    {
      "type": "way",
      "id": 37573443,
      "center": {
        "lat": 39.1114986,
        "lon": -94.5815502
      },
      "tags": {
        "name": "Grand Avenue West Substation",
        "operator": "Evergy",
        "operator:wikidata": "Q7987107",
        "operator:wikipedia": "en:Evergy",
        "power": "substation",
        "ref": "15W",
        "source": "Yahoo",
        "substation": "distribution",
        "voltage": "161000;13000"
      },
      "lat": 39.1114986,
      "lon": -94.5815502
    },
    {
      "type": "way",
      "id": 50823589,
      "center": {
        "lat": 37.9517541,
        "lon": -92.0300999
      },
      "tags": {
        "barrier": "fence",
        "name": "Franks Substation",
        "operator": "Associated Electric Cooperative",
        "power": "substation",
        "source": "Yahoo",
        "substation": "transmission",
        "voltage": "345000;161000"
      },
      "lat": 37.9517541,
      "lon": -92.0300999
    },
    {
      "type": "way",
      "id": 51067194,
      "center": {
        "lat": 39.1685286,
        "lon": -94.6220397
      },
      "tags": {
        "name": "Riverside Substation",
        "operator": "Evergy",
        "operator:wikidata": "Q7987107",
        "operator:wikipedia": "en:Evergy",
        "power": "substation",
        "source": "Bing",
        "substation": "distribution",
        "voltage": "161000;13000"
      },
      "lat": 39.1685286,
      "lon": -94.6220397
    },
    {
      "type": "way",
      "id": 51068535,
      "center": {
        "lat": 39.0485958,
        "lon": -94.4973258
      },
      "tags": {
        "barrier": "fence",
        "name": "Leeds Substation",
        "operator": "Evergy",
        "operator:wikidata": "Q7987107",
        "operator:wikipedia": "en:Evergy",
        "power": "substation",
        "source": "Bing",
        "substation": "distribution",
        "voltage": "161000;13000"
      },
      "lat": 39.0485958,
      "lon": -94.4973258
    },
    {
      "type": "way",
      "id": 54928159,
      "center": {
        "lat": 37.0983502,
        "lon": -94.4229235
      },
      "tags": {
        "power": "substation",
        "voltage": "161000"
      },
      "lat": 37.0983502,
      "lon": -94.4229235
    },
    {
      "type": "way",
      "id": 60038726,
      "center": {
        "lat": 38.7587784,
        "lon": -91.7844901
      },
      "tags": {
        "barrier": "fence",
        "frequency": "60",
        "name": "Callaway Substation",
        "operator": "Ameren",
        "operator:wikidata": "Q462984",
        "power": "substation",
        "substation": "transmission",
        "voltage": "345000"
      },
      "lat": 38.7587784,
      "lon": -91.7844901
    },
    {
      "type": "way",
      "id": 60492277,
      "center": {
        "lat": 39.4073183,
        "lon": -92.8508075
      },
      "tags": {
        "barrier": "fence",
        "name": "Salisbury Substation",
        "operator": "Evergy",
        "operator:wikidata": "Q7987107",
        "power": "substation",
        "source": "Yahoo",
        "substation": "distribution",
        "voltage": "161000;34500;13000"
      },
      "lat": 39.4073183,
      "lon": -92.8508075
    },
    {
      "type": "way",
      "id": 60692452,
      "center": {
        "lat": 39.5447887,
        "lon": -92.6408791
      },
      "tags": {
        "barrier": "fence",
        "frequency": "60",
        "name": "Thomas Hill 345kV Substation",
        "operator": "Ameren",
        "operator:wikidata": "Q462984",
        "power": "substation",
        "substation": "transmission",
        "voltage": "345000;161000"
      },
      "lat": 39.5447887,
      "lon": -92.6408791
    },
    {
      "type": "way",
      "id": 60692458,
      "center": {
        "lat": 39.5480522,
        "lon": -92.6391576
      },
      "tags": {
        "barrier": "fence",
        "frequency": "60",
        "name": "Thomas Hill 161kV Substation",
        "operator": "Ameren",
        "operator:wikidata": "Q462984",
        "power": "substation",
        "substation": "transmission",
        "voltage": "161000;69000"
      },
      "lat": 39.5480522,
      "lon": -92.6391576
    },
    {
      "type": "way",
      "id": 60965511,
      "center": {
        "lat": 39.5118016,
        "lon": -92.4094362
      },
      "tags": {
        "barrier": "fence",
        "power": "substation",
        "source": "Yahoo",
        "voltage": "69000"
      },
      "lat": 39.5118016,
      "lon": -92.4094362
    },
    {
      "type": "way",
      "id": 62249702,
      "center": {
        "lat": 38.9386211,
        "lon": -94.0588495
      },
      "tags": {
        "barrier": "fence",
        "frequency": "60",
        "location": "outdoor",
        "operator": "Central Electric Power Co-Op",
        "power": "substation",
        "substation": "distribution",
        "voltage": "69000"
      },
      "lat": 38.9386211,
      "lon": -94.0588495
    },
    {
      "type": "way",
      "id": 62249783,
      "center": {
        "lat": 38.9959003,
        "lon": -94.0868248
      },
      "tags": {
        "barrier": "fence",
        "frequency": "60",
        "location": "outdoor",
        "name": "Pittsville Substation",
        "operator": "NW Power Coop",
        "power": "substation",
        "substation": "distribution",
        "voltage": "161000;69000"
      },
      "lat": 38.9959003,
      "lon": -94.0868248
    },
    {
      "type": "way",
      "id": 62249850,
      "center": {
        "lat": 39.0617106,
        "lon": -94.1293134
      },
      "tags": {
        "barrier": "fence",
        "frequency": "60",
        "location": "outdoor",
        "operator": "Central Electric Power Co-Op",
        "power": "substation",
        "substation": "distribution",
        "voltage": "161000;12000"
      },
      "lat": 39.0617106,
      "lon": -94.1293134
    },
    {
      "type": "way",
      "id": 62250593,
      "center": {
        "lat": 39.1692352,
        "lon": -94.1643538
      },
      "tags": {
        "barrier": "fence",
        "name": "Sibley Substation",
        "operator": "Evergy",
        "operator:wikidata": "Q7987107",
        "operator:wikipedia": "en:Evergy",
        "power": "substation",
        "source": "Yahoo",
        "substation": "transmission",
        "voltage": "345000;161000"
      },
      "lat": 39.1692352,
      "lon": -94.1643538
    },
    {
      "type": "way",
      "id": 62250933,
      "center": {
        "lat": 38.7963601,
        "lon": -94.300465
      },
      "tags": {
        "barrier": "fence",
        "frequency": "60",
        "name": "Pleasant Hill Substation",
        "operator": "Evergy",
        "operator:wikidata": "Q7987107",
        "operator:wikipedia": "en:Evergy",
        "power": "substation",
        "source": "Yahoo",
        "substation": "generation",
        "voltage": "345000;161000;69000"
      },
      "lat": 38.7963601,
      "lon": -94.300465
    },
    {
      "type": "way",
      "id": 64743870,
      "center": {
        "lat": 39.2036629,
        "lon": -94.1187003
      },
      "tags": {
        "barrier": "fence",
        "operator": "Evergy",
        "operator:wikidata": "Q7987107",
        "power": "substation",
        "substation": "distribution",
        "voltage": "161000"
      },
      "lat": 39.2036629,
      "lon": -94.1187003
    },
    {
      "type": "way",
      "id": 65199610,
      "center": {
        "lat": 39.1767948,
        "lon": -94.1846491
      },
      "tags": {
        "barrier": "fence",
        "frequency": "60",
        "location": "outdoor",
        "name": "Sibley Plant Substation",
        "operator": "Evergy",
        "operator:wikidata": "Q7987107",
        "power": "substation",
        "source": "bing",
        "substation": "transmission",
        "voltage": "161000;69000;12000"
      },
      "lat": 39.1767948,
      "lon": -94.1846491
    },
    {
      "type": "way",
      "id": 65544152,
      "center": {
        "lat": 39.0148766,
        "lon": -94.3231867
      },
      "tags": {
        "barrier": "fence",
        "name": "Blue Springs West Substation",
        "operator": "Evergy",
        "operator:wikidata": "Q7987107",
        "power": "substation",
        "source": "Yahoo",
        "substation": "distribution",
        "voltage": "161000;12000"
      },
      "lat": 39.0148766,
      "lon": -94.3231867
    },
    {
      "type": "way",
      "id": 65706676,
      "center": {
        "lat": 38.9456423,
        "lon": -94.5275473
      },
      "tags": {
        "barrier": "fence",
        "frequency": "60",
        "location": "outdoor",
        "name": "Bunker Ridge Substation",
        "operator": "Evergy",
        "operator:wikidata": "Q7987107",
        "operator:wikipedia": "en:Evergy",
        "power": "substation",
        "source": "Bing",
        "substation": "distribution",
        "voltage": "161000;13000"
      },
      "lat": 38.9456423,
      "lon": -94.5275473
    },
    {
      "type": "way",
      "id": 66905466,
      "center": {
        "lat": 39.2320081,
        "lon": -94.3091993
      },
      "tags": {
        "barrier": "fence",
        "frequency": "60",
        "location": "outdoor",
        "name": "Missouri City Substation",
        "operator": "NW Electric Power Cooperative",
        "power": "substation",
        "source": "Yahoo",
        "substation": "transmission",
        "voltage": "161000;69000"
      },
      "lat": 39.2320081,
      "lon": -94.3091993
    },
    {
      "type": "way",
      "id": 66965729,
      "center": {
        "lat": 39.1712553,
        "lon": -94.2414922
      },
      "tags": {
        "barrier": "fence",
        "name": "Eckles Road Substation",
        "operator": "Independence Power & Light",
        "operator:wikidata": "Q115691558",
        "power": "substation",
        "source": "Yahoo",
        "voltage": "161000"
      },
      "lat": 39.1712553,
      "lon": -94.2414922
    },
    {
      "type": "way",
      "id": 69364052,
      "center": {
        "lat": 38.8783049,
        "lon": -94.580786
      },
      "tags": {
        "barrier": "fence",
        "name": "Martin City East Substation",
        "operator": "Evergy",
        "operator:wikidata": "Q7987107",
        "operator:wikipedia": "en:Evergy",
        "power": "substation",
        "source": "Yahoo",
        "substation": "distribution",
        "voltage": "161000;69000"
      },
      "lat": 38.8783049,
      "lon": -94.580786
    },
    {
      "type": "way",
      "id": 70008307,
      "center": {
        "lat": 38.9160706,
        "lon": -94.5339989
      },
      "tags": {
        "barrier": "fence",
        "name": "Hickman Substation",
        "operator": "Evergy",
        "operator:wikidata": "Q7987107",
        "operator:wikipedia": "en:Evergy",
        "power": "substation",
        "source": "Yahoo",
        "substation": "distribution",
        "voltage": "161000;13000"
      },
      "lat": 38.9160706,
      "lon": -94.5339989
    },
    {
      "type": "way",
      "id": 71338072,
      "center": {
        "lat": 37.1392406,
        "lon": -94.3052625
      },
      "tags": {
        "power": "substation",
        "substation": "distribution",
        "voltage": "161000;69000"
      },
      "lat": 37.1392406,
      "lon": -94.3052625
    },
    {
      "type": "way",
      "id": 71881721,
      "center": {
        "lat": 39.0445111,
        "lon": -94.448251
      },
      "tags": {
        "name": "Blue Ridge Mall",
        "operator": "Evergy",
        "operator:wikidata": "Q7987107",
        "power": "substation",
        "source": "Yahoo",
        "substation": "distribution",
        "voltage": "69000"
      },
      "lat": 39.0445111,
      "lon": -94.448251
    },
    {
      "type": "way",
      "id": 74145181,
      "center": {
        "lat": 39.1255794,
        "lon": -94.5770543
      },
      "tags": {
        "barrier": "fence",
        "name": "North Kansas City Substation",
        "operator": "Evergy",
        "operator:wikidata": "Q7987107",
        "operator:wikipedia": "en:Evergy",
        "power": "substation",
        "source": "Yahoo",
        "substation": "distribution",
        "voltage": "161000;13000"
      },
      "lat": 39.1255794,
      "lon": -94.5770543
    },
    {
      "type": "way",
      "id": 90714066,
      "center": {
        "lat": 39.2772268,
        "lon": -94.6473602
      },
      "tags": {
        "barrier": "fence",
        "name": "Roanridge Substation",
        "operator": "Evergy",
        "operator:wikidata": "Q7987107",
        "power": "substation",
        "source": "Bing",
        "substation": "transmission",
        "voltage": "161000;69000"
      },
      "lat": 39.2772268,
      "lon": -94.6473602
    },
    {
      "type": "way",
      "id": 90714080,
      "center": {
        "lat": 39.2605189,
        "lon": -94.6665669
      },
      "tags": {
        "barrier": "fence",
        "name": "Tiffany Substation",
        "operator": "Evergy",
        "operator:wikidata": "Q7987107",
        "operator:wikipedia": "en:Evergy",
        "power": "substation",
        "source": "Bing",
        "substation": "distribution",
        "voltage": "161000;13000"
      },
      "lat": 39.2605189,
      "lon": -94.6665669
    },
    {
      "type": "way",
      "id": 90714106,
      "center": {
        "lat": 39.2126982,
        "lon": -94.6898446
      },
      "tags": {
        "barrier": "fence",
        "name": "Weatherby Substation",
        "operator": "Evergy",
        "operator:wikidata": "Q7987107",
        "operator:wikipedia": "en:Evergy",
        "power": "substation",
        "source": "Bing",
        "substation": "distribution",
        "voltage": "161000;13000"
      },
      "lat": 39.2126982,
      "lon": -94.6898446
    },
    {
      "type": "way",
      "id": 93413959,
      "center": {
        "lat": 39.3125369,
        "lon": -94.7114563
      },
      "tags": {
        "barrier": "fence",
        "name": "KCI Substation",
        "operator": "Evergy",
        "operator:wikidata": "Q7987107",
        "power": "substation",
        "source": "bing",
        "substation": "distribution",
        "voltage": "161000;12000"
      },
      "lat": 39.3125369,
      "lon": -94.7114563
    },
    {
      "type": "way",
      "id": 93415095,
      "center": {
        "lat": 39.2976304,
        "lon": -94.6931479
      },
      "tags": {
        "barrier": "fence",
        "name": "American Air Substation",
        "operator": "Evergy",
        "operator:wikidata": "Q7987107",
        "power": "substation",
        "source": "bing",
        "substation": "distribution",
        "voltage": "161000;12000"
      },
      "lat": 39.2976304,
      "lon": -94.6931479
    },
    {
      "type": "way",
      "id": 93417513,
      "center": {
        "lat": 39.3125195,
        "lon": -94.6679867
      },
      "tags": {
        "barrier": "fence",
        "name": "Ferrelview Substation",
        "operator": "Evergy",
        "operator:wikidata": "Q7987107",
        "power": "substation",
        "source": "bing",
        "substation": "distribution",
        "voltage": "161000;25000"
      },
      "lat": 39.3125195,
      "lon": -94.6679867
    },
    {
      "type": "way",
      "id": 95335038,
      "center": {
        "lat": 39.2228124,
        "lon": -94.5547844
      },
      "tags": {
        "barrier": "fence",
        "name": "Gladstone Substation",
        "operator": "Evergy",
        "operator:wikidata": "Q7987107",
        "operator:wikipedia": "en:Evergy",
        "power": "substation",
        "source": "Bing",
        "substation": "distribution",
        "voltage": "161000;13000"
      },
      "lat": 39.2228124,
      "lon": -94.5547844
    },
    {
      "type": "way",
      "id": 95396586,
      "center": {
        "lat": 39.2472801,
        "lon": -94.5195444
      },
      "tags": {
        "access": "private",
        "barrier": "fence",
        "name": "Shoal Creek Substation",
        "operator": "Evergy",
        "operator:wikidata": "Q7987107",
        "operator:wikipedia": "en:Evergy",
        "power": "substation",
        "source": "Bing",
        "substation": "distribution",
        "voltage": "161000;13000"
      },
      "lat": 39.2472801,
      "lon": -94.5195444
    },
    {
      "type": "way",
      "id": 96166867,
      "center": {
        "lat": 37.1371542,
        "lon": -94.1042666
      },
      "tags": {
        "power": "substation",
        "substation": "transmission",
        "voltage": "161000"
      },
      "lat": 37.1371542,
      "lon": -94.1042666
    },
    {
      "type": "way",
      "id": 96675292,
      "center": {
        "lat": 37.1510949,
        "lon": -94.3605343
      },
      "tags": {
        "power": "substation",
        "voltage": "161000"
      },
      "lat": 37.1510949,
      "lon": -94.3605343
    },
    {
      "type": "way",
      "id": 97052833,
      "center": {
        "lat": 37.1155493,
        "lon": -94.4704969
      },
      "tags": {
        "name": "Oakland North Substation",
        "power": "substation",
        "voltage": "161000"
      },
      "lat": 37.1155493,
      "lon": -94.4704969
    },
    {
      "type": "way",
      "id": 97052834,
      "center": {
        "lat": 37.1139539,
        "lon": -94.4948194
      },
      "tags": {
        "barrier": "fence",
        "power": "substation",
        "substation": "distribution",
        "voltage": "161000"
      },
      "lat": 37.1139539,
      "lon": -94.4948194
    },
    {
      "type": "way",
      "id": 97053791,
      "center": {
        "lat": 37.3610266,
        "lon": -94.5917918
      },
      "tags": {
        "barrier": "fence",
        "name": "Asbury Substation",
        "operator": "Liberty Utilities",
        "power": "substation",
        "substation": "transmission",
        "voltage": "161000"
      },
      "lat": 37.3610266,
      "lon": -94.5917918
    },
    {
      "type": "way",
      "id": 97053792,
      "center": {
        "lat": 37.2394989,
        "lon": -94.4465658
      },
      "tags": {
        "name": "Purcell Southwest Substation",
        "power": "substation",
        "voltage": "161000"
      },
      "lat": 37.2394989,
      "lon": -94.4465658
    },
    {
      "type": "way",
      "id": 97431164,
      "center": {
        "lat": 38.8780964,
        "lon": -94.5043992
      },
      "tags": {
        "barrier": "fence",
        "frequency": "60",
        "name": "Grandview East Substation",
        "operator": "Evergy",
        "operator:wikidata": "Q7987107",
        "operator:wikipedia": "en:Evergy",
        "power": "substation",
        "substation": "distribution",
        "voltage": "161000;12000"
      },
      "lat": 38.8780964,
      "lon": -94.5043992
    },
    {
      "type": "way",
      "id": 97431170,
      "center": {
        "lat": 38.903678,
        "lon": -94.4037519
      },
      "tags": {
        "barrier": "fence",
        "frequency": "60",
        "name": "Longview Substation",
        "operator": "Evergy",
        "operator:wikidata": "Q7987107",
        "operator:wikipedia": "en:Evergy",
        "power": "substation",
        "source": "Bing",
        "substation": "distribution",
        "voltage": "161000;69000;12000"
      },
      "lat": 38.903678,
      "lon": -94.4037519
    },
    {
      "type": "way",
      "id": 97431245,
      "center": {
        "lat": 38.9634397,
        "lon": -94.5114455
      },
      "tags": {
        "building": "service",
        "name": "Loma Vista Substation",
        "operator": "Evergy",
        "operator:wikidata": "Q7987107",
        "operator:wikipedia": "en:Evergy",
        "power": "substation",
        "source": "Bing",
        "substation": "distribution",
        "voltage": "161000;13000"
      },
      "lat": 38.9634397,
      "lon": -94.5114455
    },
    {
      "type": "way",
      "id": 97603084,
      "center": {
        "lat": 39.2620142,
        "lon": -94.634113
      },
      "tags": {
        "barrier": "fence",
        "name": "Barry Substation",
        "operator": "Evergy",
        "operator:wikidata": "Q7987107",
        "operator:wikipedia": "en:Evergy",
        "power": "substation",
        "source": "Bing",
        "substation": "distribution",
        "voltage": "161000;13000"
      },
      "lat": 39.2620142,
      "lon": -94.634113
    },
    {
      "type": "way",
      "id": 98385607,
      "center": {
        "lat": 39.2026946,
        "lon": -94.4836004
      },
      "tags": {
        "barrier": "fence",
        "name": "Claycomo Substation",
        "operator": "Evergy",
        "operator:wikidata": "Q7987107",
        "operator:wikipedia": "en:Evergy",
        "power": "substation",
        "source": "Bing",
        "substation": "distribution",
        "voltage": "161000;13000"
      },
      "lat": 39.2026946,
      "lon": -94.4836004
    },
    {
      "type": "way",
      "id": 98385609,
      "center": {
        "lat": 39.2818588,
        "lon": -94.4741028
      },
      "tags": {
        "barrier": "fence",
        "name": "Liberty West Substation",
        "operator": "Evergy",
        "operator:wikidata": "Q7987107",
        "power": "substation",
        "source": "Bing",
        "substation": "distribution",
        "voltage": "161000"
      },
      "lat": 39.2818588,
      "lon": -94.4741028
    },
    {
      "type": "way",
      "id": 98663101,
      "center": {
        "lat": 39.0392542,
        "lon": -94.5713951
      },
      "tags": {
        "barrier": "fence",
        "name": "Midtown Substation",
        "operator": "Evergy",
        "operator:wikidata": "Q7987107",
        "power": "substation",
        "ref": "10",
        "source": "Bing",
        "substation": "distribution",
        "voltage": "161000;13000"
      },
      "lat": 39.0392542,
      "lon": -94.5713951
    },
    {
      "type": "way",
      "id": 98666631,
      "center": {
        "lat": 38.6877052,
        "lon": -90.4217998
      },
      "tags": {
        "power": "substation"
      },
      "lat": 38.6877052,
      "lon": -90.4217998
    },
    {
      "type": "way",
      "id": 98666633,
      "center": {
        "lat": 38.6864253,
        "lon": -90.4738942
      },
      "tags": {
        "barrier": "fence",
        "name": "Mason Substation",
        "operator": "Ameren",
        "operator:wikidata": "Q462984",
        "power": "substation",
        "substation": "transmission",
        "voltage": "345000;138000"
      },
      "lat": 38.6864253,
      "lon": -90.4738942
    },
    {
      "type": "way",
      "id": 98670474,
      "center": {
        "lat": 38.6865555,
        "lon": -90.4026061
      },
      "tags": {
        "addr:city": "Creve Coeur",
        "addr:housenumber": "10801",
        "addr:state": "MO",
        "addr:street": "Baur Boulevard",
        "name": "Warson Substation",
        "operator": "Ameren Missouri",
        "operator:wikidata": "Q7885672",
        "power": "substation",
        "voltage": "138000"
      },
      "lat": 38.6865555,
      "lon": -90.4026061
    },
    {
      "type": "way",
      "id": 98675291,
      "center": {
        "lat": 38.5633341,
        "lon": -90.4546558
      },
      "tags": {
        "operator": "Ameren Missouri",
        "operator:wikidata": "Q7885672",
        "power": "substation",
        "substation": "distribution",
        "voltage": "138000"
      },
      "lat": 38.5633341,
      "lon": -90.4546558
    },
    {
      "type": "way",
      "id": 99589944,
      "center": {
        "lat": 39.3620525,
        "lon": -94.5862475
      },
      "tags": {
        "name": "Smithville Substation",
        "operator": "Evergy",
        "operator:wikidata": "Q7987107",
        "power": "substation",
        "source": "Bing",
        "substation": "distribution",
        "voltage": "161000;13800"
      },
      "lat": 39.3620525,
      "lon": -94.5862475
    },
    {
      "type": "way",
      "id": 104332989,
      "center": {
        "lat": 39.5720173,
        "lon": -94.769978
      },
      "tags": {
        "barrier": "fence",
        "power": "substation",
        "source": "Bing"
      },
      "lat": 39.5720173,
      "lon": -94.769978
    },
    {
      "type": "way",
      "id": 104333009,
      "center": {
        "lat": 39.7112586,
        "lon": -94.8808856
      },
      "tags": {
        "name": "Alabama Substation",
        "operator": "Evergy",
        "operator:wikidata": "Q7987107",
        "operator:wikipedia": "en:Evergy",
        "power": "substation",
        "source": "Bing",
        "substation": "distribution",
        "voltage": "161000;13000"
      },
      "lat": 39.7112586,
      "lon": -94.8808856
    },
    {
      "type": "way",
      "id": 104410321,
      "center": {
        "lat": 39.4832797,
        "lon": -94.8919345
      },
      "tags": {
        "barrier": "fence",
        "power": "substation",
        "source": "Bing",
        "voltage": "69000"
      },
      "lat": 39.4832797,
      "lon": -94.8919345
    },
    {
      "type": "way",
      "id": 104414127,
      "center": {
        "lat": 39.3756714,
        "lon": -94.6906478
      },
      "tags": {
        "barrier": "fence",
        "power": "substation",
        "source": "Bing",
        "voltage": "69000"
      },
      "lat": 39.3756714,
      "lon": -94.6906478
    },
    {
      "type": "way",
      "id": 104477440,
      "center": {
        "lat": 39.844082,
        "lon": -94.7946611
      },
      "tags": {
        "barrier": "fence",
        "frequency": "60",
        "location": "outdoor",
        "name": "St. Joseph Substation",
        "operator": "Evergy",
        "operator:wikidata": "Q7987107",
        "power": "substation",
        "substation": "transmission",
        "voltage": "345000;161000"
      },
      "lat": 39.844082,
      "lon": -94.7946611
    },
    {
      "type": "way",
      "id": 104652792,
      "center": {
        "lat": 39.6636174,
        "lon": -94.6460322
      },
      "tags": {
        "barrier": "fence",
        "power": "substation",
        "source": "Bing",
        "voltage": "69000"
      },
      "lat": 39.6636174,
      "lon": -94.6460322
    },
    {
      "type": "way",
      "id": 104678203,
      "center": {
        "lat": 39.2118698,
        "lon": -94.6268202
      },
      "tags": {
        "barrier": "fence",
        "name": "Line Creek Substation",
        "operator": "Evergy",
        "operator:wikidata": "Q7987107",
        "operator:wikipedia": "en:Evergy",
        "power": "substation",
        "source": "Bing",
        "substation": "distribution",
        "voltage": "161000;13000"
      },
      "lat": 39.2118698,
      "lon": -94.6268202
    },
    {
      "type": "way",
      "id": 105851849,
      "center": {
        "lat": 40.0064752,
        "lon": -94.3424054
      },
      "tags": {
        "name": "Fairport Substation",
        "operator": "Associated Electric Cooperative",
        "operator:short": "AECI",
        "power": "substation",
        "source": "Bing",
        "substation": "transmission",
        "voltage": "345000;161000"
      },
      "lat": 40.0064752,
      "lon": -94.3424054
    },
    {
      "type": "way",
      "id": 105851860,
      "center": {
        "lat": 40.0083928,
        "lon": -94.3423696
      },
      "tags": {
        "operator": "NW Electric Power Cooperative",
        "operator:wikidata": "Q130232414",
        "power": "substation",
        "source": "Bing",
        "substation": "transmission",
        "voltage": "161000;69000"
      },
      "lat": 40.0083928,
      "lon": -94.3423696
    },
    {
      "type": "way",
      "id": 105851864,
      "center": {
        "lat": 40.0093296,
        "lon": -94.3422791
      },
      "tags": {
        "operator": "NW Electric Power Cooperative",
        "power": "substation",
        "source": "Bing",
        "voltage": "69000"
      },
      "lat": 40.0093296,
      "lon": -94.3422791
    },
    {
      "type": "way",
      "id": 105939592,
      "center": {
        "lat": 38.7581773,
        "lon": -93.57501
      },
      "tags": {
        "operator": "Evergy",
        "operator:wikidata": "Q7987107",
        "power": "substation",
        "substation": "transmission",
        "voltage": "161000"
      },
      "lat": 38.7581773,
      "lon": -93.57501
    },
    {
      "type": "way",
      "id": 106277849,
      "center": {
        "lat": 38.7025383,
        "lon": -93.2818619
      },
      "tags": {
        "barrier": "fence",
        "frequency": "60",
        "location": "outdoor",
        "name": "Sedalia West Substation",
        "operator": "Evergy",
        "operator:wikidata": "Q7987107",
        "power": "substation",
        "substation": "distribution",
        "voltage": "161000;69000;12000"
      },
      "lat": 38.7025383,
      "lon": -93.2818619
    },
    {
      "type": "way",
      "id": 106575062,
      "center": {
        "lat": 40.3460956,
        "lon": -94.8433365
      },
      "tags": {
        "barrier": "fence",
        "operator": "NW Electric Power Cooperative",
        "power": "substation",
        "source": "Bing",
        "substation": "distribution",
        "voltage": "161000;69000"
      },
      "lat": 40.3460956,
      "lon": -94.8433365
    },
    {
      "type": "way",
      "id": 106695305,
      "center": {
        "lat": 39.8092896,
        "lon": -94.79375
      },
      "tags": {
        "name": "Woodbine Substation",
        "operator": "Evergy",
        "operator:wikidata": "Q7987107",
        "power": "substation",
        "source": "Bing",
        "substation": "distribution",
        "voltage": "161000;13000"
      },
      "lat": 39.8092896,
      "lon": -94.79375
    },
    {
      "type": "way",
      "id": 106695316,
      "center": {
        "lat": 39.7721917,
        "lon": -94.7947564
      },
      "tags": {
        "barrier": "fence",
        "name": "East Side Substation",
        "operator": "Evergy",
        "operator:wikidata": "Q7987107",
        "power": "substation",
        "source": "Bing",
        "substation": "distribution",
        "voltage": "161000"
      },
      "lat": 39.7721917,
      "lon": -94.7947564
    },
    {
      "type": "way",
      "id": 106798637,
      "center": {
        "lat": 39.4498059,
        "lon": -94.9766485
      },
      "tags": {
        "barrier": "fence",
        "frequency": "60",
        "name": "Iatan 345kV Substation",
        "operator": "Evergy",
        "operator:wikidata": "Q7987107",
        "operator:wikipedia": "en:Evergy",
        "power": "substation",
        "substation": "transmission",
        "voltage": "345000;161000"
      },
      "lat": 39.4498059,
      "lon": -94.9766485
    },
    {
      "type": "way",
      "id": 107737346,
      "center": {
        "lat": 38.9422273,
        "lon": -94.6025676
      },
      "tags": {
        "barrier": "fence",
        "name": "Tomahawk Substation",
        "operator": "Evergy",
        "operator:wikidata": "Q7987107",
        "operator:wikipedia": "en:Evergy",
        "power": "substation",
        "source": "Bing",
        "substation": "distribution",
        "voltage": "161000;13000"
      },
      "lat": 38.9422273,
      "lon": -94.6025676
    },
    {
      "type": "way",
      "id": 107737375,
      "center": {
        "lat": 39.1048831,
        "lon": -94.4907933
      },
      "tags": {
        "barrier": "fence",
        "name": "Blue Valley Substation",
        "operator": "Evergy",
        "operator:wikidata": "Q7987107",
        "operator:wikipedia": "en:Evergy",
        "power": "substation",
        "source": "Bing",
        "substation": "distribution",
        "voltage": "161000;13000"
      },
      "lat": 39.1048831,
      "lon": -94.4907933
    },
    {
      "type": "way",
      "id": 107737381,
      "center": {
        "lat": 38.9702728,
        "lon": -94.5751034
      },
      "tags": {
        "barrier": "fence",
        "name": "Southtown Substation",
        "operator": "Evergy",
        "operator:wikidata": "Q7987107",
        "operator:wikipedia": "en:Evergy",
        "power": "substation",
        "source": "Bing",
        "substation": "distribution",
        "voltage": "161000;13000"
      },
      "lat": 38.9702728,
      "lon": -94.5751034
    },
    {
      "type": "way",
      "id": 116907625,
      "center": {
        "lat": 37.1532483,
        "lon": -94.3121449
      },
      "tags": {
        "operator": "Carthage Water & Electric Plant",
        "power": "substation",
        "voltage": "69000"
      },
      "lat": 37.1532483,
      "lon": -94.3121449
    },
    {
      "type": "way",
      "id": 121759411,
      "center": {
        "lat": 36.8693541,
        "lon": -94.3809969
      },
      "tags": {
        "power": "substation",
        "source": "Bing"
      },
      "lat": 36.8693541,
      "lon": -94.3809969
    },
    {
      "type": "way",
      "id": 123494639,
      "center": {
        "lat": 39.3646954,
        "lon": -94.7243183
      },
      "tags": {
        "barrier": "fence",
        "name": "Platte City Substation",
        "operator": "Evergy",
        "operator:wikidata": "Q7987107",
        "power": "substation",
        "source": "bing",
        "substation": "distribution",
        "voltage": "161000"
      },
      "lat": 39.3646954,
      "lon": -94.7243183
    },
    {
      "type": "way",
      "id": 124799499,
      "center": {
        "lat": 39.0342836,
        "lon": -94.2278413
      },
      "tags": {
        "barrier": "fence",
        "frequency": "60",
        "location": "outdoor",
        "name": "Duncan Substation",
        "operator": "Evergy",
        "operator:wikidata": "Q7987107",
        "operator:wikipedia": "en:Evergy",
        "power": "substation",
        "source": "bing",
        "substation": "distribution",
        "voltage": "161000;69000;13000"
      },
      "lat": 39.0342836,
      "lon": -94.2278413
    },
    {
      "type": "way",
      "id": 126116804,
      "center": {
        "lat": 38.9441046,
        "lon": -94.3043196
      },
      "tags": {
        "barrier": "fence",
        "frequency": "60",
        "name": "Prairie Lee Substation",
        "operator": "Evergy",
        "operator:wikidata": "Q7987107",
        "power": "substation",
        "source": "bing",
        "substation": "distribution",
        "voltage": "161000;12000"
      },
      "lat": 38.9441046,
      "lon": -94.3043196
    },
    {
      "type": "way",
      "id": 127108901,
      "center": {
        "lat": 36.2719501,
        "lon": -90.0502431
      },
      "tags": {
        "barrier": "fence",
        "name": "Kennett Substation",
        "operator": "Southwestern Power Administration",
        "operator:wikidata": "Q7571440",
        "power": "substation",
        "substation": "distribution",
        "voltage": "161000;69000"
      },
      "lat": 36.2719501,
      "lon": -90.0502431
    },
    {
      "type": "way",
      "id": 141969461,
      "center": {
        "lat": 39.7768324,
        "lon": -94.8957735
      },
      "tags": {
        "barrier": "fence",
        "power": "substation",
        "source": "bing"
      },
      "lat": 39.7768324,
      "lon": -94.8957735
    },
    {
      "type": "way",
      "id": 144210465,
      "center": {
        "lat": 36.5968643,
        "lon": -93.3084847
      },
      "tags": {
        "name": "Table Rock Dam Power Station",
        "power": "substation",
        "source": "bing",
        "substation": "distribution",
        "voltage": "161000;69000"
      },
      "lat": 36.5968643,
      "lon": -93.3084847
    },
    {
      "type": "way",
      "id": 146280023,
      "center": {
        "lat": 38.8222223,
        "lon": -90.5295392
      },
      "tags": {
        "addr:city": "Saint Charles",
        "addr:housenumber": "3800",
        "addr:state": "MO",
        "addr:street": "Huster Road",
        "barrier": "fence",
        "name": "Huster Substation",
        "operator": "Ameren Missouri",
        "operator:wikidata": "Q7885672",
        "power": "substation",
        "substation": "distribution",
        "voltage": "345000;138000"
      },
      "lat": 38.8222223,
      "lon": -90.5295392
    },
    {
      "type": "way",
      "id": 152281489,
      "center": {
        "lat": 38.4841073,
        "lon": -90.3400224
      },
      "tags": {
        "power": "substation"
      },
      "lat": 38.4841073,
      "lon": -90.3400224
    },
    {
      "type": "way",
      "id": 153441839,
      "center": {
        "lat": 38.5500008,
        "lon": -92.0358772
      },
      "tags": {
        "barrier": "fence",
        "name": "Mariosa Delta Substation",
        "operator": "Ameren",
        "operator:wikidata": "Q462984",
        "power": "substation",
        "substation": "transmission",
        "voltage": "345000;161000"
      },
      "lat": 38.5500008,
      "lon": -92.0358772
    },
    {
      "type": "way",
      "id": 156027452,
      "center": {
        "lat": 36.9792385,
        "lon": -94.2063006
      },
      "tags": {
        "fixme": "name,operator",
        "frequency": "60",
        "power": "substation",
        "voltage": "69000"
      },
      "lat": 36.9792385,
      "lon": -94.2063006
    },
    {
      "type": "way",
      "id": 156072974,
      "center": {
        "lat": 36.9751577,
        "lon": -93.915834
      },
      "tags": {
        "name": "Monett Substation",
        "power": "substation",
        "substation": "distribution",
        "voltage": "161000;69000"
      },
      "lat": 36.9751577,
      "lon": -93.915834
    },
    {
      "type": "way",
      "id": 164211205,
      "center": {
        "lat": 37.9541608,
        "lon": -90.9371779
      },
      "tags": {
        "barrier": "fence",
        "power": "substation"
      },
      "lat": 37.9541608,
      "lon": -90.9371779
    },
    {
      "type": "way",
      "id": 164215232,
      "center": {
        "lat": 38.9244267,
        "lon": -92.5748432
      },
      "tags": {
        "barrier": "fence",
        "frequency": "60",
        "name": "Overton 345kV Substation",
        "note": "Interconnect between Ameren and Evergy.",
        "operator": "Ameren",
        "operator:wikidata": "Q462984",
        "power": "substation",
        "substation": "transmission",
        "voltage": "345000;161000"
      },
      "lat": 38.9244267,
      "lon": -92.5748432
    },
    {
      "type": "way",
      "id": 164215234,
      "center": {
        "lat": 38.9231153,
        "lon": -92.5737217
      },
      "tags": {
        "barrier": "fence",
        "frequency": "60",
        "name": "Overton 161kV Substation",
        "note": "Interconnect between Ameren and Evergy.",
        "operator": "Ameren",
        "operator:wikidata": "Q462984",
        "power": "substation",
        "substation": "transmission",
        "voltage": "161000;69000"
      },
      "lat": 38.9231153,
      "lon": -92.5737217
    },
    {
      "type": "way",
      "id": 165469706,
      "center": {
        "lat": 40.5253627,
        "lon": -95.3945291
      },
      "tags": {
        "name": "Atchison Substation",
        "power": "substation",
        "voltage": "345000"
      },
      "lat": 40.5253627,
      "lon": -95.3945291
    },
    {
      "type": "way",
      "id": 165469720,
      "center": {
        "lat": 40.5264779,
        "lon": -95.3947093
      },
      "tags": {
        "power": "substation"
      },
      "lat": 40.5264779,
      "lon": -95.3947093
    },
    {
      "type": "way",
      "id": 166559474,
      "center": {
        "lat": 38.7490162,
        "lon": -94.4949073
      },
      "tags": {
        "barrier": "fence",
        "frequency": "60",
        "name": "Peculiar 345kV Substation",
        "operator": "Evergy",
        "operator:wikidata": "Q7987107",
        "operator:wikipedia": "en:Evergy",
        "power": "substation",
        "substation": "transmission",
        "voltage": "345000;161000"
      },
      "lat": 38.7490162,
      "lon": -94.4949073
    },
    {
      "type": "way",
      "id": 168241735,
      "center": {
        "lat": 36.5157124,
        "lon": -89.5678348
      },
      "tags": {
        "barrier": "fence",
        "name": "New Madrid Substation",
        "operator": "Associated Electric Cooperative",
        "power": "substation",
        "substation": "transmission"
      },
      "lat": 36.5157124,
      "lon": -89.5678348
    },
    {
      "type": "way",
      "id": 168947491,
      "center": {
        "lat": 37.4898678,
        "lon": -93.6207114
      },
      "tags": {
        "barrier": "fence",
        "frequency": "60",
        "location": "outdoor",
        "name": "Morgan Substation",
        "operator": "Associated Electric Cooperative",
        "power": "substation",
        "substation": "transmission",
        "voltage": "345000;161000"
      },
      "lat": 37.4898678,
      "lon": -93.6207114
    },
    {
      "type": "way",
      "id": 168949667,
      "center": {
        "lat": 37.1711504,
        "lon": -93.3745808
      },
      "tags": {
        "name": "Brookline substation",
        "operator": "Associated Electric Cooperative",
        "power": "substation",
        "voltage": "345000;161000"
      },
      "lat": 37.1711504,
      "lon": -93.3745808
    },
    {
      "type": "way",
      "id": 168949686,
      "center": {
        "lat": 37.2498411,
        "lon": -93.4764886
      },
      "tags": {
        "power": "substation"
      },
      "lat": 37.2498411,
      "lon": -93.4764886
    },
    {
      "type": "way",
      "id": 169031890,
      "center": {
        "lat": 37.1522875,
        "lon": -93.3858957
      },
      "tags": {
        "name": "Southwest Substation",
        "power": "substation",
        "substation": "transmission",
        "voltage": "161000"
      },
      "lat": 37.1522875,
      "lon": -93.3858957
    },
    {
      "type": "way",
      "id": 169514880,
      "center": {
        "lat": 37.5825703,
        "lon": -92.7629388
      },
      "tags": {
        "barrier": "fence",
        "frequency": "60",
        "location": "outdoor",
        "name": "Huben Substation",
        "operator": "Associated Electric Cooperative",
        "power": "substation",
        "voltage": "345000;161000"
      },
      "lat": 37.5825703,
      "lon": -92.7629388
    },
    {
      "type": "way",
      "id": 169514890,
      "center": {
        "lat": 37.4885045,
        "lon": -93.5443618
      },
      "tags": {
        "power": "substation"
      },
      "lat": 37.4885045,
      "lon": -93.5443618
    },
    {
      "type": "way",
      "id": 169923014,
      "center": {
        "lat": 37.592187,
        "lon": -92.6639064
      },
      "tags": {
        "power": "substation",
        "voltage": "161000"
      },
      "lat": 37.592187,
      "lon": -92.6639064
    },
    {
      "type": "way",
      "id": 169923015,
      "center": {
        "lat": 37.9505645,
        "lon": -92.031367
      },
      "tags": {
        "power": "substation"
      },
      "lat": 37.9505645,
      "lon": -92.031367
    },
    {
      "type": "way",
      "id": 169923016,
      "center": {
        "lat": 37.9518987,
        "lon": -92.0273442
      },
      "tags": {
        "power": "substation",
        "voltage": "69000"
      },
      "lat": 37.9518987,
      "lon": -92.0273442
    },
    {
      "type": "way",
      "id": 169951164,
      "center": {
        "lat": 37.6911309,
        "lon": -91.5172879
      },
      "tags": {
        "barrier": "fence",
        "fixme": "name",
        "power": "substation",
        "substation": "transmission",
        "voltage": "345000;161000;69000"
      },
      "lat": 37.6911309,
      "lon": -91.5172879
    },
    {
      "type": "way",
      "id": 169951176,
      "center": {
        "lat": 36.9041081,
        "lon": -90.8323578
      },
      "tags": {
        "barrier": "fence",
        "location": "outdoor",
        "power": "substation",
        "substation": "distribution",
        "voltage": "69000"
      },
      "lat": 36.9041081,
      "lon": -90.8323578
    },
    {
      "type": "way",
      "id": 169951186,
      "center": {
        "lat": 37.4697432,
        "lon": -91.0893215
      },
      "tags": {
        "barrier": "fence",
        "power": "substation",
        "substation": "transmission",
        "voltage": "161000;138000;69000"
      },
      "lat": 37.4697432,
      "lon": -91.0893215
    },
    {
      "type": "way",
      "id": 169951188,
      "center": {
        "lat": 36.6628098,
        "lon": -90.5626963
      },
      "tags": {
        "power": "substation",
        "voltage": "345000;161000;69000"
      },
      "lat": 36.6628098,
      "lon": -90.5626963
    },
    {
      "type": "way",
      "id": 169951189,
      "center": {
        "lat": 37.4689564,
        "lon": -91.0879727
      },
      "tags": {
        "barrier": "fence",
        "power": "substation",
        "substation": "transmission",
        "voltage": "345000"
      },
      "lat": 37.4689564,
      "lon": -91.0879727
    },
    {
      "type": "way",
      "id": 169951190,
      "center": {
        "lat": 36.5872267,
        "lon": -90.1794512
      },
      "tags": {
        "barrier": "fence",
        "power": "substation",
        "substation": "transmission",
        "voltage": "345000;161000"
      },
      "lat": 36.5872267,
      "lon": -90.1794512
    },
    {
      "type": "way",
      "id": 170537578,
      "center": {
        "lat": 38.4730451,
        "lon": -91.8828546
      },
      "tags": {
        "barrier": "fence",
        "name": "Loose Creek Substation",
        "operator": "Ameren",
        "operator:wikidata": "Q462984",
        "power": "substation",
        "substation": "transmission",
        "voltage": "345000"
      },
      "lat": 38.4730451,
      "lon": -91.8828546
    },
    {
      "type": "way",
      "id": 170537586,
      "center": {
        "lat": 38.4717822,
        "lon": -91.8814511
      },
      "tags": {
        "barrier": "fence",
        "power": "substation",
        "voltage": "161000;69000"
      },
      "lat": 38.4717822,
      "lon": -91.8814511
    },
    {
      "type": "way",
      "id": 170537587,
      "center": {
        "lat": 38.1885007,
        "lon": -91.9980499
      },
      "tags": {
        "barrier": "fence",
        "power": "substation"
      },
      "lat": 38.1885007,
      "lon": -91.9980499
    },
    {
      "type": "way",
      "id": 170618739,
      "center": {
        "lat": 38.9217027,
        "lon": -91.4601453
      },
      "tags": {
        "barrier": "fence",
        "frequency": "60",
        "name": "Montgomery Substation",
        "operator": "Ameren",
        "operator:wikidata": "Q462984",
        "power": "substation",
        "substation": "transmission",
        "voltage": "345000;161000"
      },
      "lat": 38.9217027,
      "lon": -91.4601453
    },
    {
      "type": "way",
      "id": 170618757,
      "center": {
        "lat": 38.9323269,
        "lon": -91.7329629
      },
      "tags": {
        "barrier": "fence",
        "fixme": "name",
        "location": "outdoor",
        "power": "substation",
        "substation": "distribution"
      },
      "lat": 38.9323269,
      "lon": -91.7329629
    },
    {
      "type": "way",
      "id": 170618761,
      "center": {
        "lat": 38.9798264,
        "lon": -91.9802425
      },
      "tags": {
        "barrier": "fence",
        "frequency": "60",
        "name": "McCredie Substation",
        "operator": "Associated Electric Cooperative",
        "power": "substation",
        "substation": "transmission",
        "voltage": "345000"
      },
      "lat": 38.9798264,
      "lon": -91.9802425
    },
    {
      "type": "way",
      "id": 170618762,
      "center": {
        "lat": 39.0272524,
        "lon": -92.3271137
      },
      "tags": {
        "barrier": "fence",
        "fixme": "name",
        "power": "substation",
        "substation": "distribution",
        "voltage": "69000"
      },
      "lat": 39.0272524,
      "lon": -92.3271137
    },
    {
      "type": "way",
      "id": 170636224,
      "center": {
        "lat": 38.3852566,
        "lon": -91.4937022
      },
      "tags": {
        "barrier": "fence",
        "name": "Bland Substation",
        "operator": "Ameren",
        "operator:wikidata": "Q462984",
        "power": "substation",
        "substation": "transmission",
        "voltage": "345000;138000"
      },
      "lat": 38.3852566,
      "lon": -91.4937022
    },
    {
      "type": "way",
      "id": 170650573,
      "center": {
        "lat": 38.5636407,
        "lon": -90.8347195
      },
      "tags": {
        "barrier": "fence",
        "name": "Labadie Substation",
        "operator": "Ameren",
        "operator:wikidata": "Q462984",
        "power": "substation",
        "substation": "transmission",
        "voltage": "345000"
      },
      "lat": 38.5636407,
      "lon": -90.8347195
    },
    {
      "type": "way",
      "id": 170650574,
      "center": {
        "lat": 38.4897196,
        "lon": -90.99083
      },
      "tags": {
        "barrier": "fence",
        "fence_type": "chain_link",
        "power": "substation",
        "substation": "distribution",
        "voltage": "138000"
      },
      "lat": 38.4897196,
      "lon": -90.99083
    },
    {
      "type": "way",
      "id": 170650577,
      "center": {
        "lat": 38.475062,
        "lon": -91.1333752
      },
      "tags": {
        "barrier": "fence",
        "power": "substation",
        "substation": "distribution",
        "voltage": "138000"
      },
      "lat": 38.475062,
      "lon": -91.1333752
    },
    {
      "type": "way",
      "id": 170674861,
      "center": {
        "lat": 39.3105941,
        "lon": -91.5345496
      },
      "tags": {
        "barrier": "fence",
        "frequency": "60",
        "name": "Spencer Creek Substation",
        "operator": "Ameren",
        "operator:wikidata": "Q462984",
        "power": "substation",
        "substation": "transmission",
        "voltage": "345000"
      },
      "lat": 39.3105941,
      "lon": -91.5345496
    },
    {
      "type": "way",
      "id": 170674903,
      "center": {
        "lat": 39.8365486,
        "lon": -91.5513758
      },
      "tags": {
        "barrier": "fence",
        "name": "Palmyra Substation",
        "operator": "Associated Electric Cooperative",
        "power": "substation",
        "source:name": "https://www.ameren.com/-/media/corporate-site/files/marktwain/finalproposed_routes_projectoverview.ashx",
        "substation": "transmission",
        "voltage": "345000;161000"
      },
      "lat": 39.8365486,
      "lon": -91.5513758
    },
    {
      "type": "way",
      "id": 170684889,
      "center": {
        "lat": 36.8675583,
        "lon": -89.8400374
      },
      "tags": {
        "barrier": "fence",
        "name": "Essex Substation",
        "operator": "Associated Electric Cooperative",
        "power": "substation",
        "substation": "generation",
        "voltage": "345000;161000"
      },
      "lat": 36.8675583,
      "lon": -89.8400374
    },
    {
      "type": "way",
      "id": 170684890,
      "center": {
        "lat": 37.2582915,
        "lon": -89.8356797
      },
      "tags": {
        "barrier": "fence",
        "name": "Lutesville Substation",
        "operator": "Ameren",
        "operator:wikidata": "Q462984",
        "power": "substation",
        "substation": "transmission",
        "voltage": "345000"
      },
      "lat": 37.2582915,
      "lon": -89.8356797
    },
    {
      "type": "way",
      "id": 170684905,
      "center": {
        "lat": 36.8714076,
        "lon": -89.8546449
      },
      "tags": {
        "barrier": "fence",
        "name": "Idalia Substation",
        "operator": "Southwestern Power Administration",
        "power": "substation",
        "substation": "transmission",
        "voltage": "161000;69000"
      },
      "lat": 36.8714076,
      "lon": -89.8546449
    },
    {
      "type": "way",
      "id": 170685678,
      "center": {
        "lat": 37.1793622,
        "lon": -89.5336535
      },
      "tags": {
        "barrier": "fence",
        "name": "Kelso Substation",
        "operator": "Ameren",
        "operator:wikidata": "Q462984",
        "power": "substation",
        "substation": "distribution",
        "voltage": "345000;161000"
      },
      "lat": 37.1793622,
      "lon": -89.5336535
    },
    {
      "type": "way",
      "id": 171002580,
      "center": {
        "lat": 38.4991881,
        "lon": -90.8797825
      },
      "tags": {
        "barrier": "fence",
        "name": "Gray Summit Substation",
        "power": "substation",
        "substation": "transmission",
        "voltage": "138000"
      },
      "lat": 38.4991881,
      "lon": -90.8797825
    },
    {
      "type": "way",
      "id": 171002581,
      "center": {
        "lat": 38.5002799,
        "lon": -90.8800672
      },
      "tags": {
        "barrier": "fence",
        "name": "Gray Summit Substation",
        "operator": "Ameren",
        "operator:wikidata": "Q462984",
        "power": "substation",
        "substation": "transmission",
        "voltage": "345000"
      },
      "lat": 38.5002799,
      "lon": -90.8800672
    },
    {
      "type": "way",
      "id": 171002596,
      "center": {
        "lat": 38.4984333,
        "lon": -90.8850197
      },
      "tags": {
        "barrier": "fence",
        "power": "substation"
      },
      "lat": 38.4984333,
      "lon": -90.8850197
    },
    {
      "type": "way",
      "id": 171051380,
      "center": {
        "lat": 38.6056282,
        "lon": -90.6486941
      },
      "tags": {
        "barrier": "fence",
        "location": "outdoor",
        "power": "substation",
        "substation": "distribution"
      },
      "lat": 38.6056282,
      "lon": -90.6486941
    },
    {
      "type": "way",
      "id": 171051386,
      "center": {
        "lat": 38.606844,
        "lon": -90.650151
      },
      "tags": {
        "barrier": "fence",
        "location": "outdoor",
        "power": "substation",
        "substation": "distribution"
      },
      "lat": 38.606844,
      "lon": -90.650151
    },
    {
      "type": "way",
      "id": 171051391,
      "center": {
        "lat": 38.6256383,
        "lon": -90.5814473
      },
      "tags": {
        "barrier": "fence",
        "power": "substation"
      },
      "lat": 38.6256383,
      "lon": -90.5814473
    },
    {
      "type": "way",
      "id": 171051393,
      "center": {
        "lat": 38.6477026,
        "lon": -90.524611
      },
      "tags": {
        "barrier": "fence",
        "operator": "Ameren Missouri",
        "operator:wikidata": "Q7885672",
        "power": "substation",
        "ref": "117745",
        "substation": "distribution",
        "voltage": "138000"
      },
      "lat": 38.6477026,
      "lon": -90.524611
    },
    {
      "type": "way",
      "id": 171051394,
      "center": {
        "lat": 38.6066174,
        "lon": -90.6476216
      },
      "tags": {
        "barrier": "fence",
        "location": "outdoor",
        "name": "Wildwood Substation",
        "operator": "Ameren Missouri",
        "operator:wikidata": "Q7885672",
        "power": "substation",
        "substation": "distribution",
        "voltage": "345000"
      },
      "lat": 38.6066174,
      "lon": -90.6476216
    },
    {
      "type": "way",
      "id": 173337802,
      "center": {
        "lat": 37.9469566,
        "lon": -90.4550499
      },
      "tags": {
        "barrier": "fence",
        "name": "St. Francois Substation",
        "operator": "Ameren",
        "operator:wikidata": "Q462984",
        "power": "substation",
        "substation": "transmission",
        "voltage": "345000;138000"
      },
      "lat": 37.9469566,
      "lon": -90.4550499
    },
    {
      "type": "way",
      "id": 173388118,
      "center": {
        "lat": 38.1327783,
        "lon": -90.2656332
      },
      "tags": {
        "barrier": "fence",
        "name": "Rush Island Station",
        "operator": "Ameren",
        "operator:wikidata": "Q462984",
        "power": "substation",
        "substation": "transmission",
        "voltage": "345000"
      },
      "lat": 38.1327783,
      "lon": -90.2656332
    },
    {
      "type": "way",
      "id": 173547665,
      "center": {
        "lat": 38.213677,
        "lon": -90.4513855
      },
      "tags": {
        "barrier": "fence",
        "name": "Joachim Substation",
        "operator": "Ameren",
        "operator:wikidata": "Q462984",
        "power": "substation",
        "substation": "transmission",
        "voltage": "345000;138000"
      },
      "lat": 38.213677,
      "lon": -90.4513855
    },
    {
      "type": "way",
      "id": 173547666,
      "center": {
        "lat": 38.4952273,
        "lon": -90.5090109
      },
      "tags": {
        "addr:country": "US",
        "addr:housenumber": "1622",
        "addr:postcode": "63049",
        "addr:state": "MO",
        "addr:street": "Hillsboro Valley Park Road",
        "barrier": "fence",
        "name": "Tyson Substation",
        "operator": "Ameren Missouri",
        "operator:wikidata": "Q7885672",
        "power": "substation",
        "substation": "transmission",
        "voltage": "345000;138000"
      },
      "lat": 38.4952273,
      "lon": -90.5090109
    },
    {
      "type": "way",
      "id": 173548418,
      "center": {
        "lat": 38.1121571,
        "lon": -90.2576574
      },
      "tags": {
        "barrier": "fence",
        "power": "substation",
        "substation": "industrial",
        "voltage": "345000"
      },
      "lat": 38.1121571,
      "lon": -90.2576574
    },
    {
      "type": "way",
      "id": 176989390,
      "center": {
        "lat": 38.869953,
        "lon": -90.8967402
      },
      "tags": {
        "barrier": "fence",
        "name": "Point Prairie Substation",
        "operator": "Ameren",
        "operator:wikidata": "Q462984",
        "power": "substation",
        "substation": "distribution",
        "voltage": "161000"
      },
      "lat": 38.869953,
      "lon": -90.8967402
    },
    {
      "type": "way",
      "id": 176989427,
      "center": {
        "lat": 38.8956717,
        "lon": -91.1366707
      },
      "tags": {
        "barrier": "fence",
        "name": "Warrenton Substation",
        "operator": "Ameren",
        "operator:wikidata": "Q462984",
        "power": "substation",
        "substation": "distribution",
        "voltage": "161000"
      },
      "lat": 38.8956717,
      "lon": -91.1366707
    },
    {
      "type": "way",
      "id": 176989429,
      "center": {
        "lat": 38.8265787,
        "lon": -90.6836473
      },
      "tags": {
        "barrier": "fence",
        "fixme": "name",
        "operator": "Ameren",
        "operator:wikidata": "Q462984",
        "power": "substation",
        "substation": "distribution",
        "voltage": "138000"
      },
      "lat": 38.8265787,
      "lon": -90.6836473
    },
    {
      "type": "way",
      "id": 176989431,
      "center": {
        "lat": 38.8318812,
        "lon": -90.7011536
      },
      "tags": {
        "barrier": "fence",
        "name": "Mid Rivers Substation",
        "operator": "Ameren",
        "operator:wikidata": "Q462984",
        "power": "substation",
        "substation": "distribution",
        "voltage": "161000;138000"
      },
      "lat": 38.8318812,
      "lon": -90.7011536
    },
    {
      "type": "way",
      "id": 176989433,
      "center": {
        "lat": 38.826423,
        "lon": -90.6807211
      },
      "tags": {
        "barrier": "fence",
        "name": "Belleau Substation",
        "operator": "Ameren",
        "operator:wikidata": "Q462984",
        "power": "substation",
        "substation": "transmission",
        "voltage": "345000;138000"
      },
      "lat": 38.826423,
      "lon": -90.6807211
    },
    {
      "type": "way",
      "id": 176994156,
      "center": {
        "lat": 38.824405,
        "lon": -90.5035643
      },
      "tags": {
        "barrier": "wall",
        "power": "substation"
      },
      "lat": 38.824405,
      "lon": -90.5035643
    },
    {
      "type": "way",
      "id": 177041271,
      "center": {
        "lat": 38.925735,
        "lon": -91.9493978
      },
      "tags": {
        "barrier": "fence",
        "frequency": "60",
        "location": "outdoor",
        "name": "Kingdom Substation",
        "operator": "Central Electric Power Co-Op",
        "power": "substation",
        "substation": "distribution",
        "voltage": "345000;161000;69000;12000"
      },
      "lat": 38.925735,
      "lon": -91.9493978
    },
    {
      "type": "way",
      "id": 178242301,
      "center": {
        "lat": 39.0908535,
        "lon": -94.576106
      },
      "tags": {
        "name": "Crosstown Substation",
        "operator": "Evergy",
        "operator:wikidata": "Q7987107",
        "operator:wikipedia": "en:Evergy",
        "power": "substation",
        "substation": "distribution",
        "voltage": "161000;13000"
      },
      "lat": 39.0908535,
      "lon": -94.576106
    },
    {
      "type": "way",
      "id": 178704933,
      "center": {
        "lat": 39.2816654,
        "lon": -94.5556334
      },
      "tags": {
        "access": "private",
        "barrier": "fence",
        "name": "Staley Road Substation",
        "operator": "Evergy",
        "operator:wikidata": "Q7987107",
        "power": "substation",
        "source": "bing",
        "substation": "distribution",
        "voltage": "69000"
      },
      "lat": 39.2816654,
      "lon": -94.5556334
    },
    {
      "type": "way",
      "id": 181983115,
      "center": {
        "lat": 38.4836301,
        "lon": -90.7098795
      },
      "tags": {
        "power": "substation",
        "voltage": "138000"
      },
      "lat": 38.4836301,
      "lon": -90.7098795
    },
    {
      "type": "way",
      "id": 192483604,
      "center": {
        "lat": 38.7655656,
        "lon": -90.7760002
      },
      "tags": {
        "barrier": "fence",
        "operator": "Ameren",
        "operator:wikidata": "Q462984",
        "power": "substation",
        "ref": "117752",
        "substation": "transmission",
        "voltage": "161000"
      },
      "lat": 38.7655656,
      "lon": -90.7760002
    },
    {
      "type": "way",
      "id": 192483606,
      "center": {
        "lat": 38.7533947,
        "lon": -90.8264797
      },
      "tags": {
        "barrier": "fence",
        "fixme": "name",
        "power": "substation",
        "substation": "distribution",
        "voltage": "161000"
      },
      "lat": 38.7533947,
      "lon": -90.8264797
    },
    {
      "type": "way",
      "id": 192483607,
      "center": {
        "lat": 38.7382499,
        "lon": -90.9924925
      },
      "tags": {
        "barrier": "fence",
        "fixme": "name",
        "power": "substation",
        "substation": "distribution",
        "voltage": "161000"
      },
      "lat": 38.7382499,
      "lon": -90.9924925
    },
    {
      "type": "way",
      "id": 192555492,
      "center": {
        "lat": 37.9879339,
        "lon": -90.6891978
      },
      "tags": {
        "power": "substation"
      },
      "lat": 37.9879339,
      "lon": -90.6891978
    },
    {
      "type": "way",
      "id": 192699990,
      "center": {
        "lat": 38.8154863,
        "lon": -90.8254357
      },
      "tags": {
        "barrier": "fence",
        "fixme": "name",
        "power": "substation",
        "substation": "generation",
        "voltage": "161000"
      },
      "lat": 38.8154863,
      "lon": -90.8254357
    },
    {
      "type": "way",
      "id": 193488064,
      "center": {
        "lat": 40.2655359,
        "lon": -92.9516307
      },
      "tags": {
        "power": "substation",
        "source": "Bing"
      },
      "lat": 40.2655359,
      "lon": -92.9516307
    },
    {
      "type": "way",
      "id": 207499338,
      "center": {
        "lat": 39.1177928,
        "lon": -94.5574683
      },
      "tags": {
        "barrier": "fence",
        "name": "Guinotte Transition Substation",
        "operator": "Evergy",
        "operator:wikidata": "Q7987107",
        "operator:wikipedia": "en:Evergy",
        "power": "substation",
        "source": "bing",
        "substation": "transition",
        "voltage": "161000"
      },
      "lat": 39.1177928,
      "lon": -94.5574683
    },
    {
      "type": "way",
      "id": 207499342,
      "center": {
        "lat": 39.1342755,
        "lon": -94.5268375
      },
      "tags": {
        "barrier": "fence",
        "name": "Chouteau Substation",
        "operator": "Evergy",
        "operator:wikidata": "Q7987107",
        "operator:wikipedia": "en:Evergy",
        "power": "substation",
        "source": "bing",
        "substation": "distribution",
        "voltage": "161000;13000"
      },
      "lat": 39.1342755,
      "lon": -94.5268375
    },
    {
      "type": "way",
      "id": 210732021,
      "center": {
        "lat": 38.6192625,
        "lon": -94.3213571
      },
      "tags": {
        "barrier": "fence",
        "frequency": "60",
        "name": "Harrisonville Substation",
        "operator": "Evergy",
        "operator:wikidata": "Q7987107",
        "power": "substation",
        "source": "bing",
        "substation": "transmission",
        "voltage": "161000;69000"
      },
      "lat": 38.6192625,
      "lon": -94.3213571
    },
    {
      "type": "way",
      "id": 210732022,
      "center": {
        "lat": 38.557957,
        "lon": -94.3559949
      },
      "tags": {
        "barrier": "fence",
        "name": "Archie Substation",
        "operator": "Evergy",
        "operator:wikidata": "Q7987107",
        "operator:wikipedia": "en:Evergy",
        "power": "substation",
        "ref": "26",
        "source": "bing",
        "substation": "transmission",
        "voltage": "161000"
      },
      "lat": 38.557957,
      "lon": -94.3559949
    },
    {
      "type": "way",
      "id": 210766353,
      "center": {
        "lat": 38.7864705,
        "lon": -94.2768435
      },
      "tags": {
        "barrier": "fence",
        "frequency": "60",
        "name": "Pleasant Hill Switching Station",
        "operator": "Evergy",
        "operator:wikidata": "Q7987107",
        "power": "substation",
        "source": "bing",
        "substation": "minor_distribution",
        "voltage": "69000"
      },
      "lat": 38.7864705,
      "lon": -94.2768435
    },
    {
      "type": "way",
      "id": 210766354,
      "center": {
        "lat": 38.6308793,
        "lon": -94.3018778
      },
      "tags": {
        "barrier": "fence",
        "frequency": "60",
        "name": "Harrisonville Switching Station",
        "note": "Substation was rebuild in Spring 2023.",
        "operator": "Evergy",
        "operator:wikidata": "Q7987107",
        "power": "substation",
        "source": "bing",
        "substation": "distribution",
        "voltage": "69000"
      },
      "lat": 38.6308793,
      "lon": -94.3018778
    },
    {
      "type": "way",
      "id": 218123373,
      "center": {
        "lat": 39.3432405,
        "lon": -91.2192048
      },
      "tags": {
        "power": "substation",
        "source": "Bing",
        "substation": "distribution",
        "voltage": "161000;69000"
      },
      "lat": 39.3432405,
      "lon": -91.2192048
    },
    {
      "type": "way",
      "id": 218609640,
      "center": {
        "lat": 39.4511081,
        "lon": -94.9758288
      },
      "tags": {
        "barrier": "fence",
        "frequency": "60",
        "name": "Iatan 161kV Substation",
        "operator": "Evergy",
        "operator:wikidata": "Q7987107",
        "power": "substation",
        "source": "Bing",
        "substation": "transmission",
        "voltage": "161000"
      },
      "lat": 39.4511081,
      "lon": -94.9758288
    },
    {
      "type": "way",
      "id": 220823015,
      "center": {
        "lat": 36.5434373,
        "lon": -94.5179015
      },
      "tags": {
        "barrier": "fence",
        "power": "substation",
        "source": "Bing",
        "voltage": "161000"
      },
      "lat": 36.5434373,
      "lon": -94.5179015
    },
    {
      "type": "way",
      "id": 229372065,
      "center": {
        "lat": 38.8656117,
        "lon": -94.5559506
      },
      "tags": {
        "barrier": "fence",
        "frequency": "60",
        "name": "Honeywell Substation",
        "operator": "Evergy",
        "operator:wikidata": "Q7987107",
        "power": "substation",
        "substation": "industrial",
        "voltage": "161000;12000"
      },
      "lat": 38.8656117,
      "lon": -94.5559506
    },
    {
      "type": "way",
      "id": 231320240,
      "center": {
        "lat": 40.3085334,
        "lon": -94.9314924
      },
      "tags": {
        "barrier": "fence",
        "power": "substation",
        "source": "bing",
        "voltage": "69000"
      },
      "lat": 40.3085334,
      "lon": -94.9314924
    },
    {
      "type": "way",
      "id": 231507432,
      "center": {
        "lat": 39.9182173,
        "lon": -91.5410979
      },
      "tags": {
        "power": "substation",
        "source": "Bing",
        "voltage": "69000"
      },
      "lat": 39.9182173,
      "lon": -91.5410979
    },
    {
      "type": "way",
      "id": 232907086,
      "center": {
        "lat": 38.5100832,
        "lon": -90.5019399
      },
      "tags": {
        "power": "substation"
      },
      "lat": 38.5100832,
      "lon": -90.5019399
    },
    {
      "type": "way",
      "id": 232949795,
      "center": {
        "lat": 38.5261479,
        "lon": -90.4775414
      },
      "tags": {
        "power": "substation"
      },
      "lat": 38.5261479,
      "lon": -90.4775414
    },
    {
      "type": "way",
      "id": 232953402,
      "center": {
        "lat": 38.5224729,
        "lon": -90.4737454
      },
      "tags": {
        "barrier": "fence",
        "fence_type": "chain_link",
        "power": "substation",
        "substation": "distribution"
      },
      "lat": 38.5224729,
      "lon": -90.4737454
    },
    {
      "type": "way",
      "id": 234504803,
      "center": {
        "lat": 38.5125532,
        "lon": -90.4387693
      },
      "tags": {
        "power": "substation"
      },
      "lat": 38.5125532,
      "lon": -90.4387693
    },
    {
      "type": "way",
      "id": 238186676,
      "center": {
        "lat": 39.3533208,
        "lon": -94.9273974
      },
      "tags": {
        "power": "substation",
        "source": "bing"
      },
      "lat": 39.3533208,
      "lon": -94.9273974
    },
    {
      "type": "way",
      "id": 247500423,
      "center": {
        "lat": 38.7534627,
        "lon": -90.5298131
      },
      "tags": {
        "power": "substation",
        "substation": "distribution",
        "voltage": "138000"
      },
      "lat": 38.7534627,
      "lon": -90.5298131
    },
    {
      "type": "way",
      "id": 247768570,
      "center": {
        "lat": 38.8795676,
        "lon": -94.5977449
      },
      "tags": {
        "barrier": "fence",
        "frequency": "60",
        "name": "Martin City Substation",
        "operator": "Evergy",
        "operator:wikidata": "Q7987107",
        "operator:wikipedia": "en:Evergy",
        "power": "substation",
        "substation": "distribution",
        "voltage": "161000;13000"
      },
      "lat": 38.8795676,
      "lon": -94.5977449
    },
    {
      "type": "way",
      "id": 251434297,
      "center": {
        "lat": 36.8202958,
        "lon": -94.3957294
      },
      "tags": {
        "power": "substation",
        "substation": "distribution",
        "voltage": "161000;69000"
      },
      "lat": 36.8202958,
      "lon": -94.3957294
    },
    {
      "type": "way",
      "id": 251434298,
      "center": {
        "lat": 36.9863821,
        "lon": -94.4340788
      },
      "tags": {
        "barrier": "fence",
        "power": "substation",
        "substation": "transmission",
        "voltage": "161000"
      },
      "lat": 36.9863821,
      "lon": -94.4340788
    },
    {
      "type": "way",
      "id": 256523755,
      "center": {
        "lat": 36.672434,
        "lon": -93.2584824
      },
      "tags": {
        "barrier": "fence",
        "name": "Branson Northwest Substation",
        "power": "substation",
        "source": "Bing"
      },
      "lat": 36.672434,
      "lon": -93.2584824
    },
    {
      "type": "way",
      "id": 256523762,
      "center": {
        "lat": 36.6714901,
        "lon": -93.2389183
      },
      "tags": {
        "power": "substation",
        "source": "Bing",
        "voltage": "161000"
      },
      "lat": 36.6714901,
      "lon": -93.2389183
    },
    {
      "type": "way",
      "id": 256523766,
      "center": {
        "lat": 36.6712709,
        "lon": -93.2537979
      },
      "tags": {
        "barrier": "fence",
        "power": "substation",
        "source": "Bing",
        "voltage": "69000"
      },
      "lat": 36.6712709,
      "lon": -93.2537979
    },
    {
      "type": "way",
      "id": 256527119,
      "center": {
        "lat": 36.632749,
        "lon": -93.2582015
      },
      "tags": {
        "name": "Branson Southwest Substation",
        "power": "substation",
        "source": "Bing",
        "voltage": "161000"
      },
      "lat": 36.632749,
      "lon": -93.2582015
    },
    {
      "type": "way",
      "id": 256527120,
      "center": {
        "lat": 36.6477845,
        "lon": -93.2737835
      },
      "tags": {
        "barrier": "fence",
        "name": "Gretna Substation",
        "power": "substation",
        "source": "Bing",
        "voltage": "161000"
      },
      "lat": 36.6477845,
      "lon": -93.2737835
    },
    {
      "type": "way",
      "id": 256533962,
      "center": {
        "lat": 36.6935723,
        "lon": -93.3154554
      },
      "tags": {
        "barrier": "fence",
        "name": "Roark Creek Substation",
        "power": "substation",
        "source": "Bing",
        "substation": "distribution",
        "voltage": "161000"
      },
      "lat": 36.6935723,
      "lon": -93.3154554
    },
    {
      "type": "way",
      "id": 256536076,
      "center": {
        "lat": 36.6797844,
        "lon": -93.3907433
      },
      "tags": {
        "power": "substation",
        "source": "Bing",
        "substation": "minor_distribution"
      },
      "lat": 36.6797844,
      "lon": -93.3907433
    },
    {
      "type": "way",
      "id": 256549297,
      "center": {
        "lat": 36.7058831,
        "lon": -93.3695039
      },
      "tags": {
        "barrier": "fence",
        "name": "South Reeds Spring Substation",
        "power": "substation",
        "source": "Bing",
        "substation": "distribution",
        "voltage": "161000;69000"
      },
      "lat": 36.7058831,
      "lon": -93.3695039
    },
    {
      "type": "way",
      "id": 256554414,
      "center": {
        "lat": 36.6592707,
        "lon": -93.3351706
      },
      "tags": {
        "barrier": "fence",
        "power": "substation",
        "source": "Bing",
        "voltage": "69000"
      },
      "lat": 36.6592707,
      "lon": -93.3351706
    },
    {
      "type": "way",
      "id": 257182441,
      "center": {
        "lat": 36.5993979,
        "lon": -93.2618069
      },
      "tags": {
        "barrier": "fence",
        "name": "Riverside Substation",
        "power": "substation",
        "source": "Bing",
        "voltage": "161000"
      },
      "lat": 36.5993979,
      "lon": -93.2618069
    },
    {
      "type": "way",
      "id": 257189251,
      "center": {
        "lat": 36.6240192,
        "lon": -93.1931474
      },
      "tags": {
        "barrier": "fence",
        "name": "Hollister East Substation",
        "power": "substation",
        "source": "Bing",
        "voltage": "161000"
      },
      "lat": 36.6240192,
      "lon": -93.1931474
    },
    {
      "type": "way",
      "id": 257189253,
      "center": {
        "lat": 36.6226792,
        "lon": -93.1732722
      },
      "tags": {
        "barrier": "fence",
        "power": "substation",
        "source": "Bing",
        "voltage": "69000"
      },
      "lat": 36.6226792,
      "lon": -93.1732722
    },
    {
      "type": "way",
      "id": 257409941,
      "center": {
        "lat": 40.424161,
        "lon": -92.5678617
      },
      "tags": {
        "power": "substation",
        "voltage": "69000"
      },
      "lat": 40.424161,
      "lon": -92.5678617
    },
    {
      "type": "way",
      "id": 261650069,
      "center": {
        "lat": 36.715667,
        "lon": -93.1463039
      },
      "tags": {
        "barrier": "fence",
        "power": "substation",
        "source": "Bing",
        "voltage": "69000"
      },
      "lat": 36.715667,
      "lon": -93.1463039
    },
    {
      "type": "way",
      "id": 261656683,
      "center": {
        "lat": 36.6584121,
        "lon": -93.1218838
      },
      "tags": {
        "barrier": "fence",
        "name": "Ozark Dam Substation",
        "power": "substation",
        "source": "Bing"
      },
      "lat": 36.6584121,
      "lon": -93.1218838
    },
    {
      "type": "way",
      "id": 261672130,
      "center": {
        "lat": 36.5642679,
        "lon": -93.2591255
      },
      "tags": {
        "barrier": "fence",
        "power": "substation",
        "source": "bing",
        "voltage": "161000"
      },
      "lat": 36.5642679,
      "lon": -93.2591255
    },
    {
      "type": "way",
      "id": 261803731,
      "center": {
        "lat": 36.7232449,
        "lon": -93.5468197
      },
      "tags": {
        "barrier": "fence",
        "power": "substation",
        "source": "bing",
        "voltage": "69000"
      },
      "lat": 36.7232449,
      "lon": -93.5468197
    },
    {
      "type": "way",
      "id": 261807176,
      "center": {
        "lat": 36.644696,
        "lon": -93.4361526
      },
      "tags": {
        "barrier": "fence",
        "power": "substation",
        "source": "Bing"
      },
      "lat": 36.644696,
      "lon": -93.4361526
    },
    {
      "type": "way",
      "id": 262313437,
      "center": {
        "lat": 36.7608249,
        "lon": -93.3359482
      },
      "tags": {
        "barrier": "fence",
        "power": "substation",
        "source": "Bing",
        "substation": "minor_distribution",
        "voltage": "69000"
      },
      "lat": 36.7608249,
      "lon": -93.3359482
    },
    {
      "type": "way",
      "id": 262320282,
      "center": {
        "lat": 36.7168933,
        "lon": -93.2302178
      },
      "tags": {
        "barrier": "fence",
        "power": "substation",
        "source": "Bing",
        "voltage": "69000"
      },
      "lat": 36.7168933,
      "lon": -93.2302178
    },
    {
      "type": "way",
      "id": 262967923,
      "center": {
        "lat": 36.6064826,
        "lon": -93.6123548
      },
      "tags": {
        "barrier": "fence",
        "name": "Sheel Knob Substation",
        "operator": "Carroll Electric Cooperative",
        "operator:wikidata": "Q5046558",
        "power": "substation",
        "substation": "distribution",
        "voltage": "69000"
      },
      "lat": 36.6064826,
      "lon": -93.6123548
    },
    {
      "type": "way",
      "id": 263443707,
      "center": {
        "lat": 36.6330618,
        "lon": -93.3738984
      },
      "tags": {
        "barrier": "fence",
        "power": "substation",
        "source": "Bing"
      },
      "lat": 36.6330618,
      "lon": -93.3738984
    },
    {
      "type": "way",
      "id": 263457830,
      "center": {
        "lat": 36.7294186,
        "lon": -93.398985
      },
      "tags": {
        "barrier": "fence",
        "name": "North Reeds Spring Substation",
        "power": "substation",
        "source": "Bing",
        "substation": "distribution",
        "voltage": "161000"
      },
      "lat": 36.7294186,
      "lon": -93.398985
    },
    {
      "type": "way",
      "id": 263741732,
      "center": {
        "lat": 36.6419685,
        "lon": -93.3125188
      },
      "tags": {
        "barrier": "fence",
        "power": "substation",
        "source": "Bing",
        "voltage": "161000"
      },
      "lat": 36.6419685,
      "lon": -93.3125188
    },
    {
      "type": "way",
      "id": 264715226,
      "center": {
        "lat": 37.159004,
        "lon": -93.2618921
      },
      "tags": {
        "name": "South Highway 65 Substation",
        "operator": "City Utilities of Springfield",
        "power": "substation",
        "source": "Bing",
        "voltage": "69000"
      },
      "lat": 37.159004,
      "lon": -93.2618921
    },
    {
      "type": "way",
      "id": 264731098,
      "center": {
        "lat": 37.1171751,
        "lon": -93.2947607
      },
      "tags": {
        "barrier": "fence",
        "name": "Plainview Substation",
        "power": "substation",
        "source": "Bing",
        "voltage": "69000"
      },
      "lat": 37.1171751,
      "lon": -93.2947607
    },
    {
      "type": "way",
      "id": 264861421,
      "center": {
        "lat": 37.1177201,
        "lon": -93.1978289
      },
      "tags": {
        "barrier": "fence",
        "fixme": "name,operator",
        "name": "Mentor Substation",
        "power": "substation",
        "source": "Bing",
        "substation": "transmission",
        "voltage": "161000"
      },
      "lat": 37.1177201,
      "lon": -93.1978289
    },
    {
      "type": "way",
      "id": 265028577,
      "center": {
        "lat": 37.1796674,
        "lon": -93.2261151
      },
      "tags": {
        "name": "Mill Substation",
        "power": "substation",
        "source": "Bing"
      },
      "lat": 37.1796674,
      "lon": -93.2261151
    },
    {
      "type": "way",
      "id": 265160928,
      "center": {
        "lat": 37.122305,
        "lon": -93.33637
      },
      "tags": {
        "barrier": "fence",
        "power": "substation",
        "source": "Bing",
        "substation": "distribution",
        "voltage": "161000"
      },
      "lat": 37.122305,
      "lon": -93.33637
    },
    {
      "type": "way",
      "id": 265353112,
      "center": {
        "lat": 38.3826683,
        "lon": -93.7715869
      },
      "tags": {
        "power": "substation",
        "voltage": "69000"
      },
      "lat": 38.3826683,
      "lon": -93.7715869
    },
    {
      "type": "way",
      "id": 265353116,
      "center": {
        "lat": 38.2672991,
        "lon": -93.3644061
      },
      "tags": {
        "barrier": "fence",
        "frequency": "60",
        "name": "Warsaw Substation",
        "note": "Looks to be a mostly retired substation with very few connections.",
        "operator": "Evergy",
        "operator:wikidata": "Q7987107",
        "power": "substation",
        "substation": "distribution",
        "voltage": "161000;69000"
      },
      "lat": 38.2672991,
      "lon": -93.3644061
    },
    {
      "type": "way",
      "id": 265353117,
      "center": {
        "lat": 38.3820252,
        "lon": -93.7715896
      },
      "tags": {
        "power": "substation"
      },
      "lat": 38.3820252,
      "lon": -93.7715896
    },
    {
      "type": "way",
      "id": 265353122,
      "center": {
        "lat": 38.2606942,
        "lon": -93.4069386
      },
      "tags": {
        "barrier": "fence",
        "frequency": "60",
        "location": "outdoor",
        "name": "Truman Lake Substation",
        "operator": "Central Electric Power Co-op",
        "power": "substation",
        "substation": "generation",
        "voltage": "161000"
      },
      "lat": 38.2606942,
      "lon": -93.4069386
    },
    {
      "type": "way",
      "id": 265389118,
      "center": {
        "lat": 37.1399364,
        "lon": -93.387952
      },
      "tags": {
        "barrier": "fence",
        "power": "substation",
        "source": "Bing",
        "voltage": "161000"
      },
      "lat": 37.1399364,
      "lon": -93.387952
    },
    {
      "type": "way",
      "id": 266473569,
      "center": {
        "lat": 37.1264043,
        "lon": -93.4467466
      },
      "tags": {
        "barrier": "fence",
        "name": "Republic Hines Street Substation",
        "power": "substation",
        "source": "Bing",
        "voltage": "69000"
      },
      "lat": 37.1264043,
      "lon": -93.4467466
    },
    {
      "type": "way",
      "id": 266763397,
      "center": {
        "lat": 37.1147998,
        "lon": -93.4626067
      },
      "tags": {
        "barrier": "fence",
        "name": "Republic East Substation",
        "power": "substation",
        "source": "Bing"
      },
      "lat": 37.1147998,
      "lon": -93.4626067
    },
    {
      "type": "way",
      "id": 267180486,
      "center": {
        "lat": 37.1501977,
        "lon": -93.3734526
      },
      "tags": {
        "barrier": "fence",
        "name": "Southwest Disposal Substation",
        "power": "substation",
        "source": "Bing",
        "voltage": "161000"
      },
      "lat": 37.1501977,
      "lon": -93.3734526
    },
    {
      "type": "way",
      "id": 267574518,
      "center": {
        "lat": 37.1622245,
        "lon": -93.3316319
      },
      "tags": {
        "barrier": "fence",
        "power": "substation",
        "source": "Bing",
        "voltage": "69000"
      },
      "lat": 37.1622245,
      "lon": -93.3316319
    },
    {
      "type": "way",
      "id": 267583308,
      "center": {
        "lat": 37.1622589,
        "lon": -93.340156
      },
      "tags": {
        "barrier": "fence",
        "power": "substation",
        "source": "Bing",
        "voltage": "69000"
      },
      "lat": 37.1622589,
      "lon": -93.340156
    },
    {
      "type": "way",
      "id": 267583314,
      "center": {
        "lat": 37.163123,
        "lon": -93.3408359
      },
      "tags": {
        "barrier": "fence",
        "name": "Golden 69 Substation",
        "operator": "City Utilities of Springfield",
        "power": "substation",
        "source": "Bing",
        "voltage": "69000"
      },
      "lat": 37.163123,
      "lon": -93.3408359
    },
    {
      "type": "way",
      "id": 267583317,
      "center": {
        "lat": 37.1613746,
        "lon": -93.3358718
      },
      "tags": {
        "barrier": "fence",
        "power": "substation",
        "source": "Bing",
        "substation": "transmission"
      },
      "lat": 37.1613746,
      "lon": -93.3358718
    },
    {
      "type": "way",
      "id": 267583318,
      "center": {
        "lat": 37.1621717,
        "lon": -93.3389896
      },
      "tags": {
        "barrier": "fence",
        "fixme": "name,operator",
        "power": "substation",
        "source": "Bing",
        "substation": "transmission"
      },
      "lat": 37.1621717,
      "lon": -93.3389896
    },
    {
      "type": "way",
      "id": 267611374,
      "center": {
        "lat": 37.1785158,
        "lon": -93.3083391
      },
      "tags": {
        "barrier": "fence",
        "power": "substation",
        "source": "Bing",
        "voltage": "69000"
      },
      "lat": 37.1785158,
      "lon": -93.3083391
    },
    {
      "type": "way",
      "id": 267910471,
      "center": {
        "lat": 37.1349764,
        "lon": -93.3248883
      },
      "tags": {
        "barrier": "fence",
        "name": "Cox Substation",
        "power": "substation",
        "source": "Bing",
        "voltage": "69000"
      },
      "lat": 37.1349764,
      "lon": -93.3248883
    },
    {
      "type": "way",
      "id": 267930597,
      "center": {
        "lat": 37.1677421,
        "lon": -93.2866416
      },
      "tags": {
        "barrier": "fence",
        "power": "substation",
        "source": "Bing",
        "voltage": "69000"
      },
      "lat": 37.1677421,
      "lon": -93.2866416
    },
    {
      "type": "way",
      "id": 268202868,
      "center": {
        "lat": 37.153066,
        "lon": -93.2864421
      },
      "tags": {
        "barrier": "fence",
        "name": "Kickapoo Substation",
        "operator": "City Utilities of Springfield",
        "power": "substation",
        "source": "Bing",
        "voltage": "69000"
      },
      "lat": 37.153066,
      "lon": -93.2864421
    },
    {
      "type": "way",
      "id": 268203189,
      "center": {
        "lat": 37.1689284,
        "lon": -93.286561
      },
      "tags": {
        "barrier": "fence",
        "name": "Holland",
        "power": "substation",
        "source": "Bing",
        "voltage": "69000"
      },
      "lat": 37.1689284,
      "lon": -93.286561
    },
    {
      "type": "way",
      "id": 268511241,
      "center": {
        "lat": 37.1742283,
        "lon": -93.2733724
      },
      "tags": {
        "barrier": "fence",
        "power": "substation",
        "source": "Bing"
      },
      "lat": 37.1742283,
      "lon": -93.2733724
    },
    {
      "type": "way",
      "id": 268544479,
      "center": {
        "lat": 37.215832,
        "lon": -93.2704274
      },
      "tags": {
        "barrier": "fence",
        "power": "substation",
        "source": "Bing"
      },
      "lat": 37.215832,
      "lon": -93.2704274
    },
    {
      "type": "way",
      "id": 269760222,
      "center": {
        "lat": 37.2367876,
        "lon": -93.3670983
      },
      "tags": {
        "barrier": "fence",
        "power": "substation",
        "source": "Bing",
        "voltage": "161000"
      },
      "lat": 37.2367876,
      "lon": -93.3670983
    },
    {
      "type": "way",
      "id": 269997250,
      "center": {
        "lat": 37.2557611,
        "lon": -93.309546
      },
      "tags": {
        "barrier": "fence",
        "power": "substation",
        "source": "Bing"
      },
      "lat": 37.2557611,
      "lon": -93.309546
    },
    {
      "type": "way",
      "id": 269997255,
      "center": {
        "lat": 37.219611,
        "lon": -93.3260343
      },
      "tags": {
        "barrier": "fence",
        "name": "Nichols",
        "power": "substation",
        "source": "Bing",
        "voltage": "69000"
      },
      "lat": 37.219611,
      "lon": -93.3260343
    },
    {
      "type": "way",
      "id": 269997257,
      "center": {
        "lat": 37.2196828,
        "lon": -93.3250574
      },
      "tags": {
        "name": "Nichols",
        "power": "substation",
        "source": "Bing",
        "voltage": "161000;69000"
      },
      "lat": 37.2196828,
      "lon": -93.3250574
    },
    {
      "type": "way",
      "id": 270001557,
      "center": {
        "lat": 37.2511066,
        "lon": -93.2772553
      },
      "tags": {
        "barrier": "fence",
        "power": "substation",
        "source": "Bing"
      },
      "lat": 37.2511066,
      "lon": -93.2772553
    },
    {
      "type": "way",
      "id": 272671193,
      "center": {
        "lat": 38.6375107,
        "lon": -90.3452312
      },
      "tags": {
        "power": "substation"
      },
      "lat": 38.6375107,
      "lon": -90.3452312
    },
    {
      "type": "way",
      "id": 280408645,
      "center": {
        "lat": 36.6960559,
        "lon": -91.8815074
      },
      "tags": {
        "power": "substation",
        "substation": "distribution",
        "voltage": "161000;69000"
      },
      "lat": 36.6960559,
      "lon": -91.8815074
    },
    {
      "type": "way",
      "id": 292243671,
      "center": {
        "lat": 37.5389446,
        "lon": -93.3805226
      },
      "tags": {
        "barrier": "fence",
        "power": "substation",
        "voltage": "69000"
      },
      "lat": 37.5389446,
      "lon": -93.3805226
    },
    {
      "type": "way",
      "id": 292243675,
      "center": {
        "lat": 37.6686003,
        "lon": -93.4860021
      },
      "tags": {
        "barrier": "fence",
        "frequency": "60",
        "location": "outdoor",
        "name": "Cliquat Substation",
        "operator": "KAMO Power",
        "operator:wikidata": "Q115691589",
        "power": "substation",
        "substation": "minor_distribution",
        "voltage": "69000;12000"
      },
      "lat": 37.6686003,
      "lon": -93.4860021
    },
    {
      "type": "way",
      "id": 297130870,
      "center": {
        "lat": 39.756334,
        "lon": -94.3074462
      },
      "tags": {
        "name": "Osborn",
        "operator": "NW Electric Power Cooperative",
        "operator:wikidata": "Q130232414",
        "power": "substation",
        "substation": "transmission",
        "voltage": "161000"
      },
      "lat": 39.756334,
      "lon": -94.3074462
    },
    {
      "type": "way",
      "id": 313199762,
      "center": {
        "lat": 38.801125,
        "lon": -90.3317725
      },
      "tags": {
        "name": "Florissant Substation",
        "operator": "Ameren Missouri",
        "operator:wikidata": "Q7885672",
        "power": "substation",
        "substation": "distribution",
        "voltage": "138000"
      },
      "lat": 38.801125,
      "lon": -90.3317725
    },
    {
      "type": "way",
      "id": 313199763,
      "center": {
        "lat": 38.7746303,
        "lon": -90.332021
      },
      "tags": {
        "power": "substation"
      },
      "lat": 38.7746303,
      "lon": -90.332021
    },
    {
      "type": "way",
      "id": 313200516,
      "center": {
        "lat": 38.7584386,
        "lon": -90.3358011
      },
      "tags": {
        "power": "substation",
        "voltage": "138000"
      },
      "lat": 38.7584386,
      "lon": -90.3358011
    },
    {
      "type": "way",
      "id": 313202107,
      "center": {
        "lat": 38.7290144,
        "lon": -90.3288421
      },
      "tags": {
        "name": "North Park Substation",
        "operator": "Ameren Missouri",
        "operator:wikidata": "Q7885672",
        "power": "substation",
        "voltage": "138000"
      },
      "lat": 38.7290144,
      "lon": -90.3288421
    },
    {
      "type": "way",
      "id": 318505763,
      "center": {
        "lat": 40.2341196,
        "lon": -94.6694486
      },
      "tags": {
        "barrier": "fence",
        "power": "substation",
        "voltage": "69000"
      },
      "lat": 40.2341196,
      "lon": -94.6694486
    },
    {
      "type": "way",
      "id": 321659677,
      "center": {
        "lat": 39.214518,
        "lon": -94.4315852
      },
      "tags": {
        "access": "private",
        "barrier": "fence",
        "name": "Liberty South",
        "operator": "Evergy",
        "operator:wikidata": "Q7987107",
        "operator:wikipedia": "en:Evergy",
        "power": "substation",
        "source": "bing",
        "substation": "distribution",
        "voltage": "161000;69000"
      },
      "lat": 39.214518,
      "lon": -94.4315852
    },
    {
      "type": "way",
      "id": 322159259,
      "center": {
        "lat": 37.8185829,
        "lon": -90.3155829
      },
      "tags": {
        "barrier": "fence",
        "power": "substation"
      },
      "lat": 37.8185829,
      "lon": -90.3155829
    },
    {
      "type": "way",
      "id": 323488554,
      "center": {
        "lat": 40.2352827,
        "lon": -93.9740787
      },
      "tags": {
        "barrier": "fence",
        "power": "substation",
        "voltage": "69000"
      },
      "lat": 40.2352827,
      "lon": -93.9740787
    },