{
  "version": 0.6,
  "generator": "Overpass API 0.7.62.11 87bfad18",
  "osm3s": {
    "timestamp_osm_base": "2026-04-24T20:51:16Z",
    "timestamp_areas_base": "2026-04-24T15:53:36Z",
    "copyright": "The data included in this document is from www.openstreetmap.org. The data is made available under ODbL."
  },
  "elements": [
    {
      "type": "way",
      "id": 28710550,
      "center": {
        "lat": 39.3818263,
        "lon": -74.4494122
      },
      "tags": {
        "addr:housenumber": "108",
        "addr:street": "Absecon Boulevard",
        "industrial": "electrical",
        "man_made": "wind_farm",
        "name": "Jersey\u2013Atlantic Wind Farm",
        "operator": "Atlantic County Utilities Authority (ACUA)",
        "plant:method": "wind_turbine",
        "plant:output:electricity": "7.5 MW",
        "plant:source": "wind",
        "power": "plant",
        "source": "ACUA 2020 Annual Report (https://indd.adobe.com/view/184ab0d2-bbd2-4513-b5f5-9d6af08f680d)"
      },
      "lat": 39.3818263,
      "lon": -74.4494122
    },
    {
      "type": "way",
      "id": 34447997,
      "center": {
        "lat": 40.0762046,
        "lon": -74.8772955
      },
      "tags": {
        "landuse": "industrial",
        "name": "Burlington Generating Station",
        "operator": "PSEG Fossil LLC",
        "plant:method": "combustion",
        "plant:output:electricity": "242 MW",
        "plant:source": "gas",
        "power": "plant",
        "ref:US:EIA": "2399",
        "source": "U.S. Energy Information Administration - EIA-860 - 2021",
        "start_date": "1967-06"
      },
      "lat": 40.0762046,
      "lon": -74.8772955
    },
    {
      "type": "way",
      "id": 39836037,
      "center": {
        "lat": 40.7372896,
        "lon": -74.0987815
      },
      "tags": {
        "addr:state": "NJ",
        "ele": "0",
        "gnis:feature_id": "2057618",
        "landuse": "industrial",
        "name": "Kearny Generating Station",
        "operator": "PSEG Fossil LLC",
        "plant:method": "combustion",
        "plant:output:electricity": "450 MW",
        "plant:source": "gas",
        "power": "plant",
        "ref:US:EIA": "2404",
        "source": "U.S. Energy Information Administration - EIA-860 - 2019",
        "wikidata": "Q11980461",
        "wikipedia": "en:Kearny Generating Station"
      },
      "lat": 40.7372896,
      "lon": -74.0987815
    },
    {
      "type": "way",
      "id": 39853617,
      "center": {
        "lat": 40.2548953,
        "lon": -74.3809124
      },
      "tags": {
        "name": "Milhurst Solar",
        "operator": "NorthPark Solar, LLC",
        "plant:method": "photovoltaic",
        "plant:output:electricity": "1.3 MW",
        "plant:source": "solar",
        "power": "plant",
        "ref:US:EIA": "62904",
        "source": "U.S. Energy Information Administration - EIA-860 - 2020",
        "start_date": "2015-12"
      },
      "lat": 40.2548953,
      "lon": -74.3809124
    },
    {
      "type": "way",
      "id": 40138999,
      "center": {
        "lat": 40.4456808,
        "lon": -74.1544976
      },
      "tags": {
        "addr:city": "Union Beach",
        "addr:housenumber": "800",
        "addr:postcode": "07735",
        "addr:state": "NJ",
        "addr:street": "Rose Lane",
        "name": "IFF Solar Farm",
        "note": "Defunct production plant. Demolition ongoing, due to EPA finding PCB in soil/groundwater in 1980's.",
        "operator": "NJR Clean Energy Ventures Corporation",
        "plant:method": "photovoltaic",
        "plant:output:electricity": "5.5 MW",
        "plant:source": "solar",
        "power": "plant",
        "ref:US:EIA": "62306",
        "source": "NJ2002LULC",
        "start_date": "2019-06"
      },
      "lat": 40.4456808,
      "lon": -74.1544976
    },
    {
      "type": "way",
      "id": 40139297,
      "center": {
        "lat": 40.4774421,
        "lon": -74.3536785
      },
      "tags": {
        "addr:city": "Sayreville",
        "addr:street": "River Road",
        "landuse": "industrial",
        "name": "Sayreville Generating Station",
        "operator": "Sayreville Power, LLC",
        "plant:output:electricity": "212 MW",
        "plant:source": "gas",
        "power": "plant",
        "ref:US:EIA": "2390",
        "source": "NJ2002LULC",
        "start_date": "1955-04"
      },
      "lat": 40.4774421,
      "lon": -74.3536785
    },
    {
      "type": "way",
      "id": 40183384,
      "center": {
        "lat": 40.2566568,
        "lon": -74.4421964
      },
      "tags": {
        "name": "NorthPark Solar",
        "operator": "NorthPark Solar, LLC",
        "plant:method": "photovoltaic",
        "plant:output:electricity": "10.6 MW",
        "plant:source": "solar",
        "power": "plant",
        "ref:US:EIA": "62903",
        "source": "U.S. Energy Information Administration - EIA-860 - 2020",
        "start_date": "2016-02"
      },
      "lat": 40.2566568,
      "lon": -74.4421964
    },
    {
      "type": "way",
      "id": 40321351,
      "center": {
        "lat": 39.9093205,
        "lon": -75.1162738
      },
      "tags": {
        "landuse": "industrial",
        "name": "Covanta Camden Energy Recovery Center",
        "operator": "Covanta Energy",
        "plant:method": "combustion",
        "plant:output:electricity": "35 MW",
        "plant:source": "waste",
        "power": "plant",
        "ref:US:EIA": "10435",
        "source": "U.S. Energy Information Administration - EIA-860 - 2021",
        "start_date": "1991-03"
      },
      "lat": 39.9093205,
      "lon": -75.1162738
    },
    {
      "type": "way",
      "id": 40369004,
      "center": {
        "lat": 40.3519389,
        "lon": -74.1885549
      },
      "tags": {
        "name": "Cornerstone Power Holmdel LLC",
        "operator": "OCI Solar Power",
        "plant:method": "photovoltaic",
        "plant:output:electricity": "3 MW",
        "plant:source": "solar",
        "power": "plant",
        "ref:US:EIA": "58536",
        "source": "U.S. Energy Information Administration - EIA-860 - 2022;NJ2002LULC",
        "start_date": "2013-05"
      },
      "lat": 40.3519389,
      "lon": -74.1885549
    },
    {
      "type": "way",
      "id": 40407492,
      "center": {
        "lat": 39.8377589,
        "lon": -75.0524046
      },
      "tags": {
        "name": "Owens Corning",
        "operator": "MN8 Energy LLC",
        "plant:method": "photovoltaic",
        "plant:output:electricity": "2.8 MW",
        "plant:source": "solar",
        "power": "plant",
        "ref:US:EIA": "62439",
        "source": "U.S. Energy Information Administration - EIA-860 - 2022;NJ2002LULC",
        "start_date": "2016-12"
      },
      "lat": 39.8377589,
      "lon": -75.0524046
    },
    {
      "type": "way",
      "id": 40412234,
      "center": {
        "lat": 38.9771697,
        "lon": -74.906772
      },
      "tags": {
        "name": "Lower Cape May HS",
        "operator": "MN8 Energy LLC",
        "plant:method": "photovoltaic",
        "plant:output:electricity": "1.5 MW",
        "plant:source": "solar",
        "power": "plant",
        "ref:US:EIA": "60769",
        "source": "U.S. Energy Information Administration - EIA-860 - 2022;NJ2002LULC",
        "start_date": "2012-12"
      },
      "lat": 38.9771697,
      "lon": -74.906772
    },
    {
      "type": "way",
      "id": 40601478,
      "center": {
        "lat": 40.7501559,
        "lon": -74.9970429
      },
      "tags": {
        "plant:method": "photovoltaic",
        "plant:output:electricity": "yes",
        "plant:source": "solar",
        "power": "plant",
        "source": "NJ2002LULC"
      },
      "lat": 40.7501559,
      "lon": -74.9970429
    },
    {
      "type": "way",
      "id": 40718427,
      "center": {
        "lat": 40.167794,
        "lon": -74.657873
      },
      "tags": {
        "name": "PSE&G Yardville Solar Farm",
        "operator": "Public Service Enterprise Group",
        "operator:wikidata": "Q930919",
        "plant:method": "photovoltaic",
        "plant:output:electricity": "3.6 MW",
        "plant:source": "solar",
        "power": "plant",
        "ref:US:EIA": "57382",
        "source": "NJ2002LULC",
        "start_date": "2010-12"
      },
      "lat": 40.167794,
      "lon": -74.657873
    },
    {
      "type": "way",
      "id": 42061715,
      "center": {
        "lat": 40.7707076,
        "lon": -74.9330458
      },
      "tags": {
        "generator:source": "solar",
        "plant:method": "photovoltaic",
        "plant:output:electricity": "yes",
        "plant:source": "solar",
        "power": "plant"
      },
      "lat": 40.7707076,
      "lon": -74.9330458
    },
    {
      "type": "way",
      "id": 95782347,
      "center": {
        "lat": 40.8374944,
        "lon": -74.0236943
      },
      "tags": {
        "landuse": "industrial",
        "name": "Bergen Generating Station",
        "operator": "Public Service Enterprise Group",
        "operator:wikidata": "Q930919",
        "plant:method": "combustion",
        "plant:output:electricity": "1229 MW",
        "plant:source": "gas",
        "plant:type": "combined_cycle",
        "power": "plant",
        "ref:US:EIA": "2398",
        "source": "U.S. Energy Information Administration - EIA-860 - 2019",
        "start_date": "1959-05",
        "wikidata": "Q16966660"
      },
      "lat": 40.8374944,
      "lon": -74.0236943
    },
    {
      "type": "way",
      "id": 95806663,
      "center": {
        "lat": 40.4494616,
        "lon": -74.3479793
      },
      "tags": {
        "landuse": "industrial",
        "name": "Red Oak Power",
        "operator": "Red Oak Operating Services LLC",
        "plant:method": "combustion",
        "plant:output:electricity": "821.1 MW",
        "plant:source": "gas",
        "plant:type": "combined_cycle",
        "power": "plant",
        "ref:US:EIA": "55239",
        "source": "U.S. Energy Information Administration - EIA-860 - 2021",
        "start_date": "2002-03",
        "wikidata": "Q11956639"
      },
      "lat": 40.4494616,
      "lon": -74.3479793
    },
    {
      "type": "way",
      "id": 146402114,
      "center": {
        "lat": 40.7276638,
        "lon": -73.9739646
      },
      "tags": {
        "landuse": "industrial",
        "name": "Con Ed East River Station",
        "operator": "Consolidated Edison",
        "plant:method": "combustion",
        "plant:output:electricity": "723 MW",
        "plant:output:hot_water": "yes",
        "plant:output:steam": "yes",
        "plant:source": "gas",
        "power": "plant",
        "ref:US:EIA": "2493",
        "source": "Bing;U.S. Energy Information Administration - EIA-860 - 2019",
        "start_date": "1951-11",
        "type": "gas",
        "wikidata": "Q11966457"
      },
      "lat": 40.7276638,
      "lon": -73.9739646
    },
    {
      "type": "way",
      "id": 185149326,
      "center": {
        "lat": 40.523619,
        "lon": -74.4294943
      },
      "tags": {
        "landuse": "industrial",
        "name": "Livingston Solar Array Farm",
        "operator": "Rutgers, The State University of NJ",
        "plant:method": "photovoltaic",
        "plant:output:electricity": "1.2 MW",
        "plant:source": "solar",
        "power": "plant",
        "ref:US:EIA": "58504",
        "source": "whereRU.rutgers.edu",
        "start_date": "2009-05"
      },
      "lat": 40.523619,
      "lon": -74.4294943
    },
    {
      "type": "way",
      "id": 250476442,
      "center": {
        "lat": 40.9152994,
        "lon": -74.180976
      },
      "tags": {
        "alt_name": "Great Falls Hydro Project",
        "building": "yes",
        "generator:type": "francis_turbine",
        "layer": "1",
        "name": "S.U.M. Hydroelectric Plant",
        "operator": "Eagle Creek Renewable Energy",
        "operator:wikidata": "Q113376370",
        "plant:method": "run-of-the-river",
        "plant:output:electricity": "12.3 MW",
        "plant:source": "hydro",
        "power": "plant",
        "ref:US:EIA": "52068",
        "source": "U.S. Energy Information Administration - EIA-860 - 2020",
        "start_date": "1985-12"
      },
      "lat": 40.9152994,
      "lon": -74.180976
    },
    {
      "type": "way",
      "id": 258964391,
      "center": {
        "lat": 40.7670264,
        "lon": -74.083342
      },
      "tags": {
        "image": "https://mimages.brispace.net/v1/photos/762dd665-4820-4d73-a6f6-811d16296db5",
        "name": "Xchange Solar Field",
        "plant:method": "photovoltaic",
        "plant:output:electricity": "yes",
        "plant:source": "solar",
        "power": "plant"
      },
      "lat": 40.7670264,
      "lon": -74.083342
    },
    {
      "type": "way",
      "id": 258970655,
      "center": {
        "lat": 40.750992,
        "lon": -74.1099676
      },
      "tags": {
        "name": "Kearney Solar Farm",
        "operator": "Public Service Enterprise Group",
        "operator:wikidata": "Q930919",
        "plant:method": "photovoltaic",
        "plant:output:electricity": "2.5 MW",
        "plant:source": "solar",
        "power": "plant",
        "ref:US:EIA": "57724",
        "source": "U.S. Energy Information Administration - EIA-860 - 2020",
        "start_date": "2011-12"
      },
      "lat": 40.750992,
      "lon": -74.1099676
    },
    {
      "type": "way",
      "id": 259674820,
      "center": {
        "lat": 40.796607,
        "lon": -75.1099484
      },
      "tags": {
        "addr:city": "Bangor",
        "addr:housenumber": "6605",
        "addr:postcode": "18013",
        "addr:state": "PA",
        "addr:street": "Foul Rift Road",
        "landuse": "industrial",
        "name": "Martin's Creek Power Plant",
        "operator": "Talen Energy",
        "plant:method": "combustion",
        "plant:output:electricity": "1794.1 MW",
        "plant:source": "gas",
        "power": "plant",
        "ref:US:EIA": "3148",
        "source": "U.S. Energy Information Administration - EIA-860 - 2021;https://www.gem.wiki/TalenEnergy_Martins_Creek_power_station",
        "start_date": "1954-09",
        "wikidata": "Q19381125"
      },
      "lat": 40.796607,
      "lon": -75.1099484
    },
    {
      "type": "way",
      "id": 259674821,
      "center": {
        "lat": 40.8014678,
        "lon": -75.1072567
      },
      "tags": {
        "addr:city": "Bangor",
        "addr:housenumber": "6079",
        "addr:postcode": "18013",
        "addr:state": "PA",
        "addr:street": "Depues Ferry Road",
        "landuse": "industrial",
        "name": "Lower Mount Bethel PPL Plant",
        "operator": "Lower Mount Bethel Energy LLC",
        "plant:method": "combustion",
        "plant:output:electricity": "651.6 MW",
        "plant:source": "gas",
        "plant:type": "combined_cycle",
        "power": "plant",
        "ref:US:EIA": "55667",
        "source": "U.S. Energy Information Administration - EIA-860 - 2021;https://www.gem.wiki/Lower_Mount_Bethel_Energy_power_station",
        "start_date": "2004-05",
        "wikidata": "Q11986880"
      },
      "lat": 40.8014678,
      "lon": -75.1072567
    },
    {
      "type": "way",
      "id": 262112812,
      "center": {
        "lat": 40.9690281,
        "lon": -74.2397788
      },
      "tags": {
        "name": "WHHS Solar Farm",
        "plant:method": "photovoltaic",
        "plant:output:electricity": "yes",
        "plant:source": "solar",
        "power": "plant"
      },
      "lat": 40.9690281,
      "lon": -74.2397788
    },
    {
      "type": "way",
      "id": 269210910,
      "center": {
        "lat": 40.7718956,
        "lon": -73.9921001
      },
      "tags": {
        "addr:city": "New York",
        "addr:state": "NY",
        "architect": "McKim, Mead & White",
        "architect:wikidata": "Q1915267",
        "architect:wikipedia": "en:McKim, Mead & White",
        "building": "yes",
        "ele": "5",
        "gnis:feature_id": "2091992",
        "height": "53.3",
        "landuse": "industrial",
        "name": "West 59th Street Generating Station",
        "nycdoitt:bin": "1027178",
        "operator": "Consolidated Edison Company of New York",
        "plant:method": "combustion",
        "plant:output:electricity": "20.3 MW",
        "plant:output:steam": "yes",
        "plant:source": "gas",
        "power": "plant",
        "ref:US:EIA": "2503",
        "source": "U.S. Energy Information Administration - EIA-860 - 2019",
        "start_date": "1904",
        "wikidata": "Q5973624",
        "wikipedia": "en:IRT Powerhouse"
      },
      "lat": 40.7718956,
      "lon": -73.9921001
    },
    {
      "type": "way",
      "id": 273155661,
      "center": {
        "lat": 40.9399317,
        "lon": -74.2112985
      },
      "tags": {
        "name": "AWMS Solar Farm",
        "plant:method": "photovoltaic",
        "plant:output:electricity": "yes",
        "plant:source": "solar",
        "power": "plant"
      },
      "lat": 40.9399317,
      "lon": -74.2112985
    },
    {
      "type": "way",
      "id": 273155665,
      "center": {
        "lat": 40.9410262,
        "lon": -74.2095457
      },
      "tags": {
        "name": "AWMS Solar Farm",
        "plant:method": "photovoltaic",
        "plant:output:electricity": "yes",
        "plant:source": "solar",
        "power": "plant"
      },
      "lat": 40.9410262,
      "lon": -74.2095457
    },
    {
      "type": "way",
      "id": 284868527,
      "center": {
        "lat": 40.767727,
        "lon": -73.9506868
      },
      "tags": {
        "architect": "George H. Pegram",
        "building": "yes",
        "height": "37.1",
        "landuse": "industrial",
        "name": "74th Street Power Plant",
        "nycdoitt:bin": "1082176",
        "operator": "Con Edison",
        "plant:method": "combustion",
        "plant:output:electricity": "37 MW",
        "plant:source": "gas;oil",
        "power": "plant",
        "ref:US:EIA": "2504",
        "start_date": "1902"
      },
      "lat": 40.767727,
      "lon": -73.9506868
    },
    {
      "type": "way",
      "id": 311440037,
      "center": {
        "lat": 40.4910017,
        "lon": -74.3146929
      },
      "tags": {
        "frequency": "60",
        "landuse": "industrial",
        "name": "MCUA Electric Power Generating Facility",
        "operator": "Middlesex County Utilities Authority",
        "plant:method": "combustion",
        "plant:output:electricity": "22.5 MW",
        "plant:output:hot_water": "yes",
        "plant:source": "biogas",
        "power": "plant",
        "ref:US:EIA": "56119",
        "source": "U.S. Energy Information Administration - EIA-860 - 2021",
        "start_date": "1961-01"
      },
      "lat": 40.4910017,
      "lon": -74.3146929
    },
    {
      "type": "way",
      "id": 336109099,
      "center": {
        "lat": 40.5327252,
        "lon": -74.3436363
      },
      "tags": {
        "generator:source": "solar",
        "plant:method": "photovoltaic",
        "plant:output:electricity": "yes",
        "plant:source": "solar",
        "power": "plant"
      },
      "lat": 40.5327252,
      "lon": -74.3436363
    },
    {
      "type": "way",
      "id": 336109101,
      "center": {
        "lat": 40.5331226,
        "lon": -74.345314
      },
      "tags": {
        "generator:source": "solar",
        "plant:method": "photovoltaic",
        "plant:output:electricity": "yes",
        "plant:source": "solar",
        "power": "plant"
      },
      "lat": 40.5331226,
      "lon": -74.345314
    },
    {
      "type": "way",
      "id": 336109102,
      "center": {
        "lat": 40.5327559,
        "lon": -74.3443811
      },
      "tags": {
        "generator:source": "solar",
        "plant:method": "photovoltaic",
        "plant:output:electricity": "yes",
        "plant:source": "solar",
        "power": "plant"
      },
      "lat": 40.5327559,
      "lon": -74.3443811
    },
    {
      "type": "way",
      "id": 343831905,
      "center": {
        "lat": 39.9752574,
        "lon": -74.8884896
      },
      "tags": {
        "name": "Mount Laurel Solar",
        "operator": "NJR Clean Energy Ventures Corporation",
        "plant:method": "photovoltaic",
        "plant:output:electricity": "2.5 MW",
        "plant:source": "solar",
        "power": "plant",
        "ref:US:EIA": "65329",
        "source": "U.S. Energy Information Administration - EIA-860 - 2022",
        "start_date": "2020-12"
      },
      "lat": 39.9752574,
      "lon": -74.8884896
    },
    {
      "type": "way",
      "id": 345092735,
      "center": {
        "lat": 39.7771684,
        "lon": -75.1227894
      },
      "tags": {
        "name": "RCSJ Solar Field",
        "operator": "MN8 Energy LLC",
        "plant:method": "photovoltaic",
        "plant:output:electricity": "2.3 MW",
        "plant:source": "solar",
        "power": "plant",
        "ref:US:EIA": "60752",
        "source": "U.S. Energy Information Administration - EIA-860 - 2022",
        "start_date": "2014-03"
      },
      "lat": 39.7771684,
      "lon": -75.1227894
    },
    {
      "type": "way",
      "id": 346393791,
      "center": {
        "lat": 40.5216009,
        "lon": -75.0118337
      },
      "tags": {
        "name": "Frenchtown Solar 1",
        "operator": "Consolidated Edison Development Inc.",
        "plant:method": "photovoltaic",
        "plant:output:electricity": "3 MW",
        "plant:source": "solar",
        "power": "plant",
        "ref:US:EIA": "57486",
        "source": "U.S. Energy Information Administration - EIA-860 - 2022",
        "start_date": "2012-01"
      },
      "lat": 40.5216009,
      "lon": -75.0118337
    },
    {
      "type": "way",
      "id": 346394600,
      "center": {
        "lat": 40.5148116,
        "lon": -74.9768181
      },
      "tags": {
        "name": "Frenchtown Solar 2",
        "operator": "Consolidated Edison Development Inc.",
        "plant:method": "photovoltaic",
        "plant:output:electricity": "3 MW",
        "plant:source": "solar",
        "power": "plant",
        "ref:US:EIA": "57487",
        "source": "U.S. Energy Information Administration - EIA-860 - 2022",
        "start_date": "2011-12"
      },
      "lat": 40.5148116,
      "lon": -74.9768181
    },
    {
      "type": "way",
      "id": 361799329,
      "center": {
        "lat": 40.4708399,
        "lon": -74.3832344
      },
      "tags": {
        "name": "ILR Landfill",
        "operator": "ILR Landfill",
        "plant:method": "photovoltaic",
        "plant:output:electricity": "6.6 MW",
        "plant:source": "solar",
        "power": "plant",
        "ref:US:EIA": "60375",
        "source": "U.S. Energy Information Administration - EIA-860 - 2022",
        "start_date": "2016-12"
      },
      "lat": 40.4708399,
      "lon": -74.3832344
    },
    {
      "type": "way",
      "id": 365010225,
      "center": {
        "lat": 39.9176528,
        "lon": -75.1188172
      },
      "tags": {
        "barrier": "fence",
        "landuse": "industrial",
        "name": "Camden Cogeneration Plant",
        "operator": "Camden Plant Holdings LLC",
        "plant:method": "combustion",
        "plant:output:electricity": "172.9 MW",
        "plant:source": "gas",
        "plant:type": "combined_cycle",
        "power": "plant",
        "ref:US:EIA": "10751",
        "source": "http://www.energyjustice.net/map/displayfacility-67206.htm",
        "start_date": "1993-03"
      },
      "lat": 39.9176528,
      "lon": -75.1188172
    },
    {
      "type": "way",
      "id": 378250807,
      "center": {
        "lat": 40.6235315,
        "lon": -74.2096248
      },
      "tags": {
        "landuse": "industrial",
        "name": "Linden Generating Station",
        "operator": "Public Service Enterprise Group",
        "operator:wikidata": "Q930919",
        "plant:method": "combustion",
        "plant:output:electricity": "1740 MW",
        "plant:source": "gas",
        "power": "plant",
        "ref:US:EIA": "2406",
        "source": "NJ2002LULC",
        "start_date": "1957-05",
        "wikidata": "Q11994572"
      },
      "lat": 40.6235315,
      "lon": -74.2096248
    },
    {
      "type": "way",
      "id": 387150086,
      "center": {
        "lat": 40.7393577,
        "lon": -74.1872379
      },
      "tags": {
        "building": "yes",
        "name": "Rutgers Health Sciences Power Plant",
        "operator": "Rutgers, The State University of NJ",
        "plant:method": "combustion",
        "plant:output:electricity": "10.5 MW",
        "plant:output:hot_water": "yes",
        "plant:source": "gas",
        "power": "plant",
        "ref:US:EIA": "50411",
        "source": "U.S. Energy Information Administration - EIA-860 - 2020",
        "start_date": "1989-07"
      },
      "lat": 40.7393577,
      "lon": -74.1872379
    },
    {
      "type": "way",
      "id": 418988645,
      "center": {
        "lat": 40.9071474,
        "lon": -75.0804511
      },
      "tags": {
        "barrier": "fence",
        "landuse": "industrial",
        "name": "Portland Generating Station",
        "operator": "Portland Power, LLC",
        "plant:method": "combustion",
        "plant:output:electricity": "194 MW",
        "plant:source": "oil",
        "power": "plant",
        "ref:US:EIA": "3113",
        "source": "U.S. Energy Information Administration - EIA-860 - 2021",
        "start_date": "1958-10",
        "wikidata": "Q11996069"
      },
      "lat": 40.9071474,
      "lon": -75.0804511
    },
    {
      "type": "way",
      "id": 419361417,
      "center": {
        "lat": 41.0008225,
        "lon": -75.0316475
      },
      "tags": {
        "name": "Yards Creek Generating Station",
        "operator": "FirstEnergy",
        "plant:method": "water-pumped-storage",
        "plant:output:electricity": "453 MW",
        "plant:source": "hydro",
        "power": "plant",
        "ref:US:EIA": "6522",
        "source": "U.S. Energy Information Administration - EIA-860 - 2020",
        "start_date": "1965-09",
        "wikidata": "Q12010951",
        "wikipedia": "en:Yards Creek Generating Station"
      },
      "lat": 41.0008225,
      "lon": -75.0316475
    },
    {
      "type": "way",
      "id": 421695210,
      "center": {
        "lat": 40.6510506,
        "lon": -74.0253988
      },
      "tags": {
        "area": "yes",
        "landuse": "industrial",
        "man_made": "pier",
        "name": "Narrows Gas Turbines Generating",
        "operator": "U S Power Generating Company LLC",
        "plant:method": "combustion",
        "plant:output:electricity": "352 MW",
        "plant:source": "gas",
        "power": "plant",
        "ref:US:EIA": "2499",
        "source": "U.S. Energy Information Administration - EIA-860 - 2019",
        "start_date": "1972-05",
        "wikidata": "Q11990874"
      },
      "lat": 40.6510506,
      "lon": -74.0253988
    },
    {
      "type": "way",
      "id": 425545120,
      "center": {
        "lat": 40.6195487,
        "lon": -74.2147816
      },
      "tags": {
        "name": "Linden Solar Farm",
        "operator": "Public Service Enterprise Group",
        "operator:wikidata": "Q930919",
        "plant:method": "photovoltaic",
        "plant:output:electricity": "2.7 MW",
        "plant:source": "solar",
        "power": "plant",
        "ref:US:EIA": "57381",
        "source": "U.S. Energy Information Administration - EIA-860 - 2022",
        "start_date": "2010-12"
      },
      "lat": 40.6195487,
      "lon": -74.2147816
    },
    {
      "type": "way",
      "id": 427315772,
      "center": {
        "lat": 40.756693,
        "lon": -74.3399646
      },
      "tags": {
        "barrier": "fence",
        "plant:method": "photovoltaic",
        "plant:output:electricity": "yes",
        "plant:source": "solar",
        "power": "plant"
      },
      "lat": 40.756693,
      "lon": -74.3399646
    },
    {
      "type": "way",
      "id": 458786057,
      "center": {
        "lat": 40.6842879,
        "lon": -74.4043544
      },
      "tags": {
        "barrier": "fence",
        "name": "Murray Hill Solar",
        "operator": "Consolidated Edison Development Inc.",
        "plant:method": "photovoltaic",
        "plant:output:electricity": "1 MW",
        "plant:source": "solar",
        "power": "plant",
        "ref:US:EIA": "57471",
        "source": "U.S. Energy Information Administration - EIA-860 - 2020",
        "start_date": "2011-05"
      },
      "lat": 40.6842879,
      "lon": -74.4043544
    },
    {
      "type": "way",
      "id": 484712921,
      "center": {
        "lat": 40.4706149,
        "lon": -74.6852382
      },
      "tags": {
        "operator": "Sunlight General Solar Fund II, LLC",
        "plant:method": "photovoltaic",
        "plant:output:electricity": "1.5 MW",
        "plant:source": "solar",
        "power": "plant",
        "ref:US:EIA": "59297",
        "source": "U.S. Energy Information Administration - EIA-860 - 2022",
        "start_date": "2009-10"
      },
      "lat": 40.4706149,
      "lon": -74.6852382
    },
    {
      "type": "way",
      "id": 484727935,
      "center": {
        "lat": 40.2863739,
        "lon": -74.7433159
      },
      "tags": {
        "plant:method": "photovoltaic",
        "plant:output:electricity": "yes",
        "plant:source": "solar",
        "power": "plant"
      },
      "lat": 40.2863739,
      "lon": -74.7433159
    },
    {
      "type": "way",
      "id": 521952488,
      "center": {
        "lat": 40.2560216,
        "lon": -74.6461077
      },
      "tags": {
        "name": "Mercer County Community College",
        "operator": "Sunlight General Mercer Solar LLC",
        "plant:method": "photovoltaic",
        "plant:output:electricity": "7.5 MW",
        "plant:source": "solar",
        "power": "plant",
        "ref:US:EIA": "58882",
        "source": "U.S. Energy Information Administration - EIA-860 - 2021",
        "start_date": "2013-09"
      },
      "lat": 40.2560216,
      "lon": -74.6461077
    },
    {
      "type": "way",
      "id": 524222095,
      "center": {
        "lat": 40.2773364,
        "lon": -74.5564195
      },
      "tags": {
        "name": "McGraw-Hill Solar Farm",
        "operator": "NJR Clean Energy Ventures Corporation",
        "plant:method": "photovoltaic",
        "plant:output:electricity": "12 MW",
        "plant:source": "solar",
        "power": "plant",
        "ref:US:EIA": "57662",
        "source": "U.S. Energy Information Administration - EIA-860 - 2022",
        "start_date": "2011-12"
      },
      "lat": 40.2773364,
      "lon": -74.5564195
    },
    {
      "type": "way",
      "id": 537037124,
      "center": {
        "lat": 40.2996589,
        "lon": -74.7197541
      },
      "tags": {
        "name": "Lawrenceville School Solar Farm",
        "operator": "KDC Solar",
        "plant:method": "photovoltaic",
        "plant:output:electricity": "5.2 MW",
        "plant:source": "solar",
        "power": "plant",
        "ref:US:EIA": "58356",
        "source": "U.S. Energy Information Administration - EIA-860 - 2021",
        "start_date": "2012-05"
      },
      "lat": 40.2996589,
      "lon": -74.7197541
    },
    {
      "type": "way",
      "id": 538975195,
      "center": {
        "lat": 40.6528881,
        "lon": -74.0915966
      },
      "tags": {
        "landuse": "industrial",
        "name": "Bayonne Energy Center",
        "operator": "Bayonne Energy Center LLC",
        "plant:method": "combustion",
        "plant:output:electricity": "644 MW",
        "plant:source": "gas",
        "power": "plant",
        "ref:US:EIA": "56964",
        "source": "U.S. Energy Information Administration - EIA-860 - 2019",
        "start_date": "2012-06",
        "wikidata": "Q19866158"
      },
      "lat": 40.6528881,
      "lon": -74.0915966
    },
    {
      "type": "way",
      "id": 542100951,
      "center": {
        "lat": 39.749669,
        "lon": -75.017873
      },
      "tags": {
        "plant:method": "photovoltaic",
        "plant:output:electricity": "yes",
        "plant:source": "solar",
        "power": "plant"
      },
      "lat": 39.749669,
      "lon": -75.017873
    },
    {
      "type": "way",
      "id": 543955494,
      "center": {
        "lat": 40.8454988,
        "lon": -75.0607196
      },
      "tags": {
        "name": "DSM Solar",
        "operator": "Goldman Sachs Renewable Power Group",
        "plant:method": "photovoltaic",
        "plant:output:electricity": "4.5 MW",
        "plant:source": "solar",
        "power": "plant",
        "ref:US:EIA": "60739",
        "source": "U.S. Energy Information Administration - EIA-860 - 2021",
        "start_date": "2014-12"
      },
      "lat": 40.8454988,
      "lon": -75.0607196
    },
    {
      "type": "way",
      "id": 545688367,
      "center": {
        "lat": 40.4865371,
        "lon": -74.8535635
      },
      "tags": {
        "name": "Flemington Solar",
        "operator": "Consolidated Edison Development Inc.",
        "plant:method": "photovoltaic",
        "plant:output:electricity": "8 MW",
        "plant:source": "solar",
        "power": "plant",
        "ref:US:EIA": "57485",
        "source": "U.S. Energy Information Administration - EIA-860 - 2021",
        "start_date": "2011-12"
      },
      "lat": 40.4865371,
      "lon": -74.8535635
    },
    {
      "type": "way",
      "id": 545850894,
      "center": {
        "lat": 40.4634205,
        "lon": -74.8558685
      },
      "tags": {
        "name": "Raritan Solar",
        "operator": "Goldman Sachs Renewable Power Group",
        "plant:method": "photovoltaic",
        "plant:output:electricity": "7.5 MW",
        "plant:source": "solar",
        "power": "plant",
        "ref:US:EIA": "60729",
        "source": "U.S. Energy Information Administration - EIA-860 - 2021",
        "start_date": "2016-04"
      },
      "lat": 40.4634205,
      "lon": -74.8558685
    },
    {
      "type": "way",
      "id": 553096363,
      "center": {
        "lat": 40.3350133,
        "lon": -74.6468552
      },
      "tags": {
        "name": "Princeton University Solar Farm",
        "plant:method": "photovoltaic",
        "plant:output:electricity": "4.5 MW",
        "plant:source": "solar",
        "power": "plant"
      },
      "lat": 40.3350133,
      "lon": -74.6468552
    },
    {
      "type": "way",
      "id": 566118537,
      "center": {
        "lat": 40.2624661,
        "lon": -74.0840936
      },
      "tags": {
        "name": "Tinton Falls Solar Farm",
        "operator": "Tinton Falls Solar",
        "plant:method": "photovoltaic",
        "plant:output:electricity": "16 MW",
        "plant:source": "solar",
        "power": "plant",
        "ref:US:EIA": "58483",
        "source": "U.S. Energy Information Administration - EIA-860 - 2021",
        "start_date": "2012-11",
        "wikidata": "Q7808531",
        "wikipedia": "en:Tinton Falls Solar Farm"
      },
      "lat": 40.2624661,
      "lon": -74.0840936
    },
    {
      "type": "way",
      "id": 597474545,
      "center": {
        "lat": 39.9402522,
        "lon": -75.0680758
      },
      "tags": {
        "generator:source": "solar",
        "plant:method": "photovoltaic",
        "plant:output:electricity": "yes",
        "plant:source": "solar",
        "power": "plant"
      },
      "lat": 39.9402522,
      "lon": -75.0680758
    },
    {
      "type": "way",
      "id": 598362314,
      "center": {
        "lat": 40.4239264,
        "lon": -74.4886039
      },
      "tags": {
        "name": "Middlesex Apple Orchard Solar",
        "operator": "CVI CleanCapital Solar 4 LLC",
        "plant:method": "photovoltaic",
        "plant:output:electricity": "4.7 MW",
        "plant:source": "solar",
        "power": "plant",
        "ref:US:EIA": "58090",
        "source": "U.S. Energy Information Administration - EIA-860 - 2022",
        "start_date": "2013-04"
      },
      "lat": 40.4239264,
      "lon": -74.4886039
    },
    {
      "type": "way",
      "id": 598363619,
      "center": {
        "lat": 40.4289326,
        "lon": -74.4913171
      },
      "tags": {
        "plant:method": "photovoltaic",
        "plant:output:electricity": "yes",
        "plant:source": "solar",
        "power": "plant"
      },
      "lat": 40.4289326,
      "lon": -74.4913171
    },
    {
      "type": "way",
      "id": 605304482,
      "center": {
        "lat": 39.7720891,
        "lon": -74.9906993
      },
      "tags": {
        "plant:method": "photovoltaic",
        "plant:output:electricity": "yes",
        "plant:source": "solar",
        "power": "plant"
      },
      "lat": 39.7720891,
      "lon": -74.9906993
    },
    {
      "type": "way",
      "id": 605924493,
      "center": {
        "lat": 40.7593052,
        "lon": -74.9350652
      },
      "tags": {
        "industrial": "power",
        "name": "NHA at Mansfield NJ",
        "operator": "Luminace Solar New Jersey, LLC",
        "plant:method": "photovoltaic",
        "plant:output:electricity": "5 MW",
        "plant:source": "solar",
        "power": "plant",
        "ref:US:EIA": "60378",
        "source": "U.S. Energy Information Administration - EIA-860 - 2022",
        "start_date": "2016-07"
      },
      "lat": 40.7593052,
      "lon": -74.9350652
    },
    {
      "type": "way",
      "id": 608390899,
      "center": {
        "lat": 39.9872051,
        "lon": -74.8014998
      },
      "tags": {
        "name": "Summit Water Nexus Mt. Holly, LLC Solar",
        "operator": "Summit Water Nexus, Mount Holly, LLC",
        "plant:method": "photovoltaic",
        "plant:output:electricity": "1 MW",
        "plant:source": "solar",
        "power": "plant",
        "ref:US:EIA": "60809",
        "source": "U.S. Energy Information Administration - EIA-860 - 2022",
        "start_date": "2013-05"
      },
      "lat": 39.9872051,
      "lon": -74.8014998
    },
    {
      "type": "way",
      "id": 609051378,
      "center": {
        "lat": 40.5755264,
        "lon": -74.3927269
      },
      "tags": {
        "name": "Glopak Solar PV Power Plant",
        "operator": "Glopak Corporation",
        "plant:method": "photovoltaic",
        "plant:output:electricity": "1 MW",
        "plant:source": "solar",
        "power": "plant",
        "ref:US:EIA": "61248",
        "source": "U.S. Energy Information Administration - EIA-860 - 2022",
        "start_date": "2011-08"
      },
      "lat": 40.5755264,
      "lon": -74.3927269
    },
    {
      "type": "way",
      "id": 610838004,
      "center": {
        "lat": 39.6979067,
        "lon": -75.116653
      },
      "tags": {
        "generator:source": "solar",
        "plant:method": "photovoltaic",
        "plant:output:electricity": "yes",
        "plant:source": "solar",
        "power": "plant"
      },
      "lat": 39.6979067,
      "lon": -75.116653
    },
    {
      "type": "way",
      "id": 612311269,
      "center": {
        "lat": 39.9384963,
        "lon": -75.10305
      },
      "tags": {
        "name": "BNB Camden Solar",
        "operator": "BNB Camden Solar LLC",
        "plant:method": "photovoltaic",
        "plant:output:electricity": "3.7 MW",
        "plant:source": "solar",
        "power": "plant",
        "ref:US:EIA": "61893",
        "source": "U.S. Energy Information Administration - EIA-860 - 2022",
        "start_date": "2017-12"
      },
      "lat": 39.9384963,
      "lon": -75.10305
    },
    {
      "type": "way",
      "id": 625797817,
      "center": {
        "lat": 40.4424875,
        "lon": -74.8760503
      },
      "tags": {
        "name": "East Amwell",
        "operator": "NJR Clean Energy Ventures Corporation",
        "plant:method": "photovoltaic",
        "plant:output:electricity": "1.8 MW",
        "plant:source": "solar",
        "power": "plant",
        "ref:US:EIA": "60327",
        "source": "U.S. Energy Information Administration - EIA-860 - 2021",
        "start_date": "2016-05"
      },
      "lat": 40.4424875,
      "lon": -74.8760503
    },
    {
      "type": "way",
      "id": 626251876,
      "center": {
        "lat": 39.4217615,
        "lon": -74.6402679
      },
      "tags": {
        "name": "South Jersey Gas",
        "power": "plant"
      },
      "lat": 39.4217615,
      "lon": -74.6402679
    },
    {
      "type": "way",
      "id": 631562518,
      "center": {
        "lat": 40.2376689,
        "lon": -74.7305955
      },
      "tags": {
        "plant:method": "photovoltaic",
        "plant:output:electricity": "yes",
        "plant:source": "solar",
        "power": "plant"
      },
      "lat": 40.2376689,
      "lon": -74.7305955
    },
    {
      "type": "way",
      "id": 637343182,
      "center": {
        "lat": 39.9815637,
        "lon": -74.7655973
      },
      "tags": {
        "name": "L&D Landfill Solar Farm",
        "operator": "Public Service Enterprise Group",
        "operator:wikidata": "Q930919",
        "plant:method": "photovoltaic",
        "plant:output:electricity": "10 MW",
        "plant:source": "solar",
        "power": "plant",
        "ref:US:EIA": "59601",
        "source": "U.S. Energy Information Administration - EIA-860 - 2021",
        "start_date": "2015-12"
      },
      "lat": 39.9815637,
      "lon": -74.7655973
    },
    {
      "type": "way",
      "id": 647843909,
      "center": {
        "lat": 40.4833069,
        "lon": -75.0161164
      },
      "tags": {
        "name": "Frenchtown Solar 3",
        "operator": "Consolidated Edison Development Inc.",
        "plant:method": "photovoltaic",
        "plant:output:electricity": "7.9 MW",
        "plant:source": "solar",
        "power": "plant",
        "ref:US:EIA": "58564",
        "source": "U.S. Energy Information Administration - EIA-860 - 2021",
        "start_date": "2013-12"
      },
      "lat": 40.4833069,
      "lon": -75.0161164
    },
    {
      "type": "way",
      "id": 666943318,
      "center": {
        "lat": 40.5569153,
        "lon": -74.2476436
      },
      "tags": {
        "landuse": "industrial",
        "name": "PSEG Sewaren Generating Station",
        "operator": "PSEG",
        "plant:method": "combustion",
        "plant:output:electricity": "609.5 MW",
        "plant:source": "gas",
        "plant:type": "combined_cycle",
        "power": "plant",
        "ref:US:EIA": "2411",
        "source": "http://globalenergyobservatory.org/geoid/4953",
        "start_date": "1948-11",
        "wikidata": "Q12000090"
      },
      "lat": 40.5569153,
      "lon": -74.2476436
    },
    {
      "type": "way",
      "id": 679145639,
      "center": {
        "lat": 39.4649819,
        "lon": -75.0678263
      },
      "tags": {
        "name": "Calpine Vineland Solar LLC",
        "operator": "Calpine Vineland Solar LLC",
        "plant:method": "photovoltaic",
        "plant:output:electricity": "4.1 MW",
        "plant:source": "solar",
        "power": "plant",
        "ref:US:EIA": "57081",
        "source": "U.S. Energy Information Administration - EIA-860 - 2021",
        "start_date": "2009-08"
      },
      "lat": 39.4649819,
      "lon": -75.0678263
    },
    {
      "type": "way",
      "id": 679145803,
      "center": {
        "lat": 39.4618786,
        "lon": -75.0700626
      },
      "tags": {
        "name": "The City of Vineland at West Vineland",
        "operator": "Constellation Solar New Jersey, LLC",
        "plant:method": "photovoltaic",
        "plant:output:electricity": "3.7 MW",
        "plant:source": "solar",
        "power": "plant",
        "ref:US:EIA": "57745",
        "source": "U.S. Energy Information Administration - EIA-860 - 2021",
        "start_date": "2011-10"
      },
      "lat": 39.4618786,
      "lon": -75.0700626
    },
    {
      "type": "way",
      "id": 682684568,
      "center": {
        "lat": 40.5566685,
        "lon": -74.5753151
      },
      "tags": {
        "name": "10 Finderne Avenue Solar, LLC",
        "operator": "Greenbacker Renewable Energy Corporation",
        "plant:method": "photovoltaic",
        "plant:output:electricity": "2.3 MW",
        "plant:source": "solar",
        "power": "plant",
        "ref:US:EIA": "64023",
        "source": "U.S. Energy Information Administration - EIA-860 - 2022",
        "start_date": "2017-11"
      },
      "lat": 40.5566685,
      "lon": -74.5753151
    },
    {
      "type": "way",
      "id": 690906734,
      "center": {
        "lat": 40.3499446,
        "lon": -74.2829777
      },
      "tags": {
        "location": "surface",
        "plant:method": "photovoltaic",
        "plant:output:electricity": "yes",
        "plant:source": "solar",
        "power": "plant"
      },
      "lat": 40.3499446,
      "lon": -74.2829777
    },
    {
      "type": "way",
      "id": 690918966,
      "center": {
        "lat": 40.1807876,
        "lon": -74.5377934
      },
      "tags": {
        "location": "surface",
        "name": "Sharon Station",
        "operator": "NJR Clean Energy Ventures Corporation",
        "plant:method": "photovoltaic",
        "plant:output:electricity": "2.7 MW",
        "plant:source": "solar",
        "power": "plant",
        "ref:US:EIA": "60267",
        "source": "U.S. Energy Information Administration - EIA-860 - 2022",
        "start_date": "2016-05"
      },
      "lat": 40.1807876,
      "lon": -74.5377934
    },
    {
      "type": "way",
      "id": 691316274,
      "center": {
        "lat": 40.0445165,
        "lon": -74.6095881
      },
      "tags": {
        "barrier": "fence",
        "name": "Spartan",
        "operator": "Altus Power America Management, LLC",
        "plant:method": "photovoltaic",
        "plant:output:electricity": "8.3 MW",
        "plant:source": "solar",
        "plant:type": "solar_photovoltaic_panel",
        "power": "plant",
        "ref:US:EIA": "60755",
        "source": "U.S. Energy Information Administration - EIA-860 - 2022",
        "start_date": "2017-03"
      },
      "lat": 40.0445165,
      "lon": -74.6095881
    },
    {
      "type": "way",
      "id": 694066586,
      "center": {
        "lat": 40.1628131,
        "lon": -74.7681213
      },
      "tags": {
        "landuse": "industrial",
        "name": "Wheelabrator Falls",
        "operator": "Wheelabrator Environmental Systems",
        "plant:method": "combustion",
        "plant:output:electricity": "53.3 MW",
        "plant:source": "waste",
        "power": "plant",
        "ref:US:EIA": "54746",
        "source": "U.S. Energy Information Administration - EIA-860 - 2020",
        "start_date": "1994-05"
      },
      "lat": 40.1628131,
      "lon": -74.7681213
    },
    {
      "type": "way",
      "id": 694373284,
      "center": {
        "lat": 40.2565321,
        "lon": -74.3499429
      },
      "tags": {
        "name": "Manalapan Village Solar",
        "operator": "NJR Clean Energy Ventures Corporation",
        "plant:method": "photovoltaic",
        "plant:output:electricity": "3.5 MW",
        "plant:source": "solar",
        "power": "plant",
        "ref:US:EIA": "57661",
        "source": "U.S. Energy Information Administration - EIA-860 - 2020",
        "start_date": "2011-12"
      },
      "lat": 40.2565321,
      "lon": -74.3499429
    },
    {
      "type": "way",
      "id": 699492012,
      "center": {
        "lat": 40.2330884,
        "lon": -74.0890838
      },
      "tags": {
        "name": "Seabrook Village",
        "operator": "CVI CleanCapital Solar 5 LLC",
        "plant:method": "photovoltaic",
        "plant:output:electricity": "3.1 MW",
        "plant:source": "solar",
        "power": "plant",
        "ref:US:EIA": "60747",
        "source": "U.S. Energy Information Administration - EIA-860 - 2021",
        "start_date": "2016-09"
      },
      "lat": 40.2330884,
      "lon": -74.0890838
    },
    {
      "type": "way",
      "id": 699506611,
      "center": {
        "lat": 39.3805659,
        "lon": -75.1895779
      },
      "tags": {
        "name": "NJ Oak Solar Plant",
        "operator": "NJR Clean Energy Ventures Corporation",
        "plant:method": "photovoltaic",
        "plant:output:electricity": "10 MW",
        "plant:source": "solar",
        "power": "plant",
        "ref:US:EIA": "57948",
        "source": "U.S. Energy Information Administration - EIA-860 - 2021",
        "start_date": "2011-12"
      },
      "lat": 39.3805659,
      "lon": -75.1895779
    },
    {
      "type": "way",
      "id": 699511122,
      "center": {
        "lat": 39.4890624,
        "lon": -74.9800829
      },
      "tags": {
        "name": "Maple Solar",
        "operator": "NFI Solar LLC",
        "plant:method": "photovoltaic",
        "plant:output:electricity": "2.4 MW",
        "plant:source": "solar",
        "power": "plant",
        "ref:US:EIA": "57750",
        "source": "U.S. Energy Information Administration - EIA-860 - 2021",
        "start_date": "2011-05"
      },
      "lat": 39.4890624,
      "lon": -74.9800829
    },
    {
      "type": "way",
      "id": 699513439,
      "center": {
        "lat": 39.6126239,
        "lon": -75.312177
      },
      "tags": {
        "name": "Pilesgrove",
        "operator": "Consolidated Edison Development Inc.",
        "plant:method": "photovoltaic",
        "plant:output:electricity": "18 MW",
        "plant:source": "solar",
        "power": "plant",
        "ref:US:EIA": "57448",
        "source": "NJ2002LULC",
        "start_date": "2011-08",
        "wikidata": "Q7193891"
      },
      "lat": 39.6126239,
      "lon": -75.312177
    },
    {
      "type": "way",
      "id": 699518639,
      "center": {
        "lat": 40.2924189,
        "lon": -74.8558039
      },
      "tags": {
        "name": "Titusville Solar",
        "operator": "Janssen Pharmaceutical Co",
        "plant:method": "photovoltaic",
        "plant:output:electricity": "4.1 MW",
        "plant:source": "solar",
        "power": "plant",
        "ref:US:EIA": "57815",
        "source": "U.S. Energy Information Administration - EIA-860 - 2022",
        "start_date": "2010-09"
      },
      "lat": 40.2924189,
      "lon": -74.8558039
    },
    {
      "type": "way",
      "id": 699522117,
      "center": {
        "lat": 40.8611018,
        "lon": -74.8217902
      },
      "tags": {
        "landuse": "industrial",
        "name": "PSEG Hackettstown",
        "operator": "Public Service Enterprise Group",
        "operator:wikidata": "Q930919",
        "plant:method": "photovoltaic",
        "plant:output:electricity": "2 MW",
        "plant:source": "solar",
        "power": "plant",
        "ref:US:EIA": "57204",
        "source": "U.S. Energy Information Administration - EIA-860 - 2021",
        "start_date": "2009-09"
      },
      "lat": 40.8611018,
      "lon": -74.8217902
    },
    {
      "type": "way",
      "id": 702232583,
      "center": {
        "lat": 39.7197084,
        "lon": -75.2584538
      },
      "tags": {
        "plant:method": "photovoltaic",
        "plant:output:electricity": "yes",
        "plant:source": "solar",
        "power": "plant"
      },
      "lat": 39.7197084,
      "lon": -75.2584538
    },
    {
      "type": "way",
      "id": 702244917,
      "center": {
        "lat": 39.5033375,
        "lon": -74.9640816
      },
      "tags": {
        "name": "Cedar Branch",
        "operator": "NJR Clean Energy Ventures Corporation",
        "plant:method": "photovoltaic",
        "plant:output:electricity": "5.9 MW",
        "plant:source": "solar",
        "power": "plant",
        "ref:US:EIA": "60266",
        "source": "U.S. Energy Information Administration - EIA-860 - 2020",
        "start_date": "2016-10"
      },
      "lat": 39.5033375,
      "lon": -74.9640816
    },
    {
      "type": "way",
      "id": 702269248,
      "center": {
        "lat": 39.4756863,
        "lon": -74.9275046
      },
      "tags": {
        "plant:method": "photovoltaic",
        "plant:output:electricity": "yes",
        "plant:source": "solar",
        "power": "plant"
      },
      "lat": 39.4756863,
      "lon": -74.9275046
    },
    {
      "type": "way",
      "id": 704882001,
      "center": {
        "lat": 39.0010416,
        "lon": -74.9078924
      },
      "tags": {
        "plant:method": "photovoltaic",
        "plant:output:electricity": "yes",
        "plant:source": "solar",
        "power": "plant"
      },
      "lat": 39.0010416,
      "lon": -74.9078924
    },
    {
      "type": "way",
      "id": 707135992,
      "center": {
        "lat": 39.9142071,
        "lon": -75.1348984
      },
      "tags": {
        "alt_name": "Southwark Station Philadelphia Electric Co.",
        "landuse": "industrial",
        "name": "Southwark Generating Station",
        "operator": "Exelon",
        "operator:wikidata": "Q1383669",
        "plant:method": "combustion",
        "plant:output:electricity": "74.4 MW",
        "plant:source": "oil",
        "power": "plant",
        "ref:US:EIA": "3170",
        "source": "U.S. Energy Information Administration - EIA-860 - 2021",
        "start_date": "1967-06"
      },
      "lat": 39.9142071,
      "lon": -75.1348984
    },
    {
      "type": "way",
      "id": 712976075,
      "center": {
        "lat": 39.9336812,
        "lon": -74.7442905
      },
      "tags": {
        "plant:method": "photovoltaic",
        "plant:output:electricity": "yes",
        "plant:source": "solar",
        "power": "plant"
      },
      "lat": 39.9336812,
      "lon": -74.7442905
    },
    {
      "type": "way",
      "id": 713847023,
      "center": {
        "lat": 40.0791198,
        "lon": -74.5269867
      },
      "tags": {
        "plant:method": "photovoltaic",
        "plant:output:electricity": "yes",
        "plant:source": "solar",
        "power": "plant"
      },
      "lat": 40.0791198,
      "lon": -74.5269867
    },
    {
      "type": "way",
      "id": 731750483,
      "center": {
        "lat": 39.9892563,
        "lon": -75.0406201
      },
      "tags": {
        "plant:method": "photovoltaic",
        "plant:output:electricity": "yes",
        "plant:source": "solar",
        "power": "plant"
      },
      "lat": 39.9892563,
      "lon": -75.0406201
    },
    {
      "type": "way",
      "id": 738334783,
      "center": {
        "lat": 40.4369924,
        "lon": -74.3357667
      },
      "tags": {
        "description": "This Floating Solar Array is the first in New Jersey and the largest in the country with 12,700 solar panels. It powers 100% of Sayreville's water treatment plant.",
        "floating": "yes",
        "image": "https://www.startpage.com/av/proxy-image?piurl=https%3A%2F%2Fencrypted-tbn0.gstatic.com%2Fimages%3Fq%3Dtbn%3AANd9GcQd2qiQFj53wRh09MwwUd76XwaZaZgxQIq3iVT6qm5gvSAZxZs%26s&sp=1637090115Tf781fedc970644e527e89ad57baba38d8d647599a5b326ad4757198b816d88c2",
        "location": "floating",
        "name": "Sayreville Floating Solar Array",
        "operator": "NJR Clean Energy Ventures Corporation",
        "plant:method": "photovoltaic",
        "plant:output:electricity": "4.4 MW",
        "plant:source": "solar",
        "power": "plant",
        "ref:US:EIA": "63185",
        "source": "U.S. Energy Information Administration - EIA-860 - 2021",
        "start_date": "2019-09",
        "wikidata": "Q109051088"
      },
      "lat": 40.4369924,
      "lon": -74.3357667
    },
    {
      "type": "way",
      "id": 742714301,
      "center": {
        "lat": 40.4942934,
        "lon": -74.4175692
      },
      "tags": {
        "name": "Highland Park Solar Storage System",
        "operator": "Public Service Enterprise Group",
        "operator:wikidata": "Q930919",
        "plant:method": "photovoltaic",
        "plant:output:electricity": "605 kW",
        "plant:source": "solar",
        "power": "plant",
        "ref:US:EIA": "65468",
        "start_date": "2020-02-18"
      },
      "lat": 40.4942934,
      "lon": -74.4175692
    },
    {
      "type": "way",
      "id": 755747934,
      "center": {
        "lat": 39.4162269,
        "lon": -74.5453401
      },
      "tags": {
        "name": "Delilah Road Landfill",
        "operator": "CVI CleanCapital Solar 5 LLC",
        "plant:method": "photovoltaic",
        "plant:output:electricity": "8.5 MW",
        "plant:source": "solar",
        "power": "plant",
        "ref:US:EIA": "58951",
        "source": "U.S. Energy Information Administration - EIA-860 - 2022",
        "start_date": "2016-10"
      },
      "lat": 39.4162269,
      "lon": -74.5453401
    },
    {
      "type": "way",
      "id": 767624517,
      "center": {
        "lat": 40.7385022,
        "lon": -74.1263474
      },
      "tags": {
        "landuse": "industrial",
        "name": "Covanta Essex Company",
        "operator": "Covanta Essex Company",
        "plant:method": "combustion",
        "plant:output:electricity": "60 MW",
        "plant:source": "waste",
        "power": "plant",
        "ref:US:EIA": "10643",
        "source": "U.S. Energy Information Administration - EIA-860 - 2019",
        "start_date": "1990-11",
        "wikidata": "Q18751288"
      },
      "lat": 40.7385022,
      "lon": -74.1263474
    },
    {
      "type": "way",
      "id": 767739717,
      "center": {
        "lat": 40.0157371,
        "lon": -74.9837525
      },
      "tags": {
        "landuse": "landfill",
        "name": "Cinnaminson Landfill Solar",
        "operator": "Public Service Enterprise Group",
        "operator:wikidata": "Q930919",
        "plant:method": "photovoltaic",
        "plant:output:electricity": "10 MW",
        "plant:source": "solar",
        "power": "plant",
        "ref:US:EIA": "65465",
        "source": "U.S. Energy Information Administration - EIA-860 - 2021",
        "start_date": "2019-03"
      },
      "lat": 40.0157371,
      "lon": -74.9837525
    },
    {
      "type": "way",
      "id": 772765923,
      "center": {
        "lat": 39.7145785,
        "lon": -75.1530948
      },
      "tags": {
        "plant:method": "photovoltaic",
        "plant:output:electricity": "yes",
        "plant:source": "solar",
        "power": "plant"
      },
      "lat": 39.7145785,
      "lon": -75.1530948
    },
    {
      "type": "way",
      "id": 785140149,
      "center": {
        "lat": 40.5640419,
        "lon": -74.9985489
      },
      "tags": {
        "barrier": "fence",
        "landuse": "industrial",
        "plant:method": "photovoltaic",
        "plant:output:electricity": "yes",
        "plant:source": "solar",
        "power": "plant"
      },
      "lat": 40.5640419,
      "lon": -74.9985489
    },
    {
      "type": "way",
      "id": 793500976,
      "center": {
        "lat": 40.6947438,
        "lon": -75.1468262
      },
      "tags": {
        "name": "Berry Plastics Solar",
        "operator": "Goldman Sachs Renewable Power Group",
        "plant:method": "photovoltaic",
        "plant:output:electricity": "9.8 MW",
        "plant:source": "solar",
        "power": "plant",
        "ref:US:EIA": "59097",
        "source": "U.S. Energy Information Administration - EIA-860 - 2021",
        "start_date": "2013-12"
      },
      "lat": 40.6947438,
      "lon": -75.1468262
    },
    {
      "type": "way",
      "id": 795530810,
      "center": {
        "lat": 39.5027687,
        "lon": -74.8749355
      },
      "tags": {
        "plant:method": "photovoltaic",
        "plant:output:electricity": "yes",
        "plant:source": "solar",
        "power": "plant"
      },
      "lat": 39.5027687,
      "lon": -74.8749355
    },
    {
      "type": "way",
      "id": 795530811,
      "center": {
        "lat": 39.5033595,
        "lon": -74.8769382
      },
      "tags": {
        "plant:method": "photovoltaic",
        "plant:output:electricity": "yes",
        "plant:source": "solar",
        "power": "plant"
      },
      "lat": 39.5033595,
      "lon": -74.8769382
    },
    {
      "type": "way",
      "id": 803876493,
      "center": {
        "lat": 40.0387062,
        "lon": -74.7772309
      },
      "tags": {
        "name": "Bordentown Solar",
        "operator": "Goldman Sachs Renewable Power Group",
        "plant:method": "photovoltaic",
        "plant:output:electricity": "6.8 MW",
        "plant:source": "solar",
        "power": "plant",
        "ref:US:EIA": "60734",
        "source": "U.S. Energy Information Administration - EIA-860 - 2020",
        "start_date": "2015-12"
      },
      "lat": 40.0387062,
      "lon": -74.7772309
    },
    {
      "type": "way",
      "id": 817730380,
      "center": {
        "lat": 40.0057959,
        "lon": -74.9430666
      },
      "tags": {
        "plant:method": "photovoltaic",
        "plant:output:electricity": "yes",
        "plant:source": "solar",
        "power": "plant"
      },
      "lat": 40.0057959,
      "lon": -74.9430666
    },
    {
      "type": "way",
      "id": 825459374,
      "center": {
        "lat": 39.922139,
        "lon": -74.8066622
      },
      "tags": {
        "barrier": "fence",
        "name": "Medford WWTP",
        "operator": "NJR Clean Energy Ventures Corporation",
        "plant:method": "photovoltaic",
        "plant:output:electricity": "1.3 MW",
        "plant:source": "solar",
        "power": "plant",
        "ref:US:EIA": "59277",
        "source": "U.S. Energy Information Administration - EIA-860 - 2020",
        "start_date": "2013-08"
      },
      "lat": 39.922139,
      "lon": -74.8066622
    },
    {
      "type": "way",
      "id": 825459375,
      "center": {
        "lat": 39.9281487,
        "lon": -74.8153937
      },
      "tags": {
        "barrier": "fence",
        "name": "Reeves Station",
        "operator": "NJR Clean Energy Ventures Corporation",
        "plant:method": "photovoltaic",
        "plant:output:electricity": "6.5 MW",
        "plant:source": "solar",
        "power": "plant",
        "ref:US:EIA": "59278;58030",
        "source": "U.S. Energy Information Administration - EIA-860 - 2021",
        "start_date": "2012-10"
      },
      "lat": 39.9281487,
      "lon": -74.8153937
    },
    {
      "type": "way",
      "id": 827980730,
      "center": {
        "lat": 39.4383197,
        "lon": -74.4963572
      },
      "tags": {
        "plant:method": "photovoltaic",
        "plant:output:electricity": "yes",
        "plant:source": "solar",
        "power": "plant"
      },
      "lat": 39.4383197,
      "lon": -74.4963572
    },
    {
      "type": "way",
      "id": 831092901,
      "center": {
        "lat": 39.3866707,
        "lon": -74.6472311
      },
      "tags": {
        "plant:method": "photovoltaic",
        "plant:output:electricity": "yes",
        "plant:source": "solar",
        "power": "plant"
      },
      "lat": 39.3866707,
      "lon": -74.6472311
    },
    {
      "type": "way",
      "id": 854071495,
      "center": {
        "lat": 39.6641519,
        "lon": -75.0941483
      },
      "tags": {
        "plant:method": "photovoltaic",
        "plant:output:electricity": "yes",
        "plant:source": "solar",
        "power": "plant"
      },
      "lat": 39.6641519,
      "lon": -75.0941483
    },
    {
      "type": "way",
      "id": 854071496,
      "center": {
        "lat": 39.6645575,
        "lon": -75.0966392
      },
      "tags": {
        "plant:method": "photovoltaic",
        "plant:output:electricity": "yes",
        "plant:source": "solar",
        "power": "plant"
      },
      "lat": 39.6645575,
      "lon": -75.0966392
    },
    {
      "type": "way",
      "id": 856148338,
      "center": {
        "lat": 39.6846884,
        "lon": -75.0992999
      },
      "tags": {
        "plant:method": "photovoltaic",
        "plant:output:electricity": "yes",
        "plant:source": "solar",
        "power": "plant"
      },
      "lat": 39.6846884,
      "lon": -75.0992999
    },
    {
      "type": "way",
      "id": 861227468,
      "center": {
        "lat": 40.6182017,
        "lon": -74.0683336
      },
      "tags": {
        "landuse": "industrial",
        "name": "Pouch",
        "operator": "New York Power Authority",
        "operator:short": "NYPA",
        "operator:wikidata": "Q269610",
        "plant:method": "combustion",
        "plant:output:electricity": "46 MW",
        "plant:source": "gas",
        "power": "plant",
        "ref:US:EIA": "8053",
        "source": "U.S. Energy Information Administration - EIA-860 - 2019",
        "start_date": "2001-08"
      },
      "lat": 40.6182017,
      "lon": -74.0683336
    },
    {
      "type": "way",
      "id": 861227470,
      "center": {
        "lat": 40.7070794,
        "lon": -74.127538
      },
      "tags": {
        "name": "Newark Energy Center",
        "operator": "Newark Energy Center, LLC",
        "plant:method": "combustion",
        "plant:output:electricity": "735 MW",
        "plant:source": "gas",
        "plant:type": "combined_cycle",
        "power": "plant",
        "ref:US:EIA": "58079",
        "source": "U.S. Energy Information Administration - EIA-860 - 2019",
        "start_date": "2015-09",
        "wikidata": "Q19363433"
      },
      "lat": 40.7070794,
      "lon": -74.127538
    },
    {
      "type": "way",
      "id": 861227471,
      "center": {
        "lat": 40.6632451,
        "lon": -74.0054445
      },
      "tags": {
        "alt_name": "Gowanus Gas Turbines Generating",
        "name": "Gowanus Power Plant",
        "operator": "U S Power Generating Company LLC",
        "plant:method": "combustion",
        "plant:output:electricity": "640 MW",
        "plant:source": "oil;gas",
        "power": "plant",
        "ref:US:EIA": "2494",
        "source": "U.S. Energy Information Administration - EIA-860 - 2019",
        "start_date": "1971-06",
        "wikidata": "Q17778233"
      },
      "lat": 40.6632451,
      "lon": -74.0054445
    },
    {
      "type": "way",
      "id": 863194149,
      "center": {
        "lat": 39.8157262,
        "lon": -74.2107474
      },
      "tags": {
        "landuse": "industrial",
        "name": "Forked River Power Plant",
        "operator": "Forked River Power, LLC",
        "plant:method": "combustion",
        "plant:output:electricity": "85 MW",
        "plant:source": "gas",
        "power": "plant",
        "ref:US:EIA": "7138",
        "source": "U.S. Energy Information Administration - EIA-860 - 2019"
      },
      "lat": 39.8157262,
      "lon": -74.2107474
    },
    {
      "type": "way",
      "id": 870504012,
      "center": {
        "lat": 40.3799384,
        "lon": -74.6261396
      },
      "tags": {
        "name": "Princeton Solar Project",
        "operator": "NJR Clean Energy Ventures Corporation",
        "plant:method": "photovoltaic",
        "plant:output:electricity": "2.2 MW",
        "plant:source": "solar",
        "power": "plant",
        "ref:US:EIA": "61354",
        "source": "U.S. Energy Information Administration - EIA-860 - 2021",
        "start_date": "2017-09"
      },
      "lat": 40.3799384,
      "lon": -74.6261396
    },
    {
      "type": "way",
      "id": 870504851,
      "center": {
        "lat": 40.3862904,
        "lon": -74.6201272
      },
      "tags": {
        "plant:method": "photovoltaic",
        "plant:output:electricity": "yes",
        "plant:source": "solar",
        "power": "plant"
      },
      "lat": 40.3862904,
      "lon": -74.6201272
    },
    {
      "type": "way",
      "id": 870855376,
      "center": {
        "lat": 40.3664201,
        "lon": -74.6968034
      },
      "tags": {
        "name": "Solar Farm",
        "plant:method": "photovoltaic",
        "plant:output:electricity": "yes",
        "plant:source": "solar",
        "power": "plant"
      },
      "lat": 40.3664201,
      "lon": -74.6968034
    },
    {
      "type": "way",
      "id": 871617027,
      "center": {
        "lat": 40.4199928,
        "lon": -74.6718504
      },
      "tags": {
        "building": "roof",
        "plant:method": "photovoltaic",
        "plant:output:electricity": "yes",
        "plant:source": "solar",
        "power": "plant"
      },
      "lat": 40.4199928,
      "lon": -74.6718504
    },
    {
      "type": "way",
      "id": 884591826,
      "center": {
        "lat": 40.1353044,
        "lon": -74.1738784
      },
      "tags": {
        "name": "Howell Solar",
        "operator": "MN8 Energy LLC",
        "plant:method": "photovoltaic",
        "plant:output:electricity": "7 MW",
        "plant:source": "solar;battery",
        "power": "plant",
        "ref:US:EIA": "60728",
        "source": "U.S. Energy Information Administration - EIA-860 - 2022",
        "start_date": "2016-03"
      },
      "lat": 40.1353044,
      "lon": -74.1738784
    },
    {
      "type": "way",
      "id": 897978876,
      "center": {
        "lat": 40.4132052,
        "lon": -74.653884
      },
      "tags": {
        "name": "Solar Farm",
        "plant:method": "photovoltaic",
        "plant:output:electricity": "yes",
        "plant:source": "solar",
        "power": "plant"
      },
      "lat": 40.4132052,
      "lon": -74.653884
    },
    {
      "type": "way",
      "id": 898090044,
      "center": {
        "lat": 40.4254625,
        "lon": -74.6702398
      },
      "tags": {
        "building": "roof",
        "layer": "1",
        "plant:method": "photovoltaic",
        "plant:output:electricity": "yes",
        "plant:source": "solar",
        "power": "plant"
      },
      "lat": 40.4254625,
      "lon": -74.6702398
    },
    {
      "type": "way",
      "id": 898101619,
      "center": {
        "lat": 40.4291969,
        "lon": -74.6719952
      },
      "tags": {
        "building": "roof",
        "layer": "1",
        "plant:method": "photovoltaic",
        "plant:output:electricity": "yes",
        "plant:source": "solar",
        "power": "plant"
      },
      "lat": 40.4291969,
      "lon": -74.6719952
    },
    {
      "type": "way",
      "id": 898101620,
      "center": {
        "lat": 40.4245271,
        "lon": -74.6681128
      },
      "tags": {
        "building": "roof",
        "layer": "1",
        "plant:method": "photovoltaic",
        "plant:output:electricity": "yes",
        "plant:source": "solar",
        "power": "plant"
      },
      "lat": 40.4245271,
      "lon": -74.6681128
    },
    {
      "type": "way",
      "id": 900930267,
      "center": {
        "lat": 40.2523429,
        "lon": -74.2560098
      },
      "tags": {
        "barrier": "fence",
        "plant:method": "photovoltaic",
        "plant:output:electricity": "yes",
        "plant:source": "solar",
        "power": "plant"
      },
      "lat": 40.2523429,
      "lon": -74.2560098
    },
    {
      "type": "way",
      "id": 900933931,
      "center": {
        "lat": 40.204087,
        "lon": -74.2203871
      },
      "tags": {
        "barrier": "fence",
        "plant:method": "photovoltaic",
        "plant:output:electricity": "yes",
        "plant:source": "solar",
        "power": "plant"
      },
      "lat": 40.204087,
      "lon": -74.2203871
    },
    {
      "type": "way",
      "id": 902694378,
      "center": {
        "lat": 40.4352132,
        "lon": -74.1627792
      },
      "tags": {
        "barrier": "fence",
        "plant:source": "solar",
        "power": "plant"
      },
      "lat": 40.4352132,
      "lon": -74.1627792
    },
    {
      "type": "way",
      "id": 903588144,
      "center": {
        "lat": 40.1937802,
        "lon": -74.1551482
      },
      "tags": {
        "name": "Brickyard Solar",
        "operator": "Goldman Sachs Renewable Power Group",
        "plant:method": "photovoltaic",
        "plant:output:electricity": "1.5 MW",
        "plant:source": "solar",
        "power": "plant",
        "ref:US:EIA": "60733",
        "source": "U.S. Energy Information Administration - EIA-860 - 2021",
        "start_date": "2015-06"
      },
      "lat": 40.1937802,
      "lon": -74.1551482
    },
    {
      "type": "way",
      "id": 909091181,
      "center": {
        "lat": 40.133582,
        "lon": -74.4222193
      },
      "tags": {
        "name": "KDC Solar PR1, LLC",
        "operator": "KDC Solar PR1, LLC",
        "plant:method": "photovoltaic",
        "plant:output:electricity": "17 MW",
        "plant:source": "solar",
        "power": "plant",
        "ref:US:EIA": "59910",
        "source": "U.S. Energy Information Administration - EIA-860 - 2022",
        "start_date": "2019-06"
      },
      "lat": 40.133582,
      "lon": -74.4222193
    },
    {
      "type": "way",
      "id": 910973983,
      "center": {
        "lat": 40.4833275,
        "lon": -74.3137502
      },
      "tags": {
        "plant:method": "photovoltaic",
        "plant:output:electricity": "yes",
        "plant:source": "solar",
        "power": "plant"
      },
      "lat": 40.4833275,
      "lon": -74.3137502
    },
    {
      "type": "way",
      "id": 910986953,
      "center": {
        "lat": 40.4922323,
        "lon": -74.3075683
      },
      "tags": {
        "plant:method": "photovoltaic",
        "plant:output:electricity": "yes",
        "plant:source": "solar",
        "power": "plant"
      },
      "lat": 40.4922323,
      "lon": -74.3075683
    },
    {
      "type": "way",
      "id": 910986956,
      "center": {
        "lat": 40.4852697,
        "lon": -74.3060009
      },
      "tags": {
        "plant:method": "photovoltaic",
        "plant:output:electricity": "yes",
        "plant:source": "solar",
        "power": "plant"
      },
      "lat": 40.4852697,
      "lon": -74.3060009
    },
    {
      "type": "way",
      "id": 911394757,
      "center": {
        "lat": 40.6323648,
        "lon": -74.2146148
      },
      "tags": {
        "addr:city": "Linden",
        "addr:housenumber": "2581",
        "addr:postcode": "07036",
        "addr:state": "NJ",
        "addr:street": "Brunswick Avenue",
        "landuse": "industrial",
        "name": "Linden Cogeneration Plant",
        "operator": "EFS Cogen Holdings I LLC",
        "plant:method": "combustion",
        "plant:output:electricity": "974.1 MW",
        "plant:output:hot_water": "yes",
        "plant:source": "gas",
        "plant:type": "combined_cycle",
        "power": "plant",
        "ref:US:EIA": "50006",
        "source": "U.S. Energy Information Administration - EIA-860 - 2021",
        "start_date": "1992-03",
        "wikidata": "Q19379464"
      },
      "lat": 40.6323648,
      "lon": -74.2146148
    },
    {
      "type": "way",
      "id": 912464784,
      "center": {
        "lat": 39.8966899,
        "lon": -74.8270353
      },
      "tags": {
        "plant:method": "photovoltaic",
        "plant:output:electricity": "yes",
        "plant:source": "solar",
        "power": "plant"
      },
      "lat": 39.8966899,
      "lon": -74.8270353
    },
    {
      "type": "way",
      "id": 913872421,
      "center": {
        "lat": 39.9050395,
        "lon": -74.8519809
      },
      "tags": {
        "plant:method": "photovoltaic",
        "plant:output:electricity": "yes",
        "plant:source": "solar",
        "power": "plant"
      },
      "lat": 39.9050395,
      "lon": -74.8519809
    },
    {
      "type": "way",
      "id": 914431234,
      "center": {
        "lat": 40.4391017,
        "lon": -74.3449897
      },
      "tags": {
        "landuse": "industrial",
        "name": "Sayreville Energy Center",
        "operator": "Sayreville Power Generation LP",
        "plant:output:electricity": "430.2 MW",
        "plant:source": "gas",
        "plant:type": "combined_cycle",
        "power": "plant",
        "ref:US:EIA": "10308",
        "source": "U.S. Energy Information Administration - EIA-860 - 2021",
        "start_date": "1991-08",
        "wikidata": "Q20880765"
      },
      "lat": 40.4391017,
      "lon": -74.3449897
    },
    {
      "type": "way",
      "id": 920673869,
      "center": {
        "lat": 39.4086834,
        "lon": -74.532229
      },
      "tags": {
        "name": "ACUA Solar Farm",
        "operator": "MN8 Energy LLC",
        "plant:method": "photovoltaic",
        "plant:output:electricity": "3.1 MW",
        "plant:source": "solar",
        "power": "plant",
        "ref:US:EIA": "60772",
        "source": "U.S. Energy Information Administration - EIA-860 - 2022",
        "start_date": "2011-07"
      },
      "lat": 39.4086834,
      "lon": -74.532229
    },
    {
      "type": "way",
      "id": 924562350,
      "center": {
        "lat": 39.9441303,
        "lon": -74.0785316
      },
      "tags": {
        "addr:city": "Seaside Heights",
        "addr:state": "NJ",
        "addr:street": "Sherman Avenue",
        "landuse": "industrial",
        "name": "Seaside Heights Power Plant",
        "operator": "Seaside Heights Municipal Utility",
        "plant:method": "combustion",
        "plant:output:electricity": "6 MW",
        "plant:source": "oil",
        "power": "plant",
        "ref:US:EIA": "58172",
        "source": "https://njogis-newjersey.opendata.arcgis.com/datasets/njdep::power-plants-of-new-jersey?geometry=-74.094%2C39.940%2C-74.053%2C39.946",
        "start_date": "2012-09"
      },
      "lat": 39.9441303,
      "lon": -74.0785316
    },
    {
      "type": "way",
      "id": 931891849,
      "center": {
        "lat": 40.1953523,
        "lon": -74.5945387
      },
      "tags": {
        "plant:method": "photovoltaic",
        "plant:output:electricity": "yes",
        "plant:source": "solar",
        "power": "plant"
      },
      "lat": 40.1953523,
      "lon": -74.5945387
    },
    {
      "type": "way",
      "id": 932256966,
      "center": {
        "lat": 40.0806312,
        "lon": -74.8930969
      },
      "tags": {
        "addr:city": "Bristol Township",
        "addr:housenumber": "955",
        "addr:postcode": "19020",
        "addr:state": "PA",
        "addr:street": "River Road",
        "landuse": "industrial",
        "name": "Croydon CT Generating Station",
        "operator": "Exelon Power",
        "plant:method": "combustion",
        "plant:output:electricity": "546.4 MW",
        "plant:source": "oil",
        "power": "plant",
        "ref:US:EIA": "8012",
        "wikidata": "Q17762876"
      },
      "lat": 40.0806312,
      "lon": -74.8930969
    },
    {
      "type": "way",
      "id": 934895669,
      "center": {
        "lat": 40.0514871,
        "lon": -74.293768
      },
      "tags": {
        "plant:method": "photovoltaic",
        "plant:output:electricity": "yes",
        "plant:source": "solar",
        "power": "plant"
      },
      "lat": 40.0514871,
      "lon": -74.293768
    },
    {
      "type": "way",
      "id": 936132592,
      "center": {
        "lat": 40.0633204,
        "lon": -74.1673825
      },
      "tags": {
        "landuse": "industrial",
        "name": "NAEA Ocean Peaking Power LLC Plant",
        "operator": "Essential Power Operating Company, LLC",
        "plant:method": "combustion",
        "plant:output:electricity": "383 MW",
        "plant:source": "gas",
        "power": "plant",
        "ref:US:EIA": "55938",
        "source": "http://www.energyjustice.net/map/displayfacility-69341.htm;https://www.gem.wiki/NAEA_Ocean_Peaking_power_station",
        "start_date": "2003-05",
        "wikidata": "Q11993033"
      },
      "lat": 40.0633204,
      "lon": -74.1673825
    },
    {
      "type": "way",
      "id": 938252444,
      "center": {
        "lat": 39.8715787,
        "lon": -75.1554508
      },
      "tags": {
        "landuse": "industrial",
        "name": "Eagle Point Generation Power Plant",
        "operator": "Sunoco Power Generation",
        "plant:method": "combustion",
        "plant:output:electricity": "251.8 MW",
        "plant:source": "gas",
        "plant:type": "combined_cycle",
        "power": "plant",
        "ref:US:EIA": "50561",
        "source": "https://www.industryabout.com/country-territories-3/873-usa/fossil-fuels-energy/16280-eagle-point-gas-power-plant",
        "start_date": "1990-11"
      },
      "lat": 39.8715787,
      "lon": -75.1554508
    },
    {
      "type": "way",
      "id": 939103868,
      "center": {
        "lat": 39.3758589,
        "lon": -74.9658874
      },
      "tags": {
        "landuse": "industrial",
        "name": "Cumberland Energy Center",
        "operator": "Calpine New Jersey Generation LLC",
        "plant:method": "combustion",
        "plant:output:electricity": "231.2 MW",
        "plant:source": "gas",
        "power": "plant",
        "ref:US:EIA": "5083",
        "source": "https://www.industryabout.com/country-territories-3/873-usa/fossil-fuels-energy/16278-cumberland-gas-power-plant",
        "start_date": "1990-05"
      },
      "lat": 39.3758589,
      "lon": -74.9658874
    },
    {
      "type": "way",
      "id": 942383137,
      "center": {
        "lat": 40.4114618,
        "lon": -74.5750355
      },
      "tags": {
        "plant:method": "photovoltaic",
        "plant:output:electricity": "yes",
        "plant:source": "solar",
        "power": "plant"
      },
      "lat": 40.4114618,
      "lon": -74.5750355
    },
    {
      "type": "way",
      "id": 942383138,
      "center": {
        "lat": 40.387582,
        "lon": -74.6072759
      },
      "tags": {
        "plant:method": "photovoltaic",
        "plant:output:electricity": "yes",
        "plant:source": "solar",
        "power": "plant"
      },
      "lat": 40.387582,
      "lon": -74.6072759
    },
    {
      "type": "way",
      "id": 945669020,
      "center": {
        "lat": 40.1547878,
        "lon": -74.4024029
      },
      "tags": {
        "plant:method": "photovoltaic",
        "plant:output:electricity": "yes",
        "plant:source": "solar",
        "power": "plant"
      },
      "lat": 40.1547878,
      "lon": -74.4024029
    },
    {
      "type": "way",
      "id": 948298830,
      "center": {
        "lat": 39.9536485,
        "lon": -74.3726775
      },
      "tags": {
        "plant:method": "photovoltaic",
        "plant:output:electricity": "yes",
        "plant:source": "solar",
        "power": "plant"
      },
      "lat": 39.9536485,
      "lon": -74.3726775
    },
    {
      "type": "way",
      "id": 951697217,
      "center": {
        "lat": 39.8405008,
        "lon": -75.2204951
      },
      "tags": {
        "landuse": "industrial",
        "name": "West Deptford Energy Station",
        "operator": "West Deptford Energy LLC",
        "plant:method": "combustion",
        "plant:output:electricity": "754.6 MW",
        "plant:source": "gas",
        "plant:type": "combined_cycle",
        "power": "plant",
        "ref:US:EIA": "56963",
        "source": "U.S. Energy Information Administration - EIA-860 - 2020",
        "start_date": "2014-10"
      },
      "lat": 39.8405008,
      "lon": -75.2204951
    },
    {
      "type": "way",
      "id": 955867122,
      "center": {
        "lat": 39.9775185,
        "lon": -74.9117371
      },
      "tags": {
        "plant:method": "photovoltaic",
        "plant:output:electricity": "yes",
        "plant:source": "solar",
        "power": "plant"
      },
      "lat": 39.9775185,
      "lon": -74.9117371
    },
    {
      "type": "way",
      "id": 956204070,
      "center": {
        "lat": 40.5626398,
        "lon": -74.6962344
      },
      "tags": {
        "plant:method": "photovoltaic",
        "plant:output:electricity": "yes",
        "plant:source": "solar",
        "power": "plant"
      },
      "lat": 40.5626398,
      "lon": -74.6962344
    },
    {
      "type": "way",
      "id": 956604590,
      "center": {
        "lat": 39.9839967,
        "lon": -74.7812345
      },
      "tags": {
        "plant:method": "photovoltaic",
        "plant:output:electricity": "yes",
        "plant:source": "solar",
        "power": "plant"
      },
      "lat": 39.9839967,
      "lon": -74.7812345
    },
    {
      "type": "way",
      "id": 956605233,
      "center": {
        "lat": 39.9766703,
        "lon": -74.6221127
      },
      "tags": {
        "name": "Dix Solar, L.L.C",
        "operator": "Dix Solar, L.L.C",
        "plant:method": "photovoltaic",
        "plant:output:electricity": "13 MW",
        "plant:source": "solar",
        "power": "plant",
        "ref:US:EIA": "61864",
        "source": "U.S. Energy Information Administration - EIA-860 - 2021",
        "start_date": "2017-06"
      },
      "lat": 39.9766703,
      "lon": -74.6221127
    },
    {
      "type": "way",
      "id": 956970694,
      "center": {
        "lat": 40.2350407,
        "lon": -74.3211568
      },
      "tags": {
        "barrier": "fence",
        "name": "CentraState Medical Center PV Facility",
        "operator": "CleanCapital",
        "plant:method": "photovoltaic",
        "plant:output:electricity": "5.2 MW",
        "plant:source": "solar",
        "power": "plant",
        "ref:US:EIA": "59630",
        "source": "U.S. Energy Information Administration - EIA-860 - 2020",
        "start_date": "2014-10"
      },
      "lat": 40.2350407,
      "lon": -74.3211568
    },
    {
      "type": "way",
      "id": 958464275,
      "center": {
        "lat": 40.204253,
        "lon": -74.644763
      },
      "tags": {
        "plant:method": "photovoltaic",
        "plant:output:electricity": "yes",
        "plant:source": "solar",
        "power": "plant"
      },
      "lat": 40.204253,
      "lon": -74.644763
    },
    {
      "type": "way",
      "id": 959856198,
      "center": {
        "lat": 40.0243522,
        "lon": -74.3128842
      },
      "tags": {
        "addr:state": "NJ",
        "name": "Lakehurst Solar",
        "operator": "Consolidated Edison Development Inc.",
        "plant:method": "photovoltaic",
        "plant:output:electricity": "9.6 MW",
        "plant:source": "solar",
        "power": "plant",
        "ref:US:EIA": "63503",
        "source": "U.S. Energy Information Administration - EIA-860 - 2021",
        "start_date": "2020-03"
      },
      "lat": 40.0243522,
      "lon": -74.3128842
    },
    {
      "type": "way",
      "id": 960820529,
      "center": {
        "lat": 39.4248129,
        "lon": -75.0192899
      },
      "tags": {
        "landuse": "industrial",
        "name": "Clayville Generating Station",
        "operator": "City of Vineland - (NJ)",
        "plant:method": "combustion",
        "plant:output:electricity": "73 MW",
        "plant:source": "gas",
        "power": "plant",
        "ref:US:EIA": "58235",
        "source": "https://www.thedailyjournal.com/story/news/2019/12/12/nj-vineland-electric-fuel-tank-natural-gas-clayville-planning-site-plan-approved/4414472002/",
        "start_date": "2015-11"
      },
      "lat": 39.4248129,
      "lon": -75.0192899
    },
    {
      "type": "way",
      "id": 960891376,
      "center": {
        "lat": 39.4896121,
        "lon": -75.0337265
      },
      "tags": {
        "landuse": "industrial",
        "name": "Howard Down Generating Station",
        "operator": "City of Vineland - (NJ)",
        "plant:method": "combustion",
        "plant:output:electricity": "68.2 MW",
        "plant:source": "gas",
        "power": "plant",
        "ref:US:EIA": "2434",
        "source": "https://www.gem.wiki/Howard_Down_Generating_Station",
        "start_date": "1942-88"
      },
      "lat": 39.4896121,
      "lon": -75.0337265
    },
    {
      "type": "way",
      "id": 966347792,
      "center": {
        "lat": 40.4150246,
        "lon": -74.7035198
      },
      "tags": {
        "plant:method": "photovoltaic",
        "plant:output:electricity": "yes",
        "plant:source": "solar",
        "power": "plant"
      },
      "lat": 40.4150246,
      "lon": -74.7035198
    },
    {
      "type": "way",
      "id": 966347795,
      "center": {
        "lat": 40.4189279,
        "lon": -74.705428
      },
      "tags": {
        "plant:method": "photovoltaic",
        "plant:output:electricity": "yes",
        "plant:source": "solar",
        "power": "plant"
      },
      "lat": 40.4189279,
      "lon": -74.705428
    },
    {
      "type": "way",
      "id": 966483643,
      "center": {
        "lat": 40.4275565,
        "lon": -74.7084281
      },
      "tags": {
        "name": "Skillman",
        "operator": "Janssen Pharmaceutical Co",
        "plant:method": "photovoltaic",
        "plant:output:electricity": "2.7 MW",
        "plant:source": "solar",
        "power": "plant",
        "ref:US:EIA": "59057",
        "source": "U.S. Energy Information Administration - EIA-860 - 2022",
        "start_date": "2011-03"
      },
      "lat": 40.4275565,
      "lon": -74.7084281
    },
    {
      "type": "way",
      "id": 967116265,
      "center": {
        "lat": 39.8457224,
        "lon": -75.2299164
      },
      "tags": {
        "plant:method": "photovoltaic",
        "plant:output:electricity": "yes",
        "plant:source": "solar",
        "power": "plant"
      },
      "lat": 39.8457224,
      "lon": -75.2299164
    },
    {
      "type": "way",
      "id": 970516789,
      "center": {
        "lat": 40.3997373,
        "lon": -74.5090977
      },
      "tags": {
        "plant:method": "photovoltaic",
        "plant:output:electricity": "yes",
        "plant:source": "solar",
        "power": "plant"
      },
      "lat": 40.3997373,
      "lon": -74.5090977
    },
    {
      "type": "way",
      "id": 972639052,
      "center": {
        "lat": 40.5434097,
        "lon": -74.2373075
      },
      "tags": {
        "name": "Kinder Morgan Fordham",
        "operator": "EnterSolar",
        "plant:method": "photovoltaic",
        "plant:output:electricity": "1.7 MW",
        "plant:source": "solar",
        "power": "plant",
        "ref:US:EIA": "62614",
        "source": "U.S. Energy Information Administration - EIA-860 - 2022",
        "start_date": "2018-06"
      },
      "lat": 40.5434097,
      "lon": -74.2373075
    },
    {
      "type": "way",
      "id": 973189588,
      "center": {
        "lat": 40.1092831,
        "lon": -74.1303066
      },
      "tags": {
        "name": "French's Landfill PV",
        "operator": "Brick Standard, LLC",
        "plant:method": "photovoltaic",
        "plant:output:electricity": "5.1 MW",
        "plant:source": "solar",
        "power": "plant",
        "ref:US:EIA": "60994",
        "source": "U.S. Energy Information Administration - EIA-860 - 2020",
        "start_date": "2014-10"
      },
      "lat": 40.1092831,
      "lon": -74.1303066
    },
    {
      "type": "way",
      "id": 979885407,
      "center": {
        "lat": 40.1188405,
        "lon": -74.714822
      },
      "tags": {
        "plant:method": "photovoltaic",
        "plant:output:electricity": "yes",
        "plant:source": "solar",
        "power": "plant"
      },
      "lat": 40.1188405,
      "lon": -74.714822
    },
    {
      "type": "way",
      "id": 984787059,
      "center": {
        "lat": 40.4284294,
        "lon": -74.5490202
      },
      "tags": {
        "plant:method": "photovoltaic",
        "plant:output:electricity": "yes",
        "plant:source": "solar",
        "power": "plant"
      },
      "lat": 40.4284294,
      "lon": -74.5490202
    },
    {
      "type": "way",
      "id": 986807546,
      "center": {
        "lat": 40.4372616,
        "lon": -74.1604058
      },
      "tags": {
        "name": "IFF Hazlet",
        "operator": "Goldman Sachs Renewable Power Group",
        "plant:method": "photovoltaic",
        "plant:output:electricity": "3 MW",
        "plant:source": "solar",
        "power": "plant",
        "ref:US:EIA": "60709",
        "source": "U.S. Energy Information Administration - EIA-860 - 2021",
        "start_date": "2014-04"
      },
      "lat": 40.4372616,
      "lon": -74.1604058
    },
    {
      "type": "way",
      "id": 992575603,
      "center": {
        "lat": 40.0779594,
        "lon": -74.1842409
      },
      "tags": {
        "plant:method": "photovoltaic",
        "plant:output:electricity": "yes",
        "plant:source": "solar",
        "power": "plant"
      },
      "lat": 40.0779594,
      "lon": -74.1842409
    },
    {
      "type": "way",
      "id": 992611181,
      "center": {
        "lat": 40.3142923,
        "lon": -74.4243127
      },
      "tags": {
        "addr:city": "Monroe Township",
        "addr:state": "NJ",
        "name": "Monroe Solar Farm",
        "operator": "NJR Clean Energy Ventures Corporation",
        "plant:method": "photovoltaic",
        "plant:output:electricity": "13.1 MW",
        "plant:source": "solar",
        "power": "plant",
        "ref:US:EIA": "63451",
        "source": "https://www.njcleanenergy.com/files/file/Solar%20Act/T%20docs/10-25-19-8I.pdf",
        "start_date": "2020-07"
      },
      "lat": 40.3142923,
      "lon": -74.4243127
    },
    {
      "type": "way",
      "id": 992613285,
      "center": {
        "lat": 40.229773,
        "lon": -74.2260345
      },
      "tags": {
        "addr:city": "Fairfield",
        "addr:state": "NJ",
        "name": "Rock Solid",
        "operator": "NJR Clean Energy Ventures Corporation",
        "plant:method": "photovoltaic",
        "plant:output:electricity": "8 MW",
        "plant:source": "solar",
        "power": "plant",
        "ref:US:EIA": "59319",
        "source": "U.S. Energy Information Administration - EIA-860 - 2021",
        "start_date": "2014-11"
      },
      "lat": 40.229773,
      "lon": -74.2260345
    },
    {
      "type": "way",
      "id": 994858865,
      "center": {
        "lat": 40.5572009,
        "lon": -74.4840818
      },
      "tags": {
        "addr:city": "Piscataway",
        "addr:housenumber": "101",
        "addr:postcode": "08854",
        "addr:state": "NJ",
        "addr:street": "Possumtown Road",
        "name": "QTS Piscataway Data Center",
        "operator": "Quality Technology Services",
        "plant:method": "photovoltaic",
        "plant:output:electricity": "2 MW",
        "plant:source": "solar",
        "power": "plant",
        "website": "https://www.qtsdatacenters.com/data-centers/piscataway"
      },
      "lat": 40.5572009,
      "lon": -74.4840818
    },
    {
      "type": "way",
      "id": 994858866,
      "center": {
        "lat": 40.559885,
        "lon": -74.480295
      },
      "tags": {
        "name": "Humanscale",
        "plant:method": "photovoltaic",
        "plant:output:electricity": "775 kW",
        "plant:source": "solar",
        "power": "plant",
        "start_date": "2014"
      },
      "lat": 40.559885,
      "lon": -74.480295
    },
    {
      "type": "way",
      "id": 995567161,
      "center": {
        "lat": 40.0318988,
        "lon": -74.6476474
      },
      "tags": {
        "generator:output:electricity": "7.5 MW",
        "generator:source": "solar",
        "plant:method": "photovoltaic",
        "plant:output:electricity": "yes",
        "plant:source": "solar",
        "power": "plant",
        "start_date": "2018-10"
      },
      "lat": 40.0318988,
      "lon": -74.6476474
    },
    {
      "type": "way",
      "id": 995758758,
      "center": {
        "lat": 40.5316373,
        "lon": -74.6495958
      },
      "tags": {
        "plant:method": "photovoltaic",
        "plant:output:electricity": "yes",
        "plant:source": "solar",
        "power": "plant"
      },
      "lat": 40.5316373,
      "lon": -74.6495958
    },
    {
      "type": "way",
      "id": 995926195,
      "center": {
        "lat": 41.1881915,
        "lon": -74.5904825
      },
      "tags": {
        "name": "G&S Wantage Solar LLC",
        "operator": "G&S Operations LLC",
        "plant:method": "photovoltaic",
        "plant:output:electricity": "8.5 MW",
        "plant:source": "solar",
        "power": "plant",
        "ref:US:EIA": "59366",
        "source": "U.S. Energy Information Administration - EIA-860 - 2021",
        "start_date": "2014-01"
      },
      "lat": 41.1881915,
      "lon": -74.5904825
    },
    {
      "type": "way",
      "id": 996640204,
      "center": {
        "lat": 40.6700527,
        "lon": -75.1647578
      },
      "tags": {
        "name": "Pohatcong Solar Farm",
        "operator": "NJR Clean Energy Ventures Corporation",
        "plant:method": "photovoltaic",
        "plant:output:electricity": "8 MW",
        "plant:source": "solar",
        "power": "plant",
        "ref:US:EIA": "63150",
        "source": "U.S. Energy Information Administration - EIA-860 - 2021",
        "start_date": "2020-01"
      },
      "lat": 40.6700527,
      "lon": -75.1647578
    },
    {
      "type": "way",
      "id": 996660335,
      "center": {
        "lat": 40.5913467,
        "lon": -74.2006973
      },
      "tags": {
        "addr:city": "Staten Island",
        "addr:housenumber": "4401",
        "addr:postcode": "10314",
        "addr:state": "NY",
        "addr:street": "Victory Boulevard",
        "landuse": "industrial",
        "name": "Arthur Kill Power Plant",
        "operator": "NRG Arthur Kill Operations Inc.",
        "plant:method": "combustion",
        "plant:output:electricity": "895.5 MW",
        "plant:source": "gas",
        "power": "plant",
        "ref:US:EIA": "2490",
        "start_date": "1959",
        "wikidata": "Q17749358"
      },
      "lat": 40.5913467,
      "lon": -74.2006973
    },
    {
      "type": "way",
      "id": 997700369,
      "center": {
        "lat": 39.4585849,
        "lon": -75.203396
      },
      "tags": {
        "plant:method": "photovoltaic",
        "plant:output:electricity": "yes",
        "plant:source": "solar",
        "power": "plant"
      },
      "lat": 39.4585849,
      "lon": -75.203396
    },
    {
      "type": "way",
      "id": 998796065,
      "center": {
        "lat": 40.4015812,
        "lon": -74.669578
      },
      "tags": {
        "barrier": "fence",
        "name": "Solar Star New Jersey NJ LLC",
        "operator": "Solar Star New Jersey VI LLC",
        "plant:method": "photovoltaic",
        "plant:output:electricity": "1.5 MW",
        "plant:source": "solar",
        "power": "plant",
        "ref:US:EIA": "58402",
        "source": "U.S. Energy Information Administration - EIA-860 - 2020",
        "start_date": "2012-02"
      },
      "lat": 40.4015812,
      "lon": -74.669578
    },
    {
      "type": "way",
      "id": 1000397100,
      "center": {
        "lat": 40.098101,
        "lon": -74.7743152
      },
      "tags": {
        "barrier": "fence",
        "plant:output:electricity": "yes",
        "plant:source": "solar",
        "power": "plant"
      },
      "lat": 40.098101,
      "lon": -74.7743152
    },
    {
      "type": "way",
      "id": 1000648970,
      "center": {
        "lat": 40.4031336,
        "lon": -74.5673046
      },
      "tags": {
        "name": "New Road Solar, LLC",
        "operator": "NJR Clean Energy Ventures Corporation",
        "plant:method": "photovoltaic",
        "plant:output:electricity": "10 MW",
        "plant:source": "solar",
        "power": "plant",
        "ref:US:EIA": "61599",
        "source": "U.S. Energy Information Administration - EIA-860 - 2020",
        "start_date": "2018-06"
      },
      "lat": 40.4031336,
      "lon": -74.5673046
    },
    {
      "type": "way",
      "id": 1009697454,
      "center": {
        "lat": 40.2963237,
        "lon": -74.5667367
      },