{
  "version": 0.6,
  "generator": "Overpass API 0.7.62.11 87bfad18",
  "osm3s": {
    "timestamp_osm_base": "2026-04-24T20:51:16Z",
    "timestamp_areas_base": "2026-04-24T15:53:36Z",
    "copyright": "The data included in this document is from www.openstreetmap.org. The data is made available under ODbL."
  },
  "elements": [
    {
      "type": "way",
      "id": 28534040,
      "center": {
        "lat": 39.1146136,
        "lon": -84.8036822
      },
      "tags": {
        "landuse": "industrial",
        "name": "Miami Fort Station",
        "operator": "Duke Energy",
        "operator:wikidata": "Q1264404",
        "plant:method": "combustion",
        "plant:output:electricity": "1180.8 MW",
        "plant:source": "coal",
        "power": "plant",
        "ref:US:EIA": "2832",
        "source": "U.S. Energy Information Administration - EIA-860 - 2021",
        "start_date": "1949-12",
        "wikidata": "Q6827316"
      },
      "lat": 39.1146136,
      "lon": -84.8036822
    },
    {
      "type": "way",
      "id": 31336060,
      "center": {
        "lat": 39.4101402,
        "lon": -84.5543872
      },
      "tags": {
        "building": "yes",
        "name": "Hamilton Power Plant",
        "operator": "City of Hamilton - (OH)",
        "plant:output:electricity": "16.3 MW",
        "plant:source": "gas",
        "power": "plant",
        "ref:US:EIA": "2917",
        "source": "U.S. Energy Information Administration - EIA-860 - 2021",
        "start_date": "1954-03"
      },
      "lat": 39.4101402,
      "lon": -84.5543872
    },
    {
      "type": "way",
      "id": 33108092,
      "center": {
        "lat": 39.7129021,
        "lon": -83.1770996
      },
      "tags": {
        "barrier": "fence",
        "landuse": "industrial",
        "name": "Darby Generating Station",
        "operator": "Lightstone Generation LLC",
        "plant:method": "combustion",
        "plant:output:electricity": "564 MW",
        "plant:source": "gas",
        "power": "plant",
        "ref:US:EIA": "55247",
        "source": "U.S. Energy Information Administration - EIA-860 - 2021",
        "start_date": "2001-05",
        "wikidata": "Q11964763"
      },
      "lat": 39.7129021,
      "lon": -83.1770996
    },
    {
      "type": "way",
      "id": 33264535,
      "center": {
        "lat": 39.4524237,
        "lon": -84.4634188
      },
      "tags": {
        "landuse": "industrial",
        "name": "Madison Generating Station",
        "operator": "Duke Energy",
        "operator:wikidata": "Q1264404",
        "plant:method": "combustion",
        "plant:output:electricity": "692 MW",
        "plant:source": "gas",
        "power": "plant",
        "ref": "http://iaspub.epa.gov/enviro/national_kml.registry_html?p_registry_id=110004737615",
        "ref:US:EIA": "55110",
        "source": "http://www.epa.gov/enviro/geo_data.html",
        "start_date": "2000-06",
        "wikidata": "Q19380814"
      },
      "lat": 39.4524237,
      "lon": -84.4634188
    },
    {
      "type": "way",
      "id": 33264538,
      "center": {
        "lat": 39.44872,
        "lon": -84.4607821
      },
      "tags": {
        "addr:city": "Trenton",
        "addr:county": "Butler County",
        "addr:housenumber": "2100",
        "addr:state": "OH",
        "addr:street": "Woodsdale Road",
        "landuse": "industrial",
        "name": "Woodsdale Generating Station",
        "operator": "Duke Energy",
        "operator:wikidata": "Q1264404",
        "plant:method": "combustion",
        "plant:output:electricity": "492 MW",
        "plant:output:electricity:winter": "564.0 MW",
        "plant:source": "gas",
        "power": "plant",
        "ref": "http://iaspub.epa.gov/enviro/national_kml.registry_html?p_registry_id=110004685868",
        "ref:US:EIA": "7158",
        "source": "U.S. Energy Information Administration EIA-860-2020.",
        "source:ref": "http://www.epa.gov/enviro/geo_data.html",
        "start_date": "1992",
        "wikidata": "Q12010780"
      },
      "lat": 39.44872,
      "lon": -84.4607821
    },
    {
      "type": "way",
      "id": 42786935,
      "center": {
        "lat": 39.1345201,
        "lon": -84.5094529
      },
      "tags": {
        "addr:city": "Cincinnati",
        "addr:housenumber": "3000",
        "addr:postcode": "45219",
        "addr:state": "OH",
        "addr:street": "Glendora Avenue",
        "building": "yes",
        "building:colour": "#9A5C65",
        "building:levels": "3",
        "landuse": "industrial",
        "name": "Central Utility Plant",
        "operator": "University of Cincinnati",
        "plant:method": "combustion",
        "plant:output:electricity": "47.2 MW",
        "plant:output:hot_water": "yes",
        "plant:source": "gas",
        "power": "plant",
        "ref:US:EIA": "57908",
        "roof:colour": "#CCD0D6",
        "source": "U.S. Energy Information Administration - EIA-860 - 2021",
        "start_date": "2004-06"
      },
      "lat": 39.1345201,
      "lon": -84.5094529
    },
    {
      "type": "way",
      "id": 50953103,
      "center": {
        "lat": 39.1378876,
        "lon": -84.5047396
      },
      "tags": {
        "building": "yes",
        "building:levels": "7",
        "landuse": "industrial",
        "loc_name": "Eden Plant",
        "name": "East Campus Utility Plant",
        "operator": "University of Cincinnati",
        "plant:method": "combustion",
        "plant:output:electricity": "4.8 MW",
        "plant:source": "gas;oil",
        "power": "plant",
        "ref:US:EIA": "57929",
        "source": "U.S. Energy Information Administration - EIA-860 - 2021",
        "start_date": "2006-07"
      },
      "lat": 39.1378876,
      "lon": -84.5047396
    },
    {
      "type": "way",
      "id": 50955416,
      "center": {
        "lat": 39.1384794,
        "lon": -84.5071738
      },
      "tags": {
        "addr:city": "Cincinnati",
        "addr:country": "US",
        "addr:housenumber": "3230",
        "addr:postcode": "45219",
        "addr:state": "OH",
        "addr:street": "Vine Street",
        "building": "yes",
        "gnis:feature_id": "1958757",
        "landuse": "industrial",
        "name": "Utility Plant East Campus",
        "operator": "University of Cincinnati",
        "plant:method": "combustion",
        "plant:output:electricity": "yes",
        "plant:source": "gas",
        "power": "plant"
      },
      "lat": 39.1384794,
      "lon": -84.5071738
    },
    {
      "type": "way",
      "id": 107015084,
      "center": {
        "lat": 38.9161381,
        "lon": -82.1277035
      },
      "tags": {
        "addr:state": "OH",
        "ele": "175",
        "gnis:feature_id": "1068778",
        "landuse": "industrial",
        "name": "Kyger Creek Power Plant",
        "operator": "Ohio Valley Electric Corp",
        "plant:method": "combustion",
        "plant:output:electricity": "1086.5 MW",
        "plant:source": "coal",
        "power": "plant",
        "ref:US:EIA": "2876",
        "source": "U.S. Energy Information Administration - EIA-860 - 2021",
        "start_date": "1955-02",
        "wikidata": "Q2436683",
        "wikipedia": "en:Kyger Creek Power Plant"
      },
      "lat": 38.9161381,
      "lon": -82.1277035
    },
    {
      "type": "way",
      "id": 108756514,
      "center": {
        "lat": 41.5035888,
        "lon": -81.6043049
      },
      "tags": {
        "building": "industrial",
        "landuse": "industrial",
        "name": "Medical Center Company",
        "name:en": "Medical Center Company",
        "plant:output:compressed_air": "yes",
        "plant:output:steam": "yes",
        "plant:output:vacuum": "yes",
        "power": "plant"
      },
      "lat": 41.5035888,
      "lon": -81.6043049
    },
    {
      "type": "way",
      "id": 108756517,
      "center": {
        "lat": 41.5040259,
        "lon": -81.6038623
      },
      "tags": {
        "building": "industrial",
        "landuse": "industrial",
        "name": "Service Building",
        "power": "plant"
      },
      "lat": 41.5040259,
      "lon": -81.6038623
    },
    {
      "type": "way",
      "id": 120402579,
      "center": {
        "lat": 38.5730591,
        "lon": -82.7833578
      },
      "tags": {
        "addr:city": "Ironton",
        "addr:county": "Lawrence County",
        "addr:housenumber": "1395",
        "addr:postcode": "45638",
        "addr:state": "OH",
        "addr:street": "County Road 1A",
        "barrier": "fence",
        "landuse": "industrial",
        "name": "Hanging Rock Energy Facility",
        "operator:2020": "Dynegy",
        "plant:method": "combustion",
        "plant:output:electricity": "1430 MW",
        "plant:source": "gas",
        "power": "plant",
        "ref:US:EIA": "55736",
        "source:plant_data": "U.S. Energy Information Administration EIA-860-2020.",
        "start_date": "2003",
        "website": "https://www.dynegy.com/",
        "wikidata": "Q11973903",
        "wikipedia": "en:Hanging Rock Energy Facility"
      },
      "lat": 38.5730591,
      "lon": -82.7833578
    },
    {
      "type": "way",
      "id": 156410861,
      "center": {
        "lat": 38.6992515,
        "lon": -83.8171755
      },
      "tags": {
        "landuse": "industrial",
        "name": "Spurlock Power Station",
        "operator": "East Kentucky Power Coop, Inc",
        "plant:method": "combustion",
        "plant:output:electricity": "1608.5 MW",
        "plant:output:hot_water": "yes",
        "plant:source": "coal",
        "power": "plant",
        "ref:US:EIA": "6041",
        "source": "U.S. Energy Information Administration - EIA-860 - 2021",
        "start_date": "1977-09",
        "wikidata": "Q14690669"
      },
      "lat": 38.6992515,
      "lon": -83.8171755
    },
    {
      "type": "way",
      "id": 170532935,
      "center": {
        "lat": 39.0848508,
        "lon": -82.3325354
      },
      "tags": {
        "addr:city": "Wilkesville Township",
        "addr:county": "Vinton County",
        "addr:state": "OH",
        "addr:street": "Main Street",
        "barrier": "fence",
        "landuse": "industrial",
        "name": "Rolling\u00a0Hills Generating Station",
        "operator": "Tenaska",
        "plant:method": "combustion",
        "plant:output:electricity": "977.5 MW",
        "plant:source": "gas",
        "power": "plant",
        "ref:US:EIA": "55401",
        "source": "U.S. Energy Information Administration EIA-860-2019",
        "wikidata": "Q19386877"
      },
      "lat": 39.0848508,
      "lon": -82.3325354
    },
    {
      "type": "way",
      "id": 182559419,
      "center": {
        "lat": 41.3771129,
        "lon": -83.6441619
      },
      "tags": {
        "access": "private",
        "addr:city": "Bowling Green",
        "addr:housenumber": "500",
        "addr:postcode": "43403",
        "addr:state": "OH",
        "addr:street": "Pike Street",
        "building": "service",
        "building:architecture": "modern",
        "building:colour": "brown",
        "building:levels": "2",
        "building:material": "brick",
        "level": "0",
        "name": "Heating Plant",
        "note": "Natural Gas Plant",
        "operator": "Bowling Green State University",
        "power": "plant",
        "roof:colour": "black",
        "website": "https://www.bgsu.edu/campus-operations/plumbing-services.html",
        "wikimedia_commons": "Category:Heating Plant, Bowling Green State University"
      },
      "lat": 41.3771129,
      "lon": -83.6441619
    },
    {
      "type": "way",
      "id": 243014111,
      "center": {
        "lat": 40.093846,
        "lon": -82.0261157
      },
      "tags": {
        "addr:city": "Dresden",
        "addr:county": "Muskingum County",
        "addr:housenumber": "9595",
        "addr:postcode": "43821",
        "addr:state": "OH",
        "addr:street": "McGlade School Road",
        "landuse": "industrial",
        "name": "Dresden Energy Facility",
        "operator": "Appalachian Power",
        "plant:method": "combustion",
        "plant:output:electricity": "625 MW",
        "plant:source": "gas",
        "power": "plant",
        "ref:US:EIA": "55350",
        "source": "U.S. Energy Information Administration EIA-860-2020",
        "start_date": "2012",
        "website": "https://www.appalachianpower.com/",
        "wikidata": "Q11966063",
        "wikipedia": "en:Dresden Plant"
      },
      "lat": 40.093846,
      "lon": -82.0261157
    },
    {
      "type": "way",
      "id": 254362770,
      "center": {
        "lat": 41.477338,
        "lon": -83.4605277
      },
      "tags": {
        "addr:county": "Wood County",
        "addr:state": "OH",
        "addr:street": "Pemberville Road",
        "landuse": "industrial",
        "name": "TroyEnergy",
        "plant:method": "combustion",
        "plant:output:electricity": "795.6 MW",
        "plant:source": "gas",
        "power": "plant",
        "ref:US:EIA": "55348",
        "source": "U.S. Energy Information Administration EIA-860-2019",
        "start_date": "2002",
        "wikidata": "Q19393349"
      },
      "lat": 41.477338,
      "lon": -83.4605277
    },
    {
      "type": "way",
      "id": 254602492,
      "center": {
        "lat": 41.5935231,
        "lon": -83.0793559
      },
      "tags": {
        "addr:state": "OH",
        "landuse": "industrial",
        "name": "Davis-Besse Nuclear Power Station",
        "operator": "Energy Harbor Nuclear Generation LLC",
        "plant:method": "fission",
        "plant:output:electricity": "925.2 MW",
        "plant:source": "nuclear",
        "power": "plant",
        "ref": "http://en.wikipedia.org/wiki/Davis-Besse_Nuclear_Power_Station",
        "ref:US:EIA": "6149",
        "source": "U.S. Energy Information Administration - EIA-860 - 2021",
        "start_date": "1977-11",
        "wikidata": "Q1739392"
      },
      "lat": 41.5935231,
      "lon": -83.0793559
    },
    {
      "type": "way",
      "id": 261540764,
      "center": {
        "lat": 39.5336762,
        "lon": -81.7159663
      },
      "tags": {
        "landuse": "industrial",
        "name": "Waterford Power, LLC",
        "operator": "Waterford Power, LLC",
        "plant:method": "combustion",
        "plant:output:electricity": "921.6 MW",
        "plant:source": "gas",
        "plant:type": "combined_cycle",
        "power": "plant",
        "ref:US:EIA": "55503",
        "source": "U.S. Energy Information Administration - EIA-860 - 2020",
        "start_date": "2003-08",
        "wikidata": "Q19398551"
      },
      "lat": 39.5336762,
      "lon": -81.7159663
    },
    {
      "type": "way",
      "id": 261601481,
      "center": {
        "lat": 39.5808265,
        "lon": -81.6558896
      },
      "tags": {
        "addr:city": "Beverly",
        "addr:county": "Washington County",
        "addr:housenumber": "859",
        "addr:postcode": "45715",
        "addr:state": "OH",
        "addr:street": "State Route 83",
        "barrier": "fence",
        "landuse": "industrial",
        "name": "Washington Energy Facility",
        "operator": "Dynergy",
        "plant:method": "combustion",
        "plant:output:electricity": "714.9 MW",
        "plant:output:electricity:summer": "661.0 MW",
        "plant:output:electricity:winter": "686.0 MW",
        "plant:source": "gas",
        "power": "plant",
        "ref:US:EIA": "55397",
        "source:plant_data": "U.S. Energy Information Administration EIA-860-2020.",
        "start_date": "2002",
        "wikidata": "Q19398548"
      },
      "lat": 39.5808265,
      "lon": -81.6558896
    },
    {
      "type": "way",
      "id": 296598878,
      "center": {
        "lat": 41.2371083,
        "lon": -84.3996923
      },
      "tags": {
        "building": "yes",
        "name": "Auglaize Hydro",
        "operator": "City of Bryan - (OH)",
        "plant:output:electricity": "3.6 MW",
        "plant:source": "hydro",
        "power": "plant",
        "ref:US:EIA": "7657",
        "source": "U.S. Energy Information Administration - EIA-860 - 2021",
        "start_date": "1986-12"
      },
      "lat": 41.2371083,
      "lon": -84.3996923
    },
    {
      "type": "way",
      "id": 306638643,
      "center": {
        "lat": 41.0473324,
        "lon": -83.6673836
      },
      "tags": {
        "plant:method": "photovoltaic",
        "plant:output:electricity": "yes",
        "plant:source": "solar",
        "power": "plant"
      },
      "lat": 41.0473324,
      "lon": -83.6673836
    },
    {
      "type": "way",
      "id": 367993050,
      "center": {
        "lat": 41.4722868,
        "lon": -81.6283001
      },
      "tags": {
        "generator:source": "solar",
        "name": "CMHA Solar Power Field",
        "note": "Constructed over Standard Pail & Drum Company brownfield",
        "plant:method": "photovoltaic",
        "plant:output:electricity": "yes",
        "plant:source": "solar",
        "power": "plant",
        "was:landuse": "brownfield"
      },
      "lat": 41.4722868,
      "lon": -81.6283001
    },
    {
      "type": "way",
      "id": 389629672,
      "center": {
        "lat": 38.9353506,
        "lon": -82.1198338
      },
      "tags": {
        "landuse": "industrial",
        "name": "James M. Gavin Power Plant",
        "operator": "Gavin Power, LLC",
        "plant:method": "combustion",
        "plant:output:electricity": "2600 MW",
        "plant:source": "coal",
        "power": "plant",
        "ref:US:EIA": "8102",
        "source": "U.S. Energy Information Administration - EIA-860 - 2021",
        "start_date": "1974-10",
        "wikidata": "Q5528247",
        "wikipedia": "en:Gavin Power Plant"
      },
      "lat": 38.9353506,
      "lon": -82.1198338
    },
    {
      "type": "way",
      "id": 392351572,
      "center": {
        "lat": 40.2932809,
        "lon": -82.7073524
      },
      "tags": {
        "plant:method": "photovoltaic",
        "plant:output:electricity": "yes",
        "plant:source": "solar",
        "power": "plant"
      },
      "lat": 40.2932809,
      "lon": -82.7073524
    },
    {
      "type": "way",
      "id": 398448711,
      "center": {
        "lat": 41.5855274,
        "lon": -84.5794201
      },
      "tags": {
        "name": "Montpelier Power Plant",
        "operator": "American Mun Power-Ohio, Inc",
        "plant:output:electricity": "10.8 MW",
        "plant:source": "oil",
        "power": "plant",
        "ref:US:EIA": "7791",
        "source": "U.S. Energy Information Administration - EIA-860 - 2021",
        "start_date": "2000-07"
      },
      "lat": 41.5855274,
      "lon": -84.5794201
    },
    {
      "type": "way",
      "id": 409367258,
      "center": {
        "lat": 41.3981998,
        "lon": -83.640859
      },
      "tags": {
        "addr:city": "Bowling Green",
        "addr:housenumber": "1225",
        "addr:state": "OH",
        "addr:street": "College Drive",
        "landuse": "industrial",
        "name": "Bowling Green Generating Station",
        "operator": "American Mun Power-Ohio, Inc",
        "plant:method": "combustion",
        "plant:output:electricity": "49.5 MW",
        "plant:source": "gas",
        "power": "plant",
        "ref:US:EIA": "55262",
        "source": "U.S. Energy Information Administration - EIA-860 - 2021",
        "start_date": "2000-06"
      },
      "lat": 41.3981998,
      "lon": -83.640859
    },
    {
      "type": "way",
      "id": 419598118,
      "center": {
        "lat": 41.7979077,
        "lon": -81.1449885
      },
      "tags": {
        "landuse": "industrial",
        "name": "Perry Nuclear Power Plant",
        "operator": "FirstEnergy",
        "plant:method": "fission",
        "plant:output:electricity": "1230 MW",
        "plant:source": "nuclear",
        "power": "plant",
        "ref:US:EIA": "6020",
        "source": "U.S. Energy Information Administration - EIA-860 - 2021",
        "start_date": "1987-11",
        "wikidata": "Q969222",
        "wikipedia": "en:Perry Nuclear Generating Station"
      },
      "lat": 41.7979077,
      "lon": -81.1449885
    },
    {
      "type": "way",
      "id": 424361687,
      "center": {
        "lat": 41.5160881,
        "lon": -81.5977293
      },
      "tags": {
        "name": "MCCo Solar Generating Facility",
        "operator": "The Medical Center Company",
        "plant:method": "photovoltaic",
        "plant:output:electricity": "1 MW",
        "plant:source": "solar",
        "power": "plant",
        "ref:US:EIA": "59324",
        "source": "U.S. Energy Information Administration - EIA-860 - 2020",
        "start_date": "2014-11"
      },
      "lat": 41.5160881,
      "lon": -81.5977293
    },
    {
      "type": "way",
      "id": 424435275,
      "center": {
        "lat": 41.133525,
        "lon": -81.3202998
      },
      "tags": {
        "plant:method": "photovoltaic",
        "plant:output:electricity": "yes",
        "plant:source": "solar",
        "power": "plant"
      },
      "lat": 41.133525,
      "lon": -81.3202998
    },
    {
      "type": "way",
      "id": 425557698,
      "center": {
        "lat": 41.5260587,
        "lon": -81.6619174
      },
      "tags": {
        "building": "yes",
        "building:levels": "3",
        "name": "Cleveland Public Power Plant",
        "operator": "Cleveland Public Power",
        "power": "plant"
      },
      "lat": 41.5260587,
      "lon": -81.6619174
    },
    {
      "type": "way",
      "id": 427123659,
      "center": {
        "lat": 40.0757258,
        "lon": -84.6153372
      },
      "tags": {
        "addr:city": "Greenville",
        "addr:county": "Darke County",
        "addr:housenumber": "5119",
        "addr:postcode": "45331",
        "addr:state": "OH",
        "addr:street": "Sebring Warner Road",
        "barrier": "fence",
        "landuse": "industrial",
        "name": "Greenville Electric Generating Station",
        "operator": "Buckeye Power",
        "plant:method": "combustion",
        "plant:output:electricity": "236.0 MW",
        "plant:output:electricity:summer": "196.0 MW",
        "plant:output:electricity:winter": "236.0 MW",
        "plant:source": "gas",
        "power": "plant",
        "ref:US:EIA": "55228",
        "source": "U.S. Energy Information Administration - EIA-860 - 2021",
        "start_date": "2000-06"
      },
      "lat": 40.0757258,
      "lon": -84.6153372
    },
    {
      "type": "way",
      "id": 455231851,
      "center": {
        "lat": 41.622073,
        "lon": -83.6038347
      },
      "tags": {
        "building": "roof",
        "plant:method": "photovoltaic",
        "plant:output:electricity": "yes",
        "plant:source": "solar",
        "power": "plant"
      },
      "lat": 41.622073,
      "lon": -83.6038347
    },
    {
      "type": "way",
      "id": 455231852,
      "center": {
        "lat": 41.6219081,
        "lon": -83.6038261
      },
      "tags": {
        "building": "roof",
        "plant:method": "photovoltaic",
        "plant:output:electricity": "yes",
        "plant:source": "solar",
        "power": "plant"
      },
      "lat": 41.6219081,
      "lon": -83.6038261
    },
    {
      "type": "way",
      "id": 468894786,
      "center": {
        "lat": 41.6272975,
        "lon": -83.5746701
      },
      "tags": {
        "barrier": "fence",
        "name": "Anthony Wayne Solar #1",
        "operator": "GEM Energy LLC",
        "plant:method": "photovoltaic",
        "plant:output:electricity": "1.7 MW",
        "plant:source": "solar",
        "power": "plant",
        "ref:US:EIA": "59489",
        "source": "U.S. Energy Information Administration - EIA-860 - 2022",
        "start_date": "2014-06"
      },
      "lat": 41.6272975,
      "lon": -83.5746701
    },
    {
      "type": "way",
      "id": 530334211,
      "center": {
        "lat": 39.6009706,
        "lon": -84.2055214
      },
      "tags": {
        "plant:method": "photovoltaic",
        "plant:output:electricity": "yes",
        "plant:source": "solar",
        "power": "plant",
        "ref": "YS1",
        "source": "U.S. Energy Information Administration - EIA-860 - 2021",
        "start_date": "2010-03"
      },
      "lat": 39.6009706,
      "lon": -84.2055214
    },
    {
      "type": "way",
      "id": 577779608,
      "center": {
        "lat": 40.9296531,
        "lon": -84.7396025
      },
      "tags": {
        "addr:city": "Convoy",
        "addr:county": "Van Wert County",
        "addr:state": "OH",
        "addr:street": "Mentzer Road",
        "barrier": "fence",
        "landuse": "industrial",
        "name": "Robert P. Mone Generating Station",
        "operator": "National Power Coop Inc",
        "plant:method": "combustion",
        "plant:output:electricity": "594 MW",
        "plant:source": "gas",
        "power": "plant",
        "ref:US:EIA": "7872",
        "source": "U.S. Energy Information Administration - EIA-860 - 2021",
        "start_date": "2002-07",
        "wikidata": "Q11998100"
      },
      "lat": 40.9296531,
      "lon": -84.7396025
    },
    {
      "type": "way",
      "id": 579731461,
      "center": {
        "lat": 39.4679323,
        "lon": -84.3540734
      },
      "tags": {
        "landuse": "industrial",
        "name": "Middletown Energy Center",
        "operator": "NTE Energy",
        "plant:output:electricity": "543.9 MW",
        "plant:source": "gas",
        "plant:type": "combined_cycle",
        "power": "plant",
        "ref:US:EIA": "59326",
        "source": "U.S. Energy Information Administration - EIA-860 - 2021",
        "start_date": "2018-05"
      },
      "lat": 39.4679323,
      "lon": -84.3540734
    },
    {
      "type": "way",
      "id": 604068059,
      "center": {
        "lat": 41.2839719,
        "lon": -82.2192559
      },
      "tags": {
        "landuse": "industrial",
        "name": "Oberlin Power Plant",
        "operator": "City of Oberlin - (OH)",
        "plant:method": "combustion",
        "plant:output:electricity": "18.5 MW",
        "plant:source": "gas",
        "power": "plant",
        "ref:US:EIA": "2933",
        "source": "https://cityofoberlin.com/city-government/departments/omlps/about-omlps/#:~:text=OMLPS%20operates%20a%20peak%2Dshaving,rates%20for%20all%20OMLPS%20customers.",
        "start_date": "1934-01"
      },
      "lat": 41.2839719,
      "lon": -82.2192559
    },
    {
      "type": "way",
      "id": 628814407,
      "center": {
        "lat": 41.3773855,
        "lon": -83.1603461
      },
      "tags": {
        "addr:city": "Fremont",
        "addr:county": "Sandusky County",
        "addr:state": "OH",
        "addr:street": "Miarer Road",
        "landuse": "industrial",
        "name": "Fremont Energy\u00a0Center Power\u00a0Plant",
        "operator": "Fremont Energy Center",
        "plant:method": "combustion",
        "plant:output:electricity": "739.5 MW",
        "plant:source": "gas",
        "power": "plant",
        "ref:US:EIA": "55701",
        "source": "U.S. Energy Information Administration EIA-860-2019",
        "start_date": "2012"
      },
      "lat": 41.3773855,
      "lon": -83.1603461
    },
    {
      "type": "way",
      "id": 631386432,
      "center": {
        "lat": 40.098114,
        "lon": -83.762417
      },
      "tags": {
        "plant:method": "photovoltaic",
        "plant:output:electricity": "yes",
        "plant:source": "solar",
        "power": "plant"
      },
      "lat": 40.098114,
      "lon": -83.762417
    },
    {
      "type": "way",
      "id": 631392695,
      "center": {
        "lat": 41.1669328,
        "lon": -80.7459464
      },
      "tags": {
        "addr:state": "OH",
        "ele": "265",
        "gnis:feature_id": "2339500",
        "landuse": "industrial",
        "name": "Niles Generating Station",
        "operator": "Niles Power, LLC",
        "plant:method": "combustion",
        "plant:output:electricity": "27 MW",
        "plant:source": "oil",
        "power": "plant",
        "ref:US:EIA": "2861",
        "source": "U.S. Energy Information Administration - EIA-860 - 2024",
        "start_date": "1954-01",
        "wikidata": "Q19382983"
      },
      "lat": 41.1669328,
      "lon": -80.7459464
    },
    {
      "type": "way",
      "id": 676795438,
      "center": {
        "lat": 39.2139471,
        "lon": -84.4423374
      },
      "tags": {
        "landuse": "industrial",
        "power": "plant"
      },
      "lat": 39.2139471,
      "lon": -84.4423374
    },
    {
      "type": "way",
      "id": 678935228,
      "center": {
        "lat": 41.3960274,
        "lon": -83.5813365
      },
      "tags": {
        "addr:state": "OH",
        "barrier": "fence",
        "name": "Bowling Green Ohio Solar Project",
        "note": "Solar panels track the sun on a single axis from east to west.",
        "operator": "NextEra Energy",
        "operator:wikidata": "Q967868",
        "plant:method": "photovoltaic",
        "plant:output:electricity": "20 MW",
        "plant:source": "solar",
        "plant:type": "solar_photovoltaic_panel",
        "power": "plant",
        "ref:US:EIA": "60622",
        "source": "U.S. Energy Information Administration - EIA-860 - 2021",
        "start_date": "2017-01"
      },
      "lat": 41.3960274,
      "lon": -83.5813365
    },
    {
      "type": "way",
      "id": 687453866,
      "center": {
        "lat": 40.1513155,
        "lon": -83.2299955
      },
      "tags": {
        "barrier": "fence",
        "plant:method": "photovoltaic",
        "plant:output:electricity": "yes",
        "plant:source": "solar",
        "power": "plant"
      },
      "lat": 40.1513155,
      "lon": -83.2299955
    },
    {
      "type": "way",
      "id": 692474212,
      "center": {
        "lat": 40.7178561,
        "lon": -82.7873039
      },
      "tags": {
        "landuse": "industrial",
        "name": "Galion Generating Station",
        "operator": "American Municipal Power",
        "operator:wikidata": "Q125490873",
        "plant:method": "combustion",
        "plant:output:electricity": "49.5 MW",
        "plant:source": "gas",
        "power": "plant",
        "ref:US:EIA": "55263",
        "source": "U.S. Energy Information Administration - EIA-860 - 2022",
        "start_date": "2000-06"
      },
      "lat": 40.7178561,
      "lon": -82.7873039
    },
    {
      "type": "way",
      "id": 709805016,
      "center": {
        "lat": 41.5261077,
        "lon": -81.6622368
      },
      "tags": {
        "landuse": "industrial",
        "power": "plant"
      },
      "lat": 41.5261077,
      "lon": -81.6622368
    },
    {
      "type": "way",
      "id": 709805018,
      "center": {
        "lat": 41.5094505,
        "lon": -81.68237
      },
      "tags": {
        "landuse": "industrial",
        "name": "Cleveland Thermal",
        "operator": "Cleveland Thermal, LLC",
        "plant:method": "combustion",
        "plant:output:electricity": "1 MW",
        "plant:output:hot_water": "yes",
        "plant:source": "gas",
        "power": "plant",
        "ref:US:EIA": "61838",
        "source": "U.S. Energy Information Administration - EIA-860 - 2020",
        "start_date": "2017-02"
      },
      "lat": 41.5094505,
      "lon": -81.68237
    },
    {
      "type": "way",
      "id": 729090298,
      "center": {
        "lat": 40.2210613,
        "lon": -84.4984031
      },
      "tags": {
        "barrier": "fence",
        "name": "DG AMP Solar Versailles",
        "operator": "DG AMP Solar, LLC",
        "plant:method": "photovoltaic",
        "plant:output:electricity": "1.8 MW",
        "plant:source": "solar",
        "power": "plant",
        "ref:US:EIA": "61437",
        "source": "U.S. Energy Information Administration - EIA-860 - 2022",
        "start_date": "2018-01"
      },
      "lat": 40.2210613,
      "lon": -84.4984031
    },
    {
      "type": "way",
      "id": 733092423,
      "center": {
        "lat": 41.6903071,
        "lon": -83.437041
      },
      "tags": {
        "addr:city": "Oregon",
        "addr:county": "Lucas County",
        "addr:state": "OH",
        "addr:street": "Bay Shore Road",
        "description": "Fueled with petroleum by-products from the adjacent refinery.",
        "landuse": "industrial",
        "name": "Bay Shore Generating Facility",
        "operator": "WallEye Power LLC",
        "plant:method": "combustion",
        "plant:output:electricity": "166.5 MW",
        "plant:source": "petroleum coke",
        "power": "plant",
        "ref:US:EIA": "2878",
        "source": "U.S. Energy Information Administration EIA-860-2019",
        "wikidata": "Q11960359"
      },
      "lat": 41.6903071,
      "lon": -83.437041
    },
    {
      "type": "way",
      "id": 742029368,
      "center": {
        "lat": 40.5207059,
        "lon": -81.4675606
      },
      "tags": {
        "landuse": "industrial",
        "name": "Dover Power Plant",
        "operator": "City of Dover - (OH)",
        "plant:output:electricity": "49.6 MW",
        "plant:source": "oil;coal;gas",
        "power": "plant",
        "ref:US:EIA": "2914",
        "source": "U.S. Energy Information Administration - EIA-860 - 2021",
        "start_date": "1944-01",
        "wikidata": "Q116686536"
      },
      "lat": 40.5207059,
      "lon": -81.4675606
    },
    {
      "type": "way",
      "id": 742761179,
      "center": {
        "lat": 39.6083663,
        "lon": -84.2918636
      },
      "tags": {
        "landuse": "industrial",
        "name": "O. H. Hutchings Station",
        "operator": "Kimura Power LLC",
        "plant:output:electricity": "32.6 MW",
        "plant:source": "gas;coal",
        "power": "plant",
        "ref:US:EIA": "2848",
        "source": "U.S. Energy Information Administration - EIA-860 - 2021",
        "start_date": "1948-07"
      },
      "lat": 39.6083663,
      "lon": -84.2918636
    },
    {
      "type": "way",
      "id": 758276340,
      "center": {
        "lat": 41.5862811,
        "lon": -83.7878027
      },
      "tags": {
        "name": "Toledo Air National Guard",
        "operator": "180th Fighter Wing",
        "plant:method": "photovoltaic",
        "plant:output:electricity": "1.5 MW",
        "plant:source": "solar",
        "power": "plant",
        "ref:US:EIA": "67967",
        "source": "U.S. Energy Information Administration - EIA-860 - 2024",
        "start_date": "2010-01"
      },
      "lat": 41.5862811,
      "lon": -83.7878027
    },
    {
      "type": "way",
      "id": 758782739,
      "center": {
        "lat": 41.3194432,
        "lon": -82.983306
      },
      "tags": {
        "barrier": "fence",
        "name": "Clyde Solar Array",
        "operator": "AEP Onsite Partners, LLC",
        "plant:method": "photovoltaic",
        "plant:output:electricity": "2.8 MW",
        "plant:source": "solar",
        "power": "plant",
        "ref:US:EIA": "60923",
        "source": "U.S. Energy Information Administration - EIA-860 - 2022",
        "start_date": "2016-06"
      },
      "lat": 41.3194432,
      "lon": -82.983306
    },
    {
      "type": "way",
      "id": 764225383,
      "center": {
        "lat": 40.8514224,
        "lon": -81.7660433
      },
      "tags": {
        "landuse": "industrial",
        "name": "Orrville",
        "operator": "City of Orrville - (OH)",
        "plant:output:electricity": "84.5 MW",
        "plant:source": "coal;gas",
        "power": "plant",
        "ref:US:EIA": "2935",
        "source": "U.S. Energy Information Administration - EIA-860 - 2020",
        "start_date": "1949-01"
      },
      "lat": 40.8514224,
      "lon": -81.7660433
    },
    {
      "type": "way",
      "id": 804479496,
      "center": {
        "lat": 41.0124993,
        "lon": -81.7653312
      },
      "tags": {
        "addr:city": "Wadsworth",
        "addr:housenumber": "1048",
        "addr:postcode": "44281",
        "addr:state": "OH",
        "addr:street": "Seville Road",
        "name": "Seville Road Solar Plant",
        "operator": "City of Wadsworth",
        "plant:method": "photovoltaic",
        "plant:output:electricity": "6.25 MW",
        "plant:source": "solar",
        "power": "plant",
        "ref:US:EIA": "62942",
        "source": "U.S. Energy Information Administration - EIA-860 - 2021",
        "start_date": "2019-12",
        "website": "https://www.wadsworthcity.com/871/Solar-Power-Plant"
      },
      "lat": 41.0124993,
      "lon": -81.7653312
    },
    {
      "type": "way",
      "id": 804579063,
      "center": {
        "lat": 40.8567317,
        "lon": -81.7587835
      },
      "tags": {
        "barrier": "fence",
        "name": "DG AMP Solar Orrville 3",
        "operator": "Orville Utilities",
        "plant:method": "photovoltaic",
        "plant:output:electricity": "2.3 MW",
        "plant:source": "solar",
        "power": "plant",
        "ref:US:EIA": "61436",
        "source": "aerial imagery;local knowledge",
        "start_date": "2018-02"
      },
      "lat": 40.8567317,
      "lon": -81.7587835
    },
    {
      "type": "way",
      "id": 804593960,
      "center": {
        "lat": 41.0325141,
        "lon": -81.8730016
      },
      "tags": {
        "addr:city": "Seville",
        "addr:county": "Medina County",
        "addr:housenumber": "8864",
        "addr:postcode": "44273",
        "addr:state": "OH",
        "addr:street": "Ryan Road",
        "barrier": "fence",
        "landuse": "industrial",
        "name": "Seville Generating Station",
        "operator": "American Municipal Power",
        "plant:method": "combustion",
        "plant:output:electricity": "5.4 MW",
        "plant:source": "oil",
        "plant:type": "reciprocating_engine",
        "power": "plant",
        "ref:US:EIA": "7919",
        "start_date": "2001-06"
      },
      "lat": 41.0325141,
      "lon": -81.8730016
    },
    {
      "type": "way",
      "id": 818880945,
      "center": {
        "lat": 41.3049655,
        "lon": -84.3345839
      },
      "tags": {
        "landuse": "industrial",
        "name": "Richland Gas Power Plant",
        "operator": "Richland-Stryker Generation LLC",
        "plant:method": "combustion",
        "plant:output:electricity": "450 MW",
        "plant:source": "gas",
        "power": "plant",
        "ref:US:EIA": "2880",
        "source": "https://www.industryabout.com/country-territories-3/873-usa/fossil-fuels-energy/20605-richland-gas-power-plant",
        "start_date": "1965-12",
        "wikidata": "Q11997777"
      },
      "lat": 41.3049655,
      "lon": -84.3345839
    },
    {
      "type": "way",
      "id": 818883522,
      "center": {
        "lat": 41.4078391,
        "lon": -84.1095523
      },
      "tags": {
        "landuse": "industrial",
        "name": "Napoleon Peaking Station",
        "operator": "American Municipal Power",
        "operator:wikidata": "Q125490873",
        "plant:method": "combustion",
        "plant:output:electricity": "49.5 MW",
        "plant:source": "gas",
        "power": "plant",
        "ref:US:EIA": "55264",
        "source": "U.S. Energy Information Administration - EIA-860 - 2021",
        "start_date": "2000-06"
      },
      "lat": 41.4078391,
      "lon": -84.1095523
    },
    {
      "type": "way",
      "id": 822356665,
      "center": {
        "lat": 41.0010083,
        "lon": -81.7508808
      },
      "tags": {
        "barrier": "fence",
        "name": "Rittman Road Solar Plant",
        "operator": "City of Wadsworth",
        "plant:method": "photovoltaic",
        "plant:output:electricity": "2.625 MW",
        "plant:source": "solar",
        "power": "plant",
        "ref:US:EIA": "62941",
        "source": "U.S. Energy Information Administration - EIA-860 - 2021",
        "start_date": "2020-05"
      },
      "lat": 41.0010083,
      "lon": -81.7508808
    },
    {
      "type": "way",
      "id": 831256063,
      "center": {
        "lat": 41.5100751,
        "lon": -81.6165276
      },
      "tags": {
        "barrier": "fence",
        "name": "CWRU Sun Farm",
        "name:en": "CWRU Sun Farm",
        "plant:method": "photovoltaic",
        "plant:output:electricity": "yes",
        "plant:source": "solar",
        "power": "plant"
      },
      "lat": 41.5100751,
      "lon": -81.6165276
    },
    {
      "type": "way",
      "id": 835554875,
      "center": {
        "lat": 40.8846202,
        "lon": -84.5701741
      },
      "tags": {
        "plant:method": "photovoltaic",
        "plant:output:electricity": "yes",
        "plant:source": "solar",
        "power": "plant"
      },
      "lat": 40.8846202,
      "lon": -84.5701741
    },
    {
      "type": "way",
      "id": 835604138,
      "center": {
        "lat": 39.7268471,
        "lon": -84.2106263
      },
      "tags": {
        "landuse": "industrial",
        "name": "Tait Electric Generating Station",
        "operator": "Kimura Power LLC",
        "plant:method": "combustion",
        "plant:output:electricity": "680.6 MW",
        "plant:source": "gas;oil",
        "power": "plant",
        "ref:US:EIA": "2847",
        "source": "http://globalenergyobservatory.org/geoid/5637",
        "start_date": "1967-05"
      },
      "lat": 39.7268471,
      "lon": -84.2106263
    },
    {
      "type": "way",
      "id": 853030082,
      "center": {
        "lat": 41.6060665,
        "lon": -83.2109104
      },
      "tags": {
        "plant:method": "photovoltaic",
        "plant:output:electricity": "yes",
        "plant:source": "solar",
        "power": "plant"
      },
      "lat": 41.6060665,
      "lon": -83.2109104
    },
    {
      "type": "way",
      "id": 860212165,
      "center": {
        "lat": 41.686454,
        "lon": -83.563214
      },
      "tags": {
        "barrier": "fence",
        "plant:method": "photovoltaic",
        "plant:output:electricity": "yes",
        "plant:source": "solar",
        "power": "plant"
      },
      "lat": 41.686454,
      "lon": -83.563214
    },
    {
      "type": "way",
      "id": 864642778,
      "center": {
        "lat": 41.579363,
        "lon": -83.5713493
      },
      "tags": {
        "plant:method": "photovoltaic",
        "plant:output:electricity": "yes",
        "plant:source": "solar",
        "power": "plant"
      },
      "lat": 41.579363,
      "lon": -83.5713493
    },
    {
      "type": "way",
      "id": 875787886,
      "center": {
        "lat": 41.1764333,
        "lon": -84.7281929
      },
      "tags": {
        "barrier": "fence",
        "plant:method": "photovoltaic",
        "plant:output:electricity": "yes",
        "plant:source": "solar",
        "power": "plant"
      },
      "lat": 41.1764333,
      "lon": -84.7281929
    },
    {
      "type": "way",
      "id": 878459990,
      "center": {
        "lat": 41.2769848,
        "lon": -80.8395994
      },
      "tags": {
        "name": "KSU Trumbull",
        "operator": "Madison Energy Holdings LLC",
        "plant:method": "photovoltaic",
        "plant:output:electricity": "1 MW",
        "plant:source": "solar",
        "power": "plant",
        "ref:US:EIA": "65691",
        "source": "U.S. Energy Information Administration - EIA-860 - 2022",
        "start_date": "2021-06"
      },
      "lat": 41.2769848,
      "lon": -80.8395994
    },
    {
      "type": "way",
      "id": 881738193,
      "center": {
        "lat": 41.6811297,
        "lon": -83.5699423
      },
      "tags": {
        "plant:method": "photovoltaic",
        "plant:output:electricity": "yes",
        "plant:source": "solar",
        "power": "plant"
      },
      "lat": 41.6811297,
      "lon": -83.5699423
    },
    {
      "type": "way",
      "id": 883216528,
      "center": {
        "lat": 41.149064,
        "lon": -80.8519138
      },
      "tags": {
        "addr:city": "Lordstown",
        "addr:county": "Trumbull County",
        "addr:housenumber": "1853",
        "addr:postcode": "44481",
        "addr:state": "OH",
        "addr:street": "Henn Parkway",
        "barrier": "fence",
        "landuse": "industrial",
        "name": "Lordstown Power Plant",
        "operator": "Clean Energy Future-Lordstown, LLC",
        "plant:method": "combustion",
        "plant:output:electricity": "962.0 MW",
        "plant:output:electricity:summer": "856.0 MW",
        "plant:output:electricity:winter": "940.0 MW",
        "plant:source": "gas",
        "power": "plant",
        "ref:US:EIA": "60376",
        "source:plant_data": "U.S. Energy Information Administration EIA-860-2020.",
        "start_date": "2018"
      },
      "lat": 41.149064,
      "lon": -80.8519138
    },
    {
      "type": "way",
      "id": 886863398,
      "center": {
        "lat": 41.6576977,
        "lon": -82.8227681
      },
      "tags": {
        "name": "Solar Pavillion",
        "plant:method": "photovoltaic",
        "plant:output:electricity": "yes",
        "plant:source": "solar",
        "power": "plant"
      },
      "lat": 41.6576977,
      "lon": -82.8227681
    },
    {
      "type": "way",
      "id": 889921853,
      "center": {
        "lat": 41.3192456,
        "lon": -84.0342383
      },
      "tags": {
        "plant:method": "photovoltaic",
        "plant:output:electricity": "yes",
        "plant:source": "solar",
        "power": "plant"
      },
      "lat": 41.3192456,
      "lon": -84.0342383
    },
    {
      "type": "way",
      "id": 892772190,
      "center": {
        "lat": 41.4062576,
        "lon": -84.1145537
      },
      "tags": {
        "name": "AMP Napoleon Solar Facility",
        "operator": "American Municipal Power",
        "operator:wikidata": "Q125490873",
        "plant:method": "photovoltaic",
        "plant:output:electricity": "3.5 MW",
        "plant:source": "solar",
        "power": "plant",
        "ref:US:EIA": "58082",
        "source": "U.S. Energy Information Administration - EIA-860 - 2021",
        "start_date": "2012-09"
      },
      "lat": 41.4062576,
      "lon": -84.1145537
    },
    {
      "type": "way",
      "id": 911716755,
      "center": {
        "lat": 41.3032718,
        "lon": -82.2285158
      },
      "tags": {
        "name": "Oberlin Spear Point Solar One",
        "operator": "Oberlin College",
        "plant:method": "photovoltaic",
        "plant:output:electricity": "2 MW",
        "plant:source": "solar",
        "power": "plant",
        "ref:US:EIA": "58134",
        "source": "U.S. Energy Information Administration - EIA-860 - 2022",
        "start_date": "2012-11"
      },
      "lat": 41.3032718,
      "lon": -82.2285158
    },
    {
      "type": "way",
      "id": 917201697,
      "center": {
        "lat": 41.6680923,
        "lon": -83.4410602
      },
      "tags": {
        "addr:city": "Oregon",
        "addr:county": "Lucas County",
        "addr:housenumber": "816",
        "addr:postcode": "43616",
        "addr:state": "OH",
        "addr:street": "North Lallendorf Road",
        "landuse": "industrial",
        "name": "Oregon Clean Energy Center",
        "operator": "Oregon Clean Energy Center",
        "plant:method": "combustion",
        "plant:output:electricity": "1060 MW",
        "plant:source": "gas",
        "power": "plant",
        "ref:US:EIA": "59764",
        "source": "U.S. Energy Information Administration EIA-860-2019",
        "start_date": "2017",
        "website": "https://oregoncleanenergycenter.com",
        "wikidata": "Q60742693",
        "wikipedia": "en:Oregon Clean Energy Center"
      },
      "lat": 41.6680923,
      "lon": -83.4410602
    },
    {
      "type": "way",
      "id": 924697185,
      "center": {
        "lat": 40.059237,
        "lon": -82.3524516
      },
      "tags": {
        "plant:method": "photovoltaic",
        "plant:output:electricity": "yes",
        "plant:source": "solar",
        "power": "plant"
      },
      "lat": 40.059237,
      "lon": -82.3524516
    },
    {
      "type": "way",
      "id": 926029939,
      "center": {
        "lat": 40.2671754,
        "lon": -81.6281244
      },
      "tags": {
        "plant:method": "photovoltaic",
        "plant:output:electricity": "yes",
        "plant:source": "solar",
        "power": "plant"
      },
      "lat": 40.2671754,
      "lon": -81.6281244
    },
    {
      "type": "way",
      "id": 942383351,
      "center": {
        "lat": 41.5425702,
        "lon": -84.1258437
      },
      "tags": {
        "plant:method": "photovoltaic",
        "plant:output:electricity": "yes",
        "plant:source": "solar",
        "power": "plant"
      },
      "lat": 41.5425702,
      "lon": -84.1258437
    },
    {
      "type": "way",
      "id": 943705723,
      "center": {
        "lat": 39.4657877,
        "lon": -84.3771431
      },
      "tags": {
        "addr:city": "Monroe",
        "addr:county": "Butler County",
        "addr:housenumber": "632",
        "addr:state": "OH",
        "addr:street": "Todhunter Road",
        "landuse": "industrial",
        "name": "Dicks Creek Power Plant",
        "operator": "Vistra Energy Dicks Creek",
        "plant:method": "combustion",
        "plant:output:electricity": "159.1 MW",
        "plant:source": "gas",
        "power": "plant",
        "ref:US:EIA": "2831",
        "source": "U.S. Energy Information Administration EIA-860-2020.",
        "start_date": "1965",
        "wikidata": "Q11965629"
      },
      "lat": 39.4657877,
      "lon": -84.3771431
    },
    {
      "type": "way",
      "id": 945272725,
      "center": {
        "lat": 41.6594902,
        "lon": -83.6495344
      },
      "tags": {
        "plant:method": "photovoltaic",
        "plant:output:electricity": "yes",
        "plant:source": "solar",
        "power": "plant"
      },
      "lat": 41.6594902,
      "lon": -83.6495344
    },
    {
      "type": "way",
      "id": 945287588,
      "center": {
        "lat": 41.5844805,
        "lon": -84.5788802
      },
      "tags": {
        "plant:method": "photovoltaic",
        "plant:output:electricity": "yes",
        "plant:source": "solar",
        "power": "plant"
      },
      "lat": 41.5844805,
      "lon": -84.5788802
    },
    {
      "type": "way",
      "id": 954254088,
      "center": {
        "lat": 41.6193017,
        "lon": -83.6103677
      },
      "tags": {
        "plant:method": "photovoltaic",
        "plant:output:electricity": "yes",
        "plant:source": "solar",
        "power": "plant"
      },
      "lat": 41.6193017,
      "lon": -83.6103677
    },
    {
      "type": "way",
      "id": 970739428,
      "center": {
        "lat": 41.2511336,
        "lon": -84.1208744
      },
      "tags": {
        "plant:method": "photovoltaic",
        "plant:output:electricity": "yes",
        "plant:source": "solar",
        "power": "plant"
      },
      "lat": 41.2511336,
      "lon": -84.1208744
    },
    {
      "type": "way",
      "id": 972692579,
      "center": {
        "lat": 40.1298207,
        "lon": -84.2562395
      },
      "tags": {
        "barrier": "fence",
        "name": "DG AMP Solar Piqua Manier",
        "operator": "DG AMP Solar, LLC",
        "plant:method": "photovoltaic",
        "plant:output:electricity": "12.6 MW",
        "plant:source": "solar",
        "power": "plant",
        "ref:US:EIA": "62792",
        "source": "U.S. Energy Information Administration - EIA-860 - 2021",
        "start_date": "2019-07"
      },
      "lat": 40.1298207,
      "lon": -84.2562395
    },
    {
      "type": "way",
      "id": 977437621,
      "center": {
        "lat": 40.542463,
        "lon": -84.187518
      },
      "tags": {
        "barrier": "fence",
        "name": "Wapakoneta-Pratt Solar",
        "operator": "Madison Energy Holdings LLC",
        "plant:output:electricity": "13.5 MW",
        "plant:source": "solar",
        "power": "plant",
        "ref:US:EIA": "65258",
        "source": "U.S. Energy Information Administration - EIA-860 - 2021",
        "start_date": "2021-11"
      },
      "lat": 40.542463,
      "lon": -84.187518
    },
    {
      "type": "way",
      "id": 981891645,
      "center": {
        "lat": 41.5109643,
        "lon": -81.617496
      },
      "tags": {
        "landuse": "industrial",
        "power": "plant"
      },
      "lat": 41.5109643,
      "lon": -81.617496
    },
    {
      "type": "way",
      "id": 983810861,
      "center": {
        "lat": 41.460932,
        "lon": -84.5269754
      },
      "tags": {
        "landuse": "industrial",
        "name": "Bryan Peaking",
        "operator": "American Mun Power-Ohio, Inc",
        "plant:output:electricity": "10.8 MW",
        "plant:source": "oil",
        "power": "plant",
        "ref:US:EIA": "7779",
        "source": "U.S. Energy Information Administration - EIA-860 - 2021",
        "start_date": "1999-07"
      },
      "lat": 41.460932,
      "lon": -84.5269754
    },
    {
      "type": "way",
      "id": 984541467,
      "center": {
        "lat": 40.7897877,
        "lon": -84.1860271
      },
      "tags": {
        "plant:method": "photovoltaic",
        "plant:output:electricity": "yes",
        "plant:source": "solar",
        "power": "plant"
      },
      "lat": 40.7897877,
      "lon": -84.1860271
    },
    {
      "type": "way",
      "id": 985269768,
      "center": {
        "lat": 41.4765064,
        "lon": -84.5864827
      },
      "tags": {
        "name": "Bryan Solar Field",
        "operator": "City of Bryan - (OH)",
        "plant:method": "photovoltaic",
        "plant:output:electricity": "2.1 MW",
        "plant:source": "solar",
        "power": "plant",
        "ref:US:EIA": "58381",
        "source": "U.S. Energy Information Administration - EIA-860 - 2021",
        "start_date": "2012-02"
      },
      "lat": 41.4765064,
      "lon": -84.5864827
    },
    {
      "type": "way",
      "id": 1009225041,
      "center": {
        "lat": 41.5546572,
        "lon": -84.1215628
      },
      "tags": {
        "plant:method": "photovoltaic",
        "plant:output:electricity": "1.02 MW",
        "plant:source": "solar",
        "power": "plant"
      },
      "lat": 41.5546572,
      "lon": -84.1215628
    },
    {
      "type": "way",
      "id": 1022629024,
      "center": {
        "lat": 40.3901768,
        "lon": -84.4017029
      },
      "tags": {
        "barrier": "fence",
        "name": "HMW Minster PV I",
        "operator": "Madison Energy Holdings LLC",
        "plant:method": "photovoltaic",
        "plant:output:electricity": "3 MW",
        "plant:source": "solar",
        "power": "plant",
        "ref:US:EIA": "60190",
        "source": "U.S. Energy Information Administration - EIA-860 - 2021",
        "start_date": "2015-12"
      },
      "lat": 40.3901768,
      "lon": -84.4017029
    },
    {
      "type": "way",
      "id": 1022705140,
      "center": {
        "lat": 40.7594196,
        "lon": -83.8400167
      },
      "tags": {
        "barrier": "fence",
        "name": "Ohio Northern University Solar Site",
        "operator": "AEP Onsite Partners, LLC",
        "plant:method": "photovoltaic",
        "plant:output:electricity": "3 MW",
        "plant:source": "solar",
        "power": "plant",
        "ref:US:EIA": "60913",
        "source": "U.S. Energy Information Administration - EIA-860 - 2021",
        "start_date": "2016-12"
      },
      "lat": 40.7594196,
      "lon": -83.8400167
    },
    {
      "type": "way",
      "id": 1022706215,
      "center": {
        "lat": 40.7907015,
        "lon": -84.1960278
      },
      "tags": {
        "barrier": "fence",
        "plant:method": "photovoltaic",
        "plant:output:electricity": "yes",
        "plant:source": "solar",
        "power": "plant"
      },
      "lat": 40.7907015,
      "lon": -84.1960278
    },
    {
      "type": "way",
      "id": 1022717964,
      "center": {
        "lat": 41.0178969,
        "lon": -84.5941593
      },
      "tags": {
        "name": "Northwest Ohio Solar",
        "operator": "Northwest Ohio Wind, LLC",
        "plant:method": "photovoltaic",
        "plant:output:electricity": "4 MW",
        "plant:source": "solar",
        "power": "plant",
        "ref:US:EIA": "59296",
        "source": "U.S. Energy Information Administration - EIA-860 - 2021",
        "start_date": "2018-09"
      },
      "lat": 41.0178969,
      "lon": -84.5941593
    },
    {
      "type": "way",
      "id": 1043457468,
      "center": {
        "lat": 38.8113521,
        "lon": -83.5847991
      },
      "tags": {
        "plant:method": "photovoltaic",
        "plant:output:electricity": "yes",
        "plant:source": "solar",
        "power": "plant"
      },
      "lat": 38.8113521,
      "lon": -83.5847991
    },
    {
      "type": "way",
      "id": 1043457482,
      "center": {
        "lat": 38.8135419,
        "lon": -83.5843305
      },
      "tags": {
        "plant:method": "photovoltaic",
        "plant:output:electricity": "yes",
        "plant:source": "solar",
        "power": "plant"
      },
      "lat": 38.8135419,
      "lon": -83.5843305
    },
    {
      "type": "way",
      "id": 1050122026,
      "center": {
        "lat": 39.2958424,
        "lon": -83.9607813
      },
      "tags": {
        "barrier": "fence",
        "landuse": "industrial",
        "name": "Clinton Battery",
        "operator": "Clinton Battery Utility, LLC",
        "plant:output:electricity": "10 MW",
        "plant:source": "battery",
        "power": "plant",
        "ref:US:EIA": "60297",
        "source": "U.S. Energy Information Administration - EIA-860 - 2021",
        "start_date": "2016-10"
      },
      "lat": 39.2958424,
      "lon": -83.9607813
    },
    {
      "type": "way",
      "id": 1064497931,
      "center": {
        "lat": 40.6853976,
        "lon": -84.2424613
      },
      "tags": {
        "plant:method": "photovoltaic",
        "plant:output:electricity": "yes",
        "plant:source": "solar",
        "power": "plant"
      },
      "lat": 40.6853976,
      "lon": -84.2424613
    },
    {
      "type": "way",
      "id": 1065343036,
      "center": {
        "lat": 40.8602538,
        "lon": -84.3436887
      },
      "tags": {
        "plant:method": "photovoltaic",
        "plant:output:electricity": "yes",
        "plant:source": "solar",
        "power": "plant"
      },
      "lat": 40.8602538,
      "lon": -84.3436887
    },
    {
      "type": "way",
      "id": 1071371711,
      "center": {
        "lat": 41.4298609,
        "lon": -82.2624365
      },
      "tags": {
        "addr:city": "Lorain",
        "addr:county": "Lorain County",
        "addr:state": "OH",
        "addr:street": "West Erie Avenue",
        "barrier": "fence",
        "landuse": "industrial",
        "name": "Vermillion\u00a0Power West\u00a0Lorain Plant",
        "operator": "Vermillion Power",
        "plant:method": "combustion",
        "plant:output:electricity": "555.6 MW",
        "plant:source": "gas;oil",
        "power": "plant",
        "ref:US:EIA": "2869",
        "source": "U.S. Energy Information Administration - EIA-860 - 2021",
        "start_date": "1973-06"
      },
      "lat": 41.4298609,
      "lon": -82.2624365
    },
    {
      "type": "way",
      "id": 1071388218,
      "center": {
        "lat": 39.7677168,
        "lon": -84.1709115
      },
      "tags": {
        "name": "Monument Power Plant",
        "operator": "Kimura Power LLC",
        "plant:output:electricity": "13.5 MW",
        "plant:source": "oil",
        "power": "plant",
        "ref:US:EIA": "2851",
        "source": "U.S. Energy Information Administration - EIA-860 - 2021",
        "start_date": "1968-06"
      },
      "lat": 39.7677168,
      "lon": -84.1709115
    },
    {
      "type": "way",
      "id": 1071388219,
      "center": {
        "lat": 39.3529398,
        "lon": -84.5186127
      },
      "tags": {
        "landuse": "industrial",
        "name": "Hamilton Peaking",
        "operator": "American Mun Power-Ohio, Inc",
        "plant:method": "combustion",
        "plant:output:electricity": "32 MW",
        "plant:source": "gas",
        "power": "plant",
        "ref:US:EIA": "7782",
        "source": "U.S. Energy Information Administration - EIA-860 - 2021",
        "start_date": "2000-06"
      },
      "lat": 39.3529398,
      "lon": -84.5186127
    },
    {
      "type": "way",
      "id": 1072364107,
      "center": {
        "lat": 40.9590741,
        "lon": -81.3614947
      },
      "tags": {
        "plant:method": "photovoltaic",
        "plant:output:electricity": "yes",
        "plant:source": "solar",
        "power": "plant"
      },
      "lat": 40.9590741,
      "lon": -81.3614947
    },
    {
      "type": "way",
      "id": 1073719477,
      "center": {
        "lat": 40.9426292,
        "lon": -83.386212
      },
      "tags": {
        "plant:method": "photovoltaic",
        "plant:output:electricity": "yes",
        "plant:source": "solar",
        "power": "plant"
      },
      "lat": 40.9426292,
      "lon": -83.386212
    },
    {
      "type": "way",
      "id": 1076437695,
      "center": {
        "lat": 40.604806,
        "lon": -81.0604535
      },
      "tags": {
        "addr:city": "Carrollton",
        "addr:county": "Carroll County",
        "addr:housenumber": "2022",
        "addr:postcode": "44615",
        "addr:state": "OH",
        "addr:street": "Kensington Road Northeast",
        "barrier": "fence",
        "landuse": "industrial",
        "name": "Carroll County Energy power station",
        "operator": "Carroll County Energy LLC",
        "plant:method": "combustion",
        "plant:output:electricity": "832.3 MW",
        "plant:output:electricity:summer": "714.6 MW",
        "plant:output:electricity:winter": "760.4 MW",
        "plant:source": "gas",
        "power": "plant",
        "ref:US:EIA": "59773",
        "source:plant_data": "U.S. Energy Information Administration EIA-860-2020.",
        "start_date": "2017",
        "website": "https://www.carrollcountyenergy.com/"
      },
      "lat": 40.604806,
      "lon": -81.0604535
    },
    {
      "type": "way",
      "id": 1077999439,
      "center": {
        "lat": 41.0805053,
        "lon": -84.151564
      },
      "tags": {
        "plant:method": "photovoltaic",
        "plant:output:electricity": "yes",
        "plant:source": "solar",
        "power": "plant"
      },
      "lat": 41.0805053,
      "lon": -84.151564
    },
    {
      "type": "way",
      "id": 1080130675,
      "center": {
        "lat": 40.140873,
        "lon": -84.2306977
      },
      "tags": {
        "name": "DG AMP Solar Piqua Staunton",
        "operator": "DG AMP Solar, LLC",
        "plant:output:electricity": "1.8 MW",
        "plant:source": "solar",
        "power": "plant",
        "ref:US:EIA": "61805",
        "source": "U.S. Energy Information Administration - EIA-860 - 2021",
        "start_date": "2018-09"
      },
      "lat": 40.140873,
      "lon": -84.2306977
    },
    {
      "type": "way",
      "id": 1084330742,
      "center": {
        "lat": 40.5415457,
        "lon": -81.4984609
      },
      "tags": {
        "barrier": "fence",
        "landuse": "industrial",
        "name": "Dover Peaking",
        "operator": "American Mun Power-Ohio, Inc",
        "plant:method": "combustion",
        "plant:output:electricity": "10.8 MW",
        "plant:source": "oil",
        "power": "plant",
        "ref:US:EIA": "7777",
        "source": "U.S. Energy Information Administration - EIA-860 - 2021",
        "start_date": "1999-07"
      },
      "lat": 40.5415457,
      "lon": -81.4984609
    },
    {
      "type": "way",
      "id": 1084330743,
      "center": {
        "lat": 40.8598204,
        "lon": -81.7592021
      },
      "tags": {
        "name": "Orrville Peaking",
        "operator": "American Mun Power-Ohio, Inc",
        "plant:output:electricity": "5.4 MW",
        "plant:source": "oil",
        "power": "plant",
        "ref:US:EIA": "7778",
        "source": "U.S. Energy Information Administration - EIA-860 - 2021",
        "start_date": "1999-07"
      },
      "lat": 40.8598204,
      "lon": -81.7592021
    },
    {
      "type": "way",
      "id": 1084330749,
      "center": {
        "lat": 40.9167779,
        "lon": -80.577625
      },
      "tags": {
        "name": "Mahoning Power Plant",
        "operator": "WM Renewable Energy LLC",
        "plant:output:electricity": "4 MW",
        "plant:source": "biogas",
        "power": "plant",
        "ref:US:EIA": "57411",
        "source": "U.S. Energy Information Administration - EIA-860 - 2021",
        "start_date": "2013-01"
      },
      "lat": 40.9167779,
      "lon": -80.577625
    },
    {
      "type": "way",
      "id": 1084330755,
      "center": {
        "lat": 40.6358307,
        "lon": -80.6788543
      },
      "tags": {
        "landuse": "industrial",
        "name": "South Field Energy",
        "operator": "South Field Energy, LLC",
        "plant:method": "combustion",
        "plant:output:electricity": "1210.4 MW",
        "plant:source": "gas",
        "power": "plant",
        "ref:US:EIA": "60356",
        "source": "U.S. Energy Information Administration - EIA-860 - 2021;https://www.gem.wiki/South_Field_Energy_power_station",
        "start_date": "2021-08"
      },
      "lat": 40.6358307,
      "lon": -80.6788543
    },
    {
      "type": "way",
      "id": 1084330761,
      "center": {
        "lat": 40.7020218,
        "lon": -81.5902233
      },
      "tags": {
        "name": "DG AMP Solar Brewster",
        "operator": "DG AMP Solar, LLC",
        "plant:output:electricity": "1.9 MW",
        "plant:source": "solar",
        "power": "plant",
        "ref:US:EIA": "61818",
        "source": "U.S. Energy Information Administration - EIA-860 - 2021",
        "start_date": "2018-12"
      },
      "lat": 40.7020218,
      "lon": -81.5902233
    },
    {
      "type": "way",
      "id": 1084949689,
      "center": {
        "lat": 39.92953,
        "lon": -83.0117773
      },
      "tags": {
        "name": "Renick Run Pumping Station 03-04",
        "operator": "City of Columbus - (OH)",
        "plant:output:electricity": "2.8 MW",
        "plant:source": "oil",
        "power": "plant",
        "ref:US:EIA": "56420",
        "source": "U.S. Energy Information Administration - EIA-860 - 2021",
        "start_date": "2006-09"
      },
      "lat": 39.92953,
      "lon": -83.0117773
    },
    {
      "type": "way",
      "id": 1084949690,
      "center": {
        "lat": 39.410045,
        "lon": -84.5515256
      },
      "tags": {
        "name": "Hamilton Hydro",
        "operator": "City of Hamilton - (OH)",
        "plant:output:electricity": "2.2 MW",
        "plant:source": "hydro",
        "power": "plant",
        "ref:US:EIA": "7807",
        "source": "U.S. Energy Information Administration - EIA-860 - 2021",
        "start_date": "1994-05"
      },
      "lat": 39.410045,
      "lon": -84.5515256
    },
    {
      "type": "way",
      "id": 1084949691,
      "center": {
        "lat": 39.471619,
        "lon": -84.4007572
      },
      "tags": {
        "landuse": "industrial",
        "name": "Middletown Coke Power Plant",
        "operator": "SunCoke Energy, Inc.",
        "plant:output:electricity": "67 MW",
        "plant:output:hot_water": "yes",
        "plant:source": "gas",
        "power": "plant",
        "ref:US:EIA": "57822",
        "source": "U.S. Energy Information Administration - EIA-860 - 2021",
        "start_date": "2011-12"
      },
      "lat": 39.471619,
      "lon": -84.4007572
    },
    {
      "type": "way",
      "id": 1084949693,
      "center": {
        "lat": 38.9153172,
        "lon": -81.9081865
      },
      "tags": {
        "name": "Racine Power Plant",
        "operator": "Eagle Creek Renewable Energy, LLC",
        "plant:output:electricity": "47.4 MW",
        "plant:source": "hydro",
        "power": "plant",
        "ref:US:EIA": "6006",
        "source": "U.S. Energy Information Administration - EIA-860 - 2021",
        "start_date": "1982-09"
      },
      "lat": 38.9153172,
      "lon": -81.9081865
    },
    {
      "type": "way",
      "id": 1085922216,
      "center": {
        "lat": 41.5356853,
        "lon": -81.6290604
      },
      "tags": {
        "plant:method": "photovoltaic",
        "plant:output:electricity": "yes",
        "plant:source": "solar",
        "power": "plant"
      },
      "lat": 41.5356853,
      "lon": -81.6290604
    },
    {
      "type": "way",
      "id": 1088042934,
      "center": {
        "lat": 41.4739048,
        "lon": -81.6727897
      },
      "tags": {
        "landuse": "industrial",
        "name": "Arcelormittal Cleveland Power Plant",
        "operator": "Cleveland Cliffs",
        "plant:method": "combustion",
        "plant:output:electricity": "102 MW",
        "plant:output:hot_water": "yes",
        "plant:source": "gas",
        "power": "plant",
        "ref:US:EIA": "10398",
        "source": "U.S. Energy Information Administration - EIA-860m - 2025",
        "start_date": "1950-01"
      },
      "lat": 41.4739048,
      "lon": -81.6727897
    },
    {
      "type": "way",
      "id": 1088042937,
      "center": {
        "lat": 41.4736235,
        "lon": -81.7128556
      },
      "tags": {
        "name": "West 41st Street Power Plant",
        "operator": "City of Cleveland - (OH)",
        "plant:output:electricity": "32 MW",
        "plant:source": "gas",
        "power": "plant",
        "ref:US:EIA": "2909",
        "source": "U.S. Energy Information Administration - EIA-860 - 2021",
        "start_date": "1970-03"
      },
      "lat": 41.4736235,
      "lon": -81.7128556
    },
    {
      "type": "way",
      "id": 1088042938,
      "center": {
        "lat": 41.7264667,
        "lon": -81.2544831
      },
      "tags": {
        "landuse": "industrial",
        "name": "Painesville Power Plant",
        "operator": "City of Painesville",
        "plant:output:electricity": "55.5 MW",
        "plant:source": "coal",
        "power": "plant",
        "ref:US:EIA": "2936",
        "source": "U.S. Energy Information Administration - EIA-860 - 2021",
        "start_date": "1949-01"
      },
      "lat": 41.7264667,
      "lon": -81.2544831
    },
    {
      "type": "way",
      "id": 1088042939,
      "center": {
        "lat": 41.5569445,
        "lon": -81.5878512
      },
      "tags": {
        "landuse": "industrial",
        "name": "Collinwood Power Plant",
        "operator": "City of Cleveland - (OH)",
        "plant:method": "combustion",
        "plant:output:electricity": "16 MW",
        "plant:source": "oil",
        "power": "plant",
        "ref:US:EIA": "2906",
        "source": "U.S. Energy Information Administration - EIA-860 - 2021",
        "start_date": "1971-02",
        "wikidata": "Q116686512"
      },
      "lat": 41.5569445,
      "lon": -81.5878512
    },
    {
      "type": "way",
      "id": 1088042940,
      "center": {
        "lat": 41.5566496,
        "lon": -81.5885855
      },
      "tags": {
        "name": "Cleveland Peaking Power Plant",
        "operator": "American Mun Power-Ohio, Inc",
        "plant:output:electricity": "10.8 MW",
        "plant:source": "oil",
        "power": "plant",
        "ref:US:EIA": "7774",
        "source": "U.S. Energy Information Administration - EIA-860 - 2021",
        "start_date": "2000-07"
      },
      "lat": 41.5566496,
      "lon": -81.5885855
    },
    {
      "type": "way",
      "id": 1088501186,
      "center": {
        "lat": 40.2791412,
        "lon": -84.191109
      },
      "tags": {
        "landuse": "industrial",
        "name": "Sidney Power Plant",
        "operator": "Kimura Power LLC",
        "plant:method": "combustion",
        "plant:output:electricity": "13.5 MW",
        "plant:source": "oil",
        "power": "plant",
        "ref:US:EIA": "2852",
        "source": "U.S. Energy Information Administration - EIA-860 - 2021",
        "start_date": "1968-07"
      },
      "lat": 40.2791412,
      "lon": -84.191109
    },
    {
      "type": "way",
      "id": 1088501187,
      "center": {
        "lat": 41.5032375,
        "lon": -84.4287696
      },
      "tags": {
        "landuse": "industrial",
        "name": "Stryker Power Plant",
        "operator": "Richland-Stryker Generation LLC",
        "plant:output:electricity": "19 MW",
        "plant:source": "oil",
        "power": "plant",
        "ref:US:EIA": "2881",
        "source": "U.S. Energy Information Administration - EIA-860 - 2021",
        "start_date": "1968-02"
      },
      "lat": 41.5032375,
      "lon": -84.4287696
    },
    {
      "type": "way",
      "id": 1088501190,
      "center": {
        "lat": 40.4597122,
        "lon": -84.0400581
      },
      "tags": {
        "name": "Jackson Cntr Peaking",
        "operator": "American Mun Power-Ohio, Inc",
        "plant:output:electricity": "1.8 MW",
        "plant:source": "oil",
        "power": "plant",
        "ref:US:EIA": "7780",
        "source": "U.S. Energy Information Administration - EIA-860 - 2021",
        "start_date": "1999-06"
      },
      "lat": 40.4597122,
      "lon": -84.0400581
    },
    {
      "type": "way",
      "id": 1088501191,
      "center": {
        "lat": 40.2252233,
        "lon": -84.4754541
      },
      "tags": {
        "landuse": "industrial",
        "name": "Versailles Peaking",
        "operator": "American Mun Power-Ohio, Inc",
        "plant:method": "combustion",
        "plant:output:electricity": "5.4 MW",
        "plant:source": "oil",
        "power": "plant",
        "ref:US:EIA": "7775",
        "source": "U.S. Energy Information Administration - EIA-860 - 2021",
        "start_date": "1999-06"
      },
      "lat": 40.2252233,
      "lon": -84.4754541
    },
    {
      "type": "way",
      "id": 1088501192,
      "center": {
        "lat": 41.3881464,
        "lon": -83.6401707
      },
      "tags": {
        "landuse": "industrial",
        "name": "Bowling Green Peaking",
        "operator": "American Mun Power-Ohio, Inc",
        "plant:output:electricity": "32 MW",
        "plant:source": "gas",
        "power": "plant",
        "ref:US:EIA": "7783",
        "source": "U.S. Energy Information Administration - EIA-860 - 2021",
        "start_date": "2000-06"
      },
      "lat": 41.3881464,
      "lon": -83.6401707
    },
    {
      "type": "way",
      "id": 1088501197,
      "center": {
        "lat": 41.4087634,
        "lon": -84.1081516
      },
      "tags": {
        "landuse": "industrial",
        "name": "Napoleon Peaking",
        "operator": "American Municipal Power",
        "operator:wikidata": "Q125490873",
        "plant:method": "combustion",
        "plant:output:electricity": "5.4 MW",
        "plant:source": "oil",
        "power": "plant",
        "ref:US:EIA": "7776",
        "source": "U.S. Energy Information Administration - EIA-860 - 2021",
        "start_date": "1999-07"
      },
      "lat": 41.4087634,
      "lon": -84.1081516
    },
    {
      "type": "way",
      "id": 1103063615,
      "center": {
        "lat": 41.0581503,
        "lon": -83.6516914
      },
      "tags": {
        "plant:method": "photovoltaic",
        "plant:output:electricity": "yes",
        "plant:source": "solar",
        "power": "plant"
      },
      "lat": 41.0581503,
      "lon": -83.6516914
    },
    {
      "type": "way",
      "id": 1103272308,
      "center": {
        "lat": 38.9422195,
        "lon": -83.5912809
      },
      "tags": {
        "plant:method": "photovoltaic",
        "plant:output:electricity": "yes",
        "plant:source": "solar",
        "power": "plant"
      },
      "lat": 38.9422195,
      "lon": -83.5912809
    },
    {
      "type": "way",
      "id": 1115847123,
      "center": {
        "lat": 41.0878895,
        "lon": -84.3520606
      },
      "tags": {
        "plant:method": "photovoltaic",
        "plant:output:electricity": "yes",
        "plant:source": "solar",
        "power": "plant"
      },
      "lat": 41.0878895,
      "lon": -84.3520606
    },
    {
      "type": "way",
      "id": 1116700548,
      "center": {
        "lat": 41.2342183,
        "lon": -84.2845125
      },
      "tags": {
        "plant:method": "photovoltaic",
        "plant:output:electricity": "yes",
        "plant:source": "solar",
        "power": "plant"
      },
      "lat": 41.2342183,
      "lon": -84.2845125
    },
    {
      "type": "way",
      "id": 1117160365,
      "center": {
        "lat": 39.0369917,
        "lon": -83.9377594
      },
      "tags": {
        "plant:method": "photovoltaic",
        "plant:output:electricity": "yes",
        "plant:source": "solar",
        "power": "plant"
      },
      "lat": 39.0369917,
      "lon": -83.9377594
    },
    {
      "type": "way",
      "id": 1117160366,
      "center": {
        "lat": 39.0368936,
        "lon": -83.9368961
      },
      "tags": {
        "plant:method": "photovoltaic",
        "plant:output:electricity": "yes",
        "plant:source": "solar",
        "power": "plant"
      },
      "lat": 39.0368936,
      "lon": -83.9368961
    },
    {
      "type": "way",
      "id": 1117160367,
      "center": {
        "lat": 39.0363532,
        "lon": -83.9338437
      },
      "tags": {
        "plant:method": "photovoltaic",
        "plant:output:electricity": "yes",
        "plant:source": "solar",
        "power": "plant"
      },
      "lat": 39.0363532,
      "lon": -83.9338437
    },
    {
      "type": "way",
      "id": 1117304285,
      "center": {
        "lat": 41.5376277,
        "lon": -83.815542
      },
      "tags": {
        "plant:method": "photovoltaic",
        "plant:output:electricity": "yes",
        "plant:source": "solar",
        "power": "plant"
      },
      "lat": 41.5376277,
      "lon": -83.815542
    },
    {
      "type": "way",
      "id": 1120248884,
      "center": {
        "lat": 39.7259972,
        "lon": -82.6658978
      },
      "tags": {
        "plant:method": "photovoltaic",
        "plant:output:electricity": "yes",
        "plant:source": "solar",
        "power": "plant"
      },
      "lat": 39.7259972,
      "lon": -82.6658978
    },
    {
      "type": "way",
      "id": 1150122192,
      "center": {
        "lat": 39.955247,
        "lon": -82.4362272
      },
      "tags": {
        "barrier": "fence",
        "plant:method": "photovoltaic",
        "plant:output:electricity": "yes",
        "plant:source": "solar",
        "power": "plant"
      },
      "lat": 39.955247,
      "lon": -82.4362272
    },
    {
      "type": "way",
      "id": 1151664930,
      "center": {
        "lat": 40.2572978,
        "lon": -84.6149806
      },
      "tags": {
        "plant:method": "photovoltaic",
        "plant:output:electricity": "yes",
        "plant:source": "solar",
        "power": "plant"
      },
      "lat": 40.2572978,
      "lon": -84.6149806
    },
    {
      "type": "way",
      "id": 1151670325,
      "center": {
        "lat": 40.9833156,
        "lon": -84.1774415
      },
      "tags": {
        "plant:method": "photovoltaic",
        "plant:output:electricity": "yes",
        "plant:source": "solar",
        "power": "plant"
      },
      "lat": 40.9833156,
      "lon": -84.1774415
    },
    {
      "type": "way",
      "id": 1153872179,
      "center": {
        "lat": 40.5421463,
        "lon": -84.5928435
      },
      "tags": {
        "name": "Celina Solar Project #1, LLC",
        "operator": "Celina Solar Project #1, LLC",
        "plant:method": "photovoltaic",
        "plant:output:electricity": "4 MW",
        "plant:source": "solar",
        "power": "plant",
        "ref:US:EIA": "58665",
        "source": "U.S. Energy Information Administration - EIA-860 - 2022",
        "start_date": "2012-12"
      },
      "lat": 40.5421463,
      "lon": -84.5928435
    },
    {
      "type": "way",
      "id": 1153885602,
      "center": {
        "lat": 41.4431476,
        "lon": -81.7515788
      },
      "tags": {
        "barrier": "fence",
        "name": "Cuyahoga County Landfill Solar",
        "operator": "IOS II LLC",
        "plant:method": "photovoltaic",
        "plant:output:electricity": "3.7 MW",
        "plant:source": "solar",
        "power": "plant",
        "ref:US:EIA": "62041",
        "source": "U.S. Energy Information Administration - EIA-860 - 2022",
        "start_date": "2018-09"
      },
      "lat": 41.4431476,
      "lon": -81.7515788
    },
    {
      "type": "way",
      "id": 1155618098,
      "center": {
        "lat": 40.0787242,
        "lon": -82.5128314
      },
      "tags": {
        "name": "Denison Solar Array",
        "operator": "AEP Onsite Partners, LLC",
        "plant:method": "photovoltaic",
        "plant:output:electricity": "1.9 MW",
        "plant:source": "solar",
        "power": "plant",
        "ref:US:EIA": "61637",
        "source": "U.S. Energy Information Administration - EIA-860 - 2022",
        "start_date": "2017-12"
      },
      "lat": 40.0787242,
      "lon": -82.5128314
    },
    {
      "type": "way",
      "id": 1155618857,
      "center": {
        "lat": 40.8963201,
        "lon": -82.6730169
      },
      "tags": {
        "name": "Shelby Solar Array",
        "operator": "AEP Onsite Partners, LLC",
        "plant:method": "photovoltaic",
        "plant:output:electricity": "1.9 MW",
        "plant:source": "solar",
        "power": "plant",
        "ref:US:EIA": "63390",
        "source": "U.S. Energy Information Administration - EIA-860 - 2022",
        "start_date": "2019-12"
      },
      "lat": 40.8963201,
      "lon": -82.6730169
    },
    {
      "type": "way",
      "id": 1155623470,
      "center": {
        "lat": 40.4449544,
        "lon": -84.0474478
      },
      "tags": {
        "barrier": "fence",
        "name": "DG AMP Solar Jackson Center",
        "operator": "DG AMP Solar, LLC",
        "plant:method": "photovoltaic",
        "plant:output:electricity": "1.6 MW",
        "plant:source": "solar",
        "power": "plant",
        "ref:US:EIA": "61438",
        "source": "U.S. Energy Information Administration - EIA-860 - 2022",
        "start_date": "2018-02"
      },
      "lat": 40.4449544,
      "lon": -84.0474478
    },
    {
      "type": "way",
      "id": 1161386027,
      "center": {
        "lat": 39.9569081,
        "lon": -82.4400945
      },
      "tags": {
        "plant:method": "photovoltaic",
        "plant:output:electricity": "yes",
        "plant:source": "solar",
        "power": "plant"
      },
      "lat": 39.9569081,
      "lon": -82.4400945
    },
    {
      "type": "way",
      "id": 1169697741,
      "center": {
        "lat": 39.9437631,
        "lon": -83.317998
      },
      "tags": {
        "location": "roof",
        "name": "IGS CMH4, LLC",
        "operator": "Greenbacker Renewable Energy Corporation",
        "plant:method": "photovoltaic",
        "plant:output:electricity": "4.2 MW",
        "plant:source": "solar",
        "power": "plant",
        "ref:US:EIA": "66010",
        "source": "U.S. Energy Information Administration - EIA-860m - 2025",
        "start_date": "2023-07"
      },
      "lat": 39.9437631,
      "lon": -83.317998
    },
    {
      "type": "way",
      "id": 1169697767,
      "center": {
        "lat": 41.5480821,
        "lon": -83.577809
      },
      "tags": {
        "location": "roof",
        "name": "IGS PCW1",
        "operator": "Greenbacker Renewable Energy Corporation",
        "plant:method": "photovoltaic",
        "plant:output:electricity": "3.1 MW",
        "plant:source": "solar",
        "power": "plant",
        "ref:US:EIA": "66069",
        "source": "U.S. Energy Information Administration - EIA-860m - 2025",
        "start_date": "2023-07"
      },
      "lat": 41.5480821,
      "lon": -83.577809
    },
    {
      "type": "way",
      "id": 1188064564,
      "center": {
        "lat": 40.219117,
        "lon": -84.7496799
      },
      "tags": {
        "plant:method": "photovoltaic",
        "plant:output:electricity": "yes",
        "plant:source": "solar",
        "power": "plant"
      },
      "lat": 40.219117,
      "lon": -84.7496799
    },
    {
      "type": "way",
      "id": 1194603305,
      "center": {
        "lat": 41.0728294,
        "lon": -81.5307124
      },
      "tags": {
        "building": "yes",
        "landuse": "industrial",
        "name": "Akron Energy Systems",
        "plant:method": "combustion",
        "plant:output:electricity": "yes",
        "plant:source": "coal",
        "power": "plant"
      },
      "lat": 41.0728294,
      "lon": -81.5307124
    },
    {
      "type": "way",
      "id": 1195735283,
      "center": {
        "lat": 39.9376817,
        "lon": -81.5358461
      },
      "tags": {
        "landuse": "industrial",
        "name": "Guernsey Power Plant",
        "operator": "Guernsey Power Station LLC",
        "plant:method": "combustion",
        "plant:output:electricity": "1875 MW",
        "plant:source": "gas",
        "plant:type": "combined_cycle",
        "power": "plant",
        "ref:US:EIA": "62949",
        "source": "U.S. Energy Information Administration - EIA-860 - 2024",
        "start_date": "2023-02"
      },
      "lat": 39.9376817,
      "lon": -81.5358461
    },
    {
      "type": "way",
      "id": 1221637992,
      "center": {
        "lat": 39.324411,
        "lon": -82.9741676
      },
      "tags": {
        "landuse": "industrial",
        "name": "Pixelle Specialty Solutions LLC - Chillicothe Facility",
        "operator": "Pixelle Specialty Solution, LLC",
        "plant:output:electricity": "92.8 MW",
        "plant:output:hot_water": "yes",
        "plant:source": "gas;biomass",
        "power": "plant",
        "ref:US:EIA": "10244",
        "source": "U.S. Energy Information Administration - EIA-860 - 2021",
        "start_date": "1952-02"
      },
      "lat": 39.324411,
      "lon": -82.9741676
    },
    {
      "type": "way",
      "id": 1227402147,
      "center": {
        "lat": 41.4715042,
        "lon": -84.5429922
      },
      "tags": {
        "landuse": "industrial",
        "name": "Bryan Power Plant",
        "operator": "City of Bryan - (OH)",
        "plant:method": "combustion",
        "plant:output:electricity": "39.3 MW",
        "plant:source": "gas",
        "power": "plant",
        "ref:US:EIA": "2903",
        "source": "U.S. Energy Information Administration - EIA-860 - 2022",
        "start_date": "1948-05"
      },
      "lat": 41.4715042,
      "lon": -84.5429922
    },
    {
      "type": "way",
      "id": 1228517800,
      "center": {
        "lat": 41.4254098,
        "lon": -83.7464084
      },
      "tags": {
        "operator": "Otsego Local School District",
        "plant:method": "photovoltaic",
        "plant:output:electricity": "1 MW",
        "plant:source": "solar",
        "power": "plant",
        "start_date": "2020-07-29"
      },
      "lat": 41.4254098,
      "lon": -83.7464084
    },
    {
      "type": "way",
      "id": 1234599507,
      "center": {
        "lat": 41.477112,
        "lon": -83.711102
      },
      "tags": {
        "plant:method": "photovoltaic",
        "plant:output:electricity": "yes",
        "plant:source": "solar",
        "power": "plant"
      },
      "lat": 41.477112,
      "lon": -83.711102
    },
    {
      "type": "way",
      "id": 1238694750,
      "center": {
        "lat": 41.2122837,
        "lon": -80.8174606
      },
      "tags": {
        "fixme": "should the boundary extend to the north?",
        "landuse": "industrial",
        "name": "Clevelandcliffs Warren Power Plant",
        "operator": "Clevelandcliffs Warren",
        "plant:method": "combustion",
        "plant:output:electricity": "13 MW",
        "plant:output:hot_water": "yes",
        "plant:source": "gas",
        "power": "plant",
        "ref:US:EIA": "54207",
        "source": "U.S. Energy Information Administration - EIA-860m - 2025",
        "start_date": "1934-10"
      },
      "lat": 41.2122837,
      "lon": -80.8174606
    },
    {
      "type": "way",
      "id": 1244779834,
      "center": {
        "lat": 39.3355704,
        "lon": -82.0793141
      },
      "tags": {
        "addr:city": "Athens",
        "addr:postcode": "45701",
        "addr:state": "OH",
        "addr:street": "E. Park Drive",
        "name": "City of Athens Solar Array",
        "operator": "City of Athens",
        "operator:type": "government",
        "plant:method": "photovoltaic",
        "plant:output:electricity": "yes",
        "plant:source": "solar",
        "power": "plant"
      },
      "lat": 39.3355704,
      "lon": -82.0793141
    },
    {
      "type": "way",
      "id": 1245823742,
      "center": {
        "lat": 40.0795662,
        "lon": -82.5222242
      },
      "tags": {
        "plant:method": "photovoltaic",
        "plant:output:electricity": "yes",
        "plant:source": "solar",
        "power": "plant"
      },
      "lat": 40.0795662,
      "lon": -82.5222242
    },
    {
      "type": "way",
      "id": 1252016157,
      "center": {
        "lat": 40.6245488,
        "lon": -84.2044477
      },
      "tags": {
        "landuse": "industrial",
        "power": "plant"
      },
      "lat": 40.6245488,
      "lon": -84.2044477
    },
    {
      "type": "way",
      "id": 1261363794,
      "center": {
        "lat": 39.4546268,
        "lon": -84.6830815
      },
      "tags": {
        "plant:method": "photovoltaic",
        "plant:output:electricity": "yes",
        "plant:source": "solar",
        "power": "plant"
      },
      "lat": 39.4546268,
      "lon": -84.6830815
    },
    {
      "type": "way",
      "id": 1267900553,
      "center": {
        "lat": 38.8782824,
        "lon": -82.3904182
      },
      "tags": {
        "plant:method": "photovoltaic",
        "plant:output:electricity": "yes",
        "plant:source": "solar",
        "power": "plant"
      },
      "lat": 38.8782824,
      "lon": -82.3904182
    },
    {
      "type": "way",
      "id": 1267900568,
      "center": {
        "lat": 38.9065036,
        "lon": -82.1721931
      },
      "tags": {
        "plant:method": "photovoltaic",
        "plant:output:electricity": "yes",
        "plant:source": "solar",
        "power": "plant"
      },
      "lat": 38.9065036,
      "lon": -82.1721931
    },
    {
      "type": "way",
      "id": 1267913133,
      "center": {
        "lat": 40.5531569,
        "lon": -83.9534124
      },
      "tags": {
        "plant:method": "photovoltaic",
        "plant:output:electricity": "yes",
        "plant:source": "solar",
        "power": "plant"
      },
      "lat": 40.5531569,
      "lon": -83.9534124
    },
    {
      "type": "way",
      "id": 1271995256,
      "center": {
        "lat": 39.0868033,
        "lon": -83.3212023
      },
      "tags": {
        "barrier": "fence",
        "plant:method": "photovoltaic",
        "plant:output:electricity": "yes",
        "plant:source": "solar",
        "power": "plant"
      },
      "lat": 39.0868033,
      "lon": -83.3212023
    },
    {
      "type": "way",
      "id": 1292917085,
      "center": {
        "lat": 41.5958682,
        "lon": -83.7807988
      },
      "tags": {
        "plant:method": "photovoltaic",
        "plant:output:electricity": "yes",
        "plant:source": "solar",
        "power": "plant"
      },
      "lat": 41.5958682,
      "lon": -83.7807988
    },
    {
      "type": "way",
      "id": 1299516712,
      "center": {
        "lat": 39.9128989,
        "lon": -82.8082264
      },
      "tags": {
        "plant:method": "photovoltaic",
        "plant:output:electricity": "yes",
        "plant:source": "solar",
        "power": "plant"
      },
      "lat": 39.9128989,
      "lon": -82.8082264
    },
    {
      "type": "way",
      "id": 1301134319,
      "center": {
        "lat": 40.8053072,
        "lon": -81.8429883
      },
      "tags": {
        "plant:method": "photovoltaic",
        "plant:output:electricity": "yes",
        "plant:source": "solar",
        "power": "plant"
      },
      "lat": 40.8053072,
      "lon": -81.8429883
    },
    {
      "type": "way",
      "id": 1314971474,
      "center": {
        "lat": 41.9086236,
        "lon": -80.7691952
      },
      "tags": {
        "landuse": "industrial",
        "name": "Deactivated",
        "operator": "First Energy",
        "plant:method": "combustion",
        "plant:output:electricity": "yes",
        "plant:source": "coal",
        "power": "plant"
      },
      "lat": 41.9086236,
      "lon": -80.7691952
    },
    {
      "type": "way",
      "id": 1316471908,
      "center": {
        "lat": 41.8869165,
        "lon": -80.8339194
      },
      "tags": {
        "name": "KSUA Solar Farm",
        "plant:method": "photovoltaic",
        "plant:output:electricity": "yes",
        "plant:source": "solar",
        "power": "plant"
      },
      "lat": 41.8869165,
      "lon": -80.8339194
    },
    {
      "type": "way",
      "id": 1324901700,
      "center": {
        "lat": 40.4898575,
        "lon": -84.6240356
      },
      "tags": {
        "plant:method": "photovoltaic",
        "plant:output:electricity": "yes",
        "plant:source": "solar",
        "power": "plant"
      },
      "lat": 40.4898575,
      "lon": -84.6240356
    },
    {
      "type": "way",
      "id": 1330072966,
      "center": {
        "lat": 40.1387126,
        "lon": -83.0000768
      },
      "tags": {
        "plant:method": "photovoltaic",
        "plant:output:electricity": "yes",
        "plant:source": "solar",
        "power": "plant"
      },
      "lat": 40.1387126,
      "lon": -83.0000768
    },
    {
      "type": "way",
      "id": 1330072967,
      "center": {
        "lat": 40.1383321,
        "lon": -82.9985801
      },
      "tags": {
        "plant:method": "photovoltaic",
        "plant:output:electricity": "yes",
        "plant:source": "solar",
        "power": "plant"
      },
      "lat": 40.1383321,
      "lon": -82.9985801
    },
    {
      "type": "way",
      "id": 1330072968,
      "center": {
        "lat": 40.1382504,
        "lon": -82.996716
      },
      "tags": {
        "plant:method": "photovoltaic",
        "plant:output:electricity": "yes",
        "plant:source": "solar",
        "power": "plant"
      },
      "lat": 40.1382504,
      "lon": -82.996716
    },
    {
      "type": "way",
      "id": 1330072969,
      "center": {
        "lat": 40.1396014,
        "lon": -82.9949175
      },
      "tags": {
        "plant:method": "photovoltaic",
        "plant:output:electricity": "yes",
        "plant:source": "solar",
        "power": "plant"
      },
      "lat": 40.1396014,
      "lon": -82.9949175
    },
    {
      "type": "way",
      "id": 1330072970,
      "center": {
        "lat": 40.1407896,
        "lon": -82.9944628
      },
      "tags": {
        "plant:method": "photovoltaic",
        "plant:output:electricity": "yes",
        "plant:source": "solar",
        "power": "plant"
      },
      "lat": 40.1407896,
      "lon": -82.9944628
    },
    {
      "type": "way",
      "id": 1330072971,
      "center": {
        "lat": 40.1416897,
        "lon": -82.9941477
      },
      "tags": {
        "plant:method": "photovoltaic",
        "plant:output:electricity": "yes",
        "plant:source": "solar",
        "power": "plant"
      },
      "lat": 40.1416897,
      "lon": -82.9941477
    },
    {
      "type": "way",
      "id": 1334826761,
      "center": {
        "lat": 39.0873912,
        "lon": -84.0966547
      },
      "tags": {
        "plant:method": "photovoltaic",
        "plant:output:electricity": "yes",
        "plant:source": "solar",
        "power": "plant"
      },
      "lat": 39.0873912,
      "lon": -84.0966547
    },
    {
      "type": "way",
      "id": 1337433965,
      "center": {
        "lat": 41.5654506,
        "lon": -83.695062
      },
      "tags": {
        "name": "Maumee Solar",
        "operator": "Maumee Solar, LLC",
        "plant:method": "photovoltaic",
        "plant:output:electricity": "2.4 MW",
        "plant:source": "solar",
        "power": "plant",
        "ref:US:EIA": "68161",
        "source": "U.S. Energy Information Administration - EIA-860 - 2024",
        "start_date": "2024-11"
      },
      "lat": 41.5654506,
      "lon": -83.695062
    },
    {
      "type": "way",
      "id": 1339319752,
      "center": {
        "lat": 40.9085737,
        "lon": -81.7252853
      },
      "tags": {
        "plant:method": "photovoltaic",
        "plant:output:electricity": "yes",
        "plant:source": "solar",
        "power": "plant"
      },
      "lat": 40.9085737,
      "lon": -81.7252853
    },
    {
      "type": "way",
      "id": 1353268904,
      "center": {
        "lat": 41.7093227,
        "lon": -81.300359
      },
      "tags": {
        "plant:method": "photovoltaic",
        "plant:output:electricity": "yes",
        "plant:source": "solar",
        "power": "plant"
      },
      "lat": 41.7093227,
      "lon": -81.300359
    },
    {
      "type": "way",
      "id": 1353270878,
      "center": {
        "lat": 41.2450016,
        "lon": -82.5674781
      },
      "tags": {
        "plant:method": "photovoltaic",
        "plant:output:electricity": "yes",
        "plant:source": "solar",
        "power": "plant"
      },
      "lat": 41.2450016,
      "lon": -82.5674781
    },
    {
      "type": "way",
      "id": 1358692656,
      "center": {
        "lat": 38.9113331,
        "lon": -84.0491713
      },
      "tags": {
        "addr:housenumber": "2039",
        "addr:state": "OH",
        "addr:street": "Bethel Maple Road",
        "plant:method": "photovoltaic",
        "plant:output:electricity": "yes",
        "plant:source": "solar",
        "power": "plant",
        "start_date": "2024"
      },
      "lat": 38.9113331,
      "lon": -84.0491713
    },
    {
      "type": "way",
      "id": 1367738129,
      "center": {
        "lat": 41.0615588,
        "lon": -83.5564121
      },
      "tags": {
        "name": "Buckeye Power Inc.",
        "operator": "Township Road 215 Solar Project 2021, LLC",
        "plant:method": "photovoltaic",
        "plant:output:electricity": "2 MW",
        "plant:source": "solar",
        "power": "plant",
        "ref:US:EIA": "67084",
        "source": "U.S. Energy Information Administration - EIA-860 - 2024",
        "start_date": "2022-07"
      },
      "lat": 41.0615588,
      "lon": -83.5564121
    },
    {
      "type": "way",
      "id": 1367738130,
      "center": {
        "lat": 41.0608216,
        "lon": -83.5549205
      },
      "tags": {
        "plant:method": "photovoltaic",
        "plant:output:electricity": "yes",
        "plant:source": "solar",
        "power": "plant"
      },
      "lat": 41.0608216,
      "lon": -83.5549205
    },
    {
      "type": "way",
      "id": 1377355518,
      "center": {
        "lat": 40.9539614,
        "lon": -83.3983476
      },
      "tags": {
        "plant:method": "photovoltaic",
        "plant:output:electricity": "yes",
        "plant:source": "solar",
        "power": "plant"
      },
      "lat": 40.9539614,
      "lon": -83.3983476
    },
    {
      "type": "way",
      "id": 1377359772,
      "center": {
        "lat": 40.9471169,
        "lon": -83.3593646
      },