{
  "version": 0.6,
  "generator": "Overpass API 0.7.62.11 87bfad18",
  "osm3s": {
    "timestamp_osm_base": "2026-04-24T20:51:16Z",
    "timestamp_areas_base": "2026-04-24T15:53:36Z",
    "copyright": "The data included in this document is from www.openstreetmap.org. The data is made available under ODbL."
  },
  "elements": [
    {
      "type": "node",
      "id": 11244969188,
      "lat": 45.0225926,
      "lon": -122.9220714,
      "tags": {
        "name": "Labish Solar",
        "plant:method": "photovoltaic",
        "plant:output:electricity": "2200 kW",
        "plant:source": "solar",
        "power": "plant"
      }
    },
    {
      "type": "node",
      "id": 13293818271,
      "lat": 43.2899699,
      "lon": -123.3616019,
      "tags": {
        "name": "Douglas County Forest Products",
        "operator": "Douglas County Forest Products",
        "plant:method": "combustion",
        "plant:output:electricity": "6.3 MW",
        "plant:output:hot_water": "yes",
        "plant:source": "biomass",
        "power": "plant",
        "ref:US:EIA": "61761",
        "source": "U.S. Energy Information Administration - EIA-860 - 2024",
        "start_date": "2006-12"
      }
    },
    {
      "type": "node",
      "id": 13293847161,
      "lat": 43.0895202,
      "lon": -123.4150236,
      "tags": {
        "name": "Dillard Complex",
        "operator": "Roseburg Forest Products Co",
        "plant:method": "combustion",
        "plant:output:electricity": "51.5 MW",
        "plant:output:hot_water": "yes",
        "plant:source": "biomass",
        "power": "plant",
        "ref:US:EIA": "50396",
        "source": "U.S. Energy Information Administration - EIA-860 - 2024",
        "start_date": "1955-01"
      }
    },
    {
      "type": "way",
      "id": 93688711,
      "center": {
        "lat": 45.299346,
        "lon": -122.3506567
      },
      "tags": {
        "addr:state": "OR",
        "ele": "115",
        "gnis:feature_id": "1158851",
        "name": "River Mill Dam",
        "plant:source": "hydro",
        "power": "plant",
        "ref:US:NID": "OR00552",
        "waterway": "dam",
        "wikidata": "Q7337635"
      },
      "lat": 45.299346,
      "lon": -122.3506567
    },
    {
      "type": "way",
      "id": 94398300,
      "center": {
        "lat": 45.6497213,
        "lon": -122.7254448
      },
      "tags": {
        "landuse": "industrial",
        "name": "River Road Generating Plant",
        "operator": "Clark Public Utilities",
        "plant:method": "combustion",
        "plant:output:electricity": "248 MW",
        "plant:source": "gas",
        "power": "plant",
        "ref:US:EIA": "7605",
        "source": "bing",
        "start_date": "1997-12",
        "website": "https://www.clarkpublicutilities.com/aboutus/ourPowerSupply/riverRoad"
      },
      "lat": 45.6497213,
      "lon": -122.7254448
    },
    {
      "type": "way",
      "id": 117451569,
      "center": {
        "lat": 45.3697692,
        "lon": -122.755325
      },
      "tags": {
        "barrier": "fence",
        "name": "Oregon Solar Highway Project",
        "note": "https://www.oregon.gov/odot/Programs/Pages/Solar-Highway.aspx",
        "operator": "Portland General Electric",
        "plant:method": "photovoltaic",
        "plant:output:electricity": "104 kW",
        "plant:source": "solar",
        "power": "plant",
        "start_date": "2008-12-19"
      },
      "lat": 45.3697692,
      "lon": -122.755325
    },
    {
      "type": "way",
      "id": 259069595,
      "center": {
        "lat": 44.0623347,
        "lon": -121.3133491
      },
      "tags": {
        "building": "yes",
        "landuse": "industrial",
        "operator": "PacifiCorp",
        "operator:wikidata": "Q2045479",
        "plant:output:electricity": "1.1 MW",
        "plant:source": "hydro",
        "power": "plant",
        "ref:US:EIA": "6484",
        "source": "U.S. Energy Information Administration - EIA-860 - 2020",
        "start_date": "1913-07"
      },
      "lat": 44.0623347,
      "lon": -121.3133491
    },
    {
      "type": "way",
      "id": 298721534,
      "center": {
        "lat": 45.4816685,
        "lon": -122.0832077
      },
      "tags": {
        "building": "yes",
        "name": "PHP 1",
        "operator": "Portland Water Bureau",
        "plant:method": "water-storage",
        "plant:output:electricity": "23.7 MW",
        "plant:source": "hydro",
        "power": "plant",
        "ref:US:EIA": "4213",
        "source": "U.S. Energy Information Administration - EIA-860 - 2021",
        "start_date": "1982-02"
      },
      "lat": 45.4816685,
      "lon": -122.0832077
    },
    {
      "type": "way",
      "id": 323391204,
      "center": {
        "lat": 45.8037899,
        "lon": -119.3701461
      },
      "tags": {
        "addr:city": "Hermiston",
        "addr:housenumber": "78145",
        "addr:postcode": "97838",
        "addr:state": "OR",
        "addr:street": "Westland Road",
        "landuse": "industrial",
        "name": "Hermiston Generating Plant",
        "operator": "Hermiston Generating Co LP",
        "plant:method": "combustion",
        "plant:output:electricity": "621.2 MW",
        "plant:output:hot_water": "yes",
        "plant:source": "gas",
        "plant:type": "combined_cycle",
        "power": "plant",
        "ref:US:EIA": "54761",
        "source": "bing",
        "start_date": "1996-06",
        "wikidata": "Q19374214"
      },
      "lat": 45.8037899,
      "lon": -119.3701461
    },
    {
      "type": "way",
      "id": 345999993,
      "center": {
        "lat": 44.285888,
        "lon": -122.0412301
      },
      "tags": {
        "landuse": "industrial",
        "name": "Carmen Smith Power Plant",
        "operator": "Eugene Water & Electric Board",
        "plant:method": "run-of-the-river",
        "plant:output:electricity": "114.3 MW",
        "plant:source": "hydro",
        "power": "plant",
        "ref:US:EIA": "3067",
        "source": "U.S. Energy Information Administration - EIA-860 - 2020",
        "start_date": "1963-01",
        "wikidata": "Q65202585"
      },
      "lat": 44.285888,
      "lon": -122.0412301
    },
    {
      "type": "way",
      "id": 355326461,
      "center": {
        "lat": 43.2727602,
        "lon": -122.4475092
      },
      "tags": {
        "building": "yes",
        "name": "Toketee Powerhouse",
        "operator": "PacifiCorp",
        "operator:wikidata": "Q2045479",
        "plant:output:electricity": "42.6 MW",
        "plant:source": "hydro",
        "power": "plant",
        "ref:US:EIA": "3040",
        "source": "U.S. Energy Information Administration - EIA-860 - 2020",
        "start_date": "1949-12"
      },
      "lat": 43.2727602,
      "lon": -122.4475092
    },
    {
      "type": "way",
      "id": 358456900,
      "center": {
        "lat": 43.9153334,
        "lon": -122.7535194
      },
      "tags": {
        "addr:city": "Lowell",
        "addr:housenumber": "40386",
        "addr:postcode": "97452",
        "addr:state": "OR",
        "addr:street": "West Boundary Road",
        "building": "yes",
        "name": "Lookout Point Power Plant",
        "operator": "USACE Northwestern Division",
        "plant:output:electricity": "120 MW",
        "plant:source": "hydro",
        "power": "plant",
        "ref:US:EIA": "3083",
        "source": "U.S. Energy Information Administration - EIA-860 - 2020",
        "start_date": "1955-01",
        "wikidata": "Q6675516"
      },
      "lat": 43.9153334,
      "lon": -122.7535194
    },
    {
      "type": "way",
      "id": 362345335,
      "center": {
        "lat": 45.400515,
        "lon": -122.7657756
      },
      "tags": {
        "building": "yes",
        "name": "Durham AWTF",
        "operator": "Clean Water Services",
        "plant:output:electricity": "1.6 MW",
        "plant:output:hot_water": "yes",
        "plant:source": "biogas",
        "power": "plant",
        "ref:US:EIA": "60263",
        "source": "U.S. Energy Information Administration - EIA-860 - 2021",
        "start_date": "2015-04"
      },
      "lat": 45.400515,
      "lon": -122.7657756
    },
    {
      "type": "way",
      "id": 419361401,
      "center": {
        "lat": 44.836489,
        "lon": -116.8983932
      },
      "tags": {
        "name": "Brownlee powerhouse",
        "operator": "Idaho Power",
        "operator:wikidata": "Q3147780",
        "plant:method": "water-storage",
        "plant:output:electricity": "675 MW",
        "plant:source": "hydro",
        "power": "plant",
        "ref:US:EIA": "811",
        "source": "U.S. Energy Information Administration - EIA-860 - 2020",
        "start_date": "1958-08",
        "wikidata": "Q4976595"
      },
      "lat": 44.836489,
      "lon": -116.8983932
    },
    {
      "type": "way",
      "id": 419361408,
      "center": {
        "lat": 45.713916,
        "lon": -120.691439
      },
      "tags": {
        "landuse": "industrial",
        "name": "John Day Powerhouse",
        "operator": "United States Army Corps of Engineers",
        "plant:output:electricity": "2160 MW",
        "plant:source": "hydro",
        "power": "plant",
        "ref:US:EIA": "3082",
        "source": "U.S. Energy Information Administration - EIA-860 - 2020",
        "start_date": "1968-08",
        "wikidata": "Q689531"
      },
      "lat": 45.713916,
      "lon": -120.691439
    },
    {
      "type": "way",
      "id": 422872608,
      "center": {
        "lat": 45.6174853,
        "lon": -121.1242763
      },
      "tags": {
        "building": "industrial",
        "landuse": "industrial",
        "name": "The Dalles Powerhouse",
        "operator": "USACE Northwestern Division",
        "plant:output:electricity": "1819.7 MW",
        "plant:source": "hydro",
        "power": "plant",
        "ref:US:EIA": "3895",
        "source": "U.S. Energy Information Administration - EIA-860 - 2020",
        "start_date": "1957-06",
        "wikidata": "Q535403"
      },
      "lat": 45.6174853,
      "lon": -121.1242763
    },
    {
      "type": "way",
      "id": 432401957,
      "center": {
        "lat": 42.7312288,
        "lon": -122.5140148
      },
      "tags": {
        "addr:state": "OR",
        "building": "yes",
        "ele": "614",
        "gnis:feature_id": "1116719",
        "name": "Prospect 2 Power Plant",
        "operator": "PacifiCorp",
        "operator:wikidata": "Q2045479",
        "plant:output:electricity": "32 MW",
        "plant:source": "hydro",
        "power": "plant",
        "ref:US:EIA": "3033",
        "source": "U.S. Energy Information Administration - EIA-860 - 2022",
        "start_date": "1928-01",
        "wikidata": "Q116697266"
      },
      "lat": 42.7312288,
      "lon": -122.5140148
    },
    {
      "type": "way",
      "id": 436432335,
      "center": {
        "lat": 45.4013742,
        "lon": -122.7662605
      },
      "tags": {
        "operator": "Clean Water Services",
        "plant:method": "photovoltaic",
        "plant:output:electricity": "403 kW",
        "plant:source": "solar",
        "power": "plant",
        "source": "https://www.cleanwaterservices.org/about-us/one-water/resource-recovery/energy/"
      },
      "lat": 45.4013742,
      "lon": -122.7662605
    },
    {
      "type": "way",
      "id": 484162084,
      "center": {
        "lat": 45.269722,
        "lon": -122.771971
      },
      "tags": {
        "alt_name": "Baldock Solar Highway Project;French Prairie Solar Station",
        "barrier": "fence",
        "name": "Baldock Solar Station",
        "operator": "Portland General Electric Co",
        "plant:method": "photovoltaic",
        "plant:output:electricity": "1.4 MW",
        "plant:source": "solar",
        "power": "plant",
        "ref:US:EIA": "57882",
        "source": "U.S. Energy Information Administration - EIA-860m - 2025",
        "start_date": "2012-01",
        "wikidata": "Q59305398"
      },
      "lat": 45.269722,
      "lon": -122.771971
    },
    {
      "type": "way",
      "id": 543640910,
      "center": {
        "lat": 43.2096822,
        "lon": -123.3464442
      },
      "tags": {
        "landuse": "industrial",
        "power": "plant"
      },
      "lat": 43.2096822,
      "lon": -123.3464442
    },
    {
      "type": "way",
      "id": 543640915,
      "center": {
        "lat": 43.2138528,
        "lon": -123.3418547
      },
      "tags": {
        "landuse": "industrial",
        "power": "plant"
      },
      "lat": 43.2138528,
      "lon": -123.3418547
    },
    {
      "type": "way",
      "id": 544664033,
      "center": {
        "lat": 43.2116637,
        "lon": -123.3459955
      },
      "tags": {
        "landuse": "industrial",
        "power": "plant"
      },
      "lat": 43.2116637,
      "lon": -123.3459955
    },
    {
      "type": "way",
      "id": 546904965,
      "center": {
        "lat": 45.4489672,
        "lon": -122.1512063
      },
      "tags": {
        "building": "yes",
        "name": "PHP 2",
        "operator": "Portland City of",
        "plant:output:electricity": "11.8 MW",
        "plant:source": "hydro",
        "power": "plant",
        "ref:US:EIA": "4214",
        "source": "U.S. Energy Information Administration - EIA-860 - 2021",
        "start_date": "1982-02"
      },
      "lat": 45.4489672,
      "lon": -122.1512063
    },
    {
      "type": "way",
      "id": 551361832,
      "center": {
        "lat": 42.7307053,
        "lon": -122.5151537
      },
      "tags": {
        "building": "yes",
        "name": "Prospect 1 Power Plant",
        "operator": "PacifiCorp",
        "operator:wikidata": "Q2045479",
        "plant:output:electricity": "3.8 MW",
        "plant:source": "hydro",
        "power": "plant",
        "ref:US:EIA": "3032",
        "source": "U.S. Energy Information Administration - EIA-860 - 2022",
        "start_date": "1912-01",
        "wikidata": "Q116697264"
      },
      "lat": 42.7307053,
      "lon": -122.5151537
    },
    {
      "type": "way",
      "id": 551462651,
      "center": {
        "lat": 42.1740043,
        "lon": -121.8098578
      },
      "tags": {
        "landuse": "industrial",
        "name": "Klamath Cogeneration Plant",
        "operator": "Klamath Energy LLC",
        "plant:method": "combustion",
        "plant:output:electricity": "501.5 MW",
        "plant:output:hot_water": "yes",
        "plant:source": "gas",
        "plant:type": "combined_cycle",
        "power": "plant",
        "ref:US:EIA": "55103",
        "source": "bing",
        "start_date": "2001-07",
        "wikidata": "Q11981091"
      },
      "lat": 42.1740043,
      "lon": -121.8098578
    },
    {
      "type": "way",
      "id": 578399037,
      "center": {
        "lat": 45.8482574,
        "lon": -119.6736995
      },
      "tags": {
        "landuse": "industrial",
        "name": "Coyote Springs I & II Power Plants",
        "plant:method": "combustion",
        "plant:output:electricity": "yes",
        "plant:source": "gas",
        "power": "plant",
        "source": "https://www.gem.wiki/Coyote_Springs_power_station;https://www.gem.wiki/Coyote_Springs_II_power_station",
        "website": "https://www.oregon.gov/energy/facilities-safety/facilities/Pages/COY.aspx"
      },
      "lat": 45.8482574,
      "lon": -119.6736995
    },
    {
      "type": "way",
      "id": 599992984,
      "center": {
        "lat": 43.3062507,
        "lon": -122.501881
      },
      "tags": {
        "addr:state": "OR",
        "ele": "549",
        "gnis:feature_id": "1135470",
        "name": "Soda Springs Power Plant",
        "operator": "PacifiCorp",
        "operator:wikidata": "Q2045479",
        "plant:output:electricity": "11 MW",
        "plant:source": "hydro",
        "power": "plant",
        "ref:US:EIA": "3037",
        "source": "U.S. Energy Information Administration - EIA-860 - 2020",
        "start_date": "1952-03"
      },
      "lat": 43.3062507,
      "lon": -122.501881
    },
    {
      "type": "way",
      "id": 658016289,
      "center": {
        "lat": 42.2601461,
        "lon": -121.7855037
      },
      "tags": {
        "barrier": "fence",
        "description": "Solar panel array on the north side of campus.",
        "name": "Oregon Institute of Technology Solar",
        "operator": "Tesla, Inc.",
        "operator:wikidata": "Q478214",
        "plant:method": "photovoltaic",
        "plant:output:electricity": "1.7 MW",
        "plant:source": "solar",
        "power": "plant",
        "ref:US:EIA": "58961",
        "source": "U.S. Energy Information Administration - EIA-860 - 2021",
        "start_date": "2014-01"
      },
      "lat": 42.2601461,
      "lon": -121.7855037
    },
    {
      "type": "way",
      "id": 662691651,
      "center": {
        "lat": 43.2669305,
        "lon": -122.4100506
      },
      "tags": {
        "addr:state": "OR",
        "building": "yes",
        "ele": "747",
        "gnis:feature_id": "1134864",
        "name": "Clearwater Powerplant Number 2",
        "operator": "PacifiCorp",
        "operator:wikidata": "Q2045479",
        "plant:output:electricity": "26 MW",
        "plant:source": "hydro",
        "power": "plant",
        "ref:US:EIA": "3021",
        "source": "U.S. Energy Information Administration - EIA-860 - 2020",
        "start_date": "1953-11"
      },
      "lat": 43.2669305,
      "lon": -122.4100506
    },
    {
      "type": "way",
      "id": 662780664,
      "center": {
        "lat": 45.1296195,
        "lon": -122.899733
      },
      "tags": {
        "alt_name": "SP Solar 1 - Gervais",
        "barrier": "fence",
        "name": "Interstate Solar",
        "operator": "Cypress Creek Renewables",
        "plant:method": "photovoltaic",
        "plant:output:electricity": "2.2 MW",
        "plant:source": "solar",
        "power": "plant",
        "ref:US:EIA": "61832"
      },
      "lat": 45.1296195,
      "lon": -122.899733
    },
    {
      "type": "way",
      "id": 670844069,
      "center": {
        "lat": 45.0678268,
        "lon": -123.4710721
      },
      "tags": {
        "barrier": "fence",
        "name": "Steel Bridge Solar Project",
        "operator": "Portland General Electric",
        "plant:method": "photovoltaic",
        "plant:output:electricity": "2.4 MW",
        "plant:source": "solar",
        "power": "plant",
        "ref:US:EIA": "60057"
      },
      "lat": 45.0678268,
      "lon": -123.4710721
    },
    {
      "type": "way",
      "id": 680204369,
      "center": {
        "lat": 44.0487409,
        "lon": -123.0743708
      },
      "tags": {
        "addr:city": "Eugene",
        "addr:housenumber": "1295",
        "addr:postcode": "97403-5274",
        "addr:state": "OR",
        "addr:street": "Franklin Boulevard",
        "landuse": "industrial",
        "name": "Central Power Station",
        "operator": "University of Oregon",
        "plant:method": "combustion",
        "plant:output:electricity": "17.6 MW",
        "plant:output:hot_water": "yes",
        "plant:source": "gas",
        "power": "plant",
        "ref:US:EIA": "54950",
        "source": "U.S. Energy Information Administration - EIA-860 - 2022",
        "start_date": "2009-09"
      },
      "lat": 44.0487409,
      "lon": -123.0743708
    },
    {
      "type": "way",
      "id": 700760526,
      "center": {
        "lat": 44.7513419,
        "lon": -122.2833235
      },
      "tags": {
        "building": "yes",
        "name": "Big Cliff Power Plant",
        "operator": "USACE Northwestern Division",
        "plant:output:electricity": "18 MW",
        "plant:source": "hydro",
        "power": "plant",
        "ref:US:EIA": "3074",
        "source": "bing",
        "start_date": "1954-12"
      },
      "lat": 44.7513419,
      "lon": -122.2833235
    },
    {
      "type": "way",
      "id": 700760530,
      "center": {
        "lat": 44.7224722,
        "lon": -122.2514746
      },
      "tags": {
        "building": "yes",
        "name": "Detroit Power Plant",
        "operator": "USACE Northwestern Division",
        "plant:output:electricity": "100 MW",
        "plant:source": "hydro",
        "power": "plant",
        "ref:US:EIA": "3077",
        "source": "bing",
        "start_date": "1953-07",
        "wikidata": "Q5265896"
      },
      "lat": 44.7224722,
      "lon": -122.2514746
    },
    {
      "type": "way",
      "id": 731768706,
      "center": {
        "lat": 44.9288586,
        "lon": -122.9773507
      },
      "tags": {
        "landuse": "industrial",
        "power": "plant"
      },
      "lat": 44.9288586,
      "lon": -122.9773507
    },
    {
      "type": "way",
      "id": 758187809,
      "center": {
        "lat": 43.2723818,
        "lon": -122.4469239
      },
      "tags": {
        "building": "yes",
        "name": "Fish Creek Powerhouse",
        "operator": "PacifiCorp",
        "plant:output:electricity": "11 MW",
        "plant:source": "hydro",
        "power": "plant",
        "ref:US:EIA": "3026",
        "source": "U.S. Energy Information Administration - EIA-860 - 2024",
        "start_date": "1952-06"
      },
      "lat": 43.2723818,
      "lon": -122.4469239
    },
    {
      "type": "way",
      "id": 758187831,
      "center": {
        "lat": 43.2939456,
        "lon": -122.4727837
      },
      "tags": {
        "addr:state": "OR",
        "building": "yes",
        "ele": "561",
        "gnis:feature_id": "1134859",
        "name": "Slide Creek Powerplant",
        "operator": "PacifiCorp",
        "operator:wikidata": "Q2045479",
        "plant:output:electricity": "18 MW",
        "plant:source": "hydro",
        "power": "plant",
        "ref:US:EIA": "3036",
        "source": "U.S. Energy Information Administration - EIA-860 - 2020",
        "start_date": "1951-07"
      },
      "lat": 43.2939456,
      "lon": -122.4727837
    },
    {
      "type": "way",
      "id": 765260470,
      "center": {
        "lat": 45.7933796,
        "lon": -119.3129584
      },
      "tags": {
        "landuse": "industrial",
        "name": "Hermiston Power Projects",
        "operator": "Hermiston Power Partnership",
        "plant:method": "combustion",
        "plant:output:electricity": "689.4 MW",
        "plant:source": "gas",
        "plant:type": "combined_cycle",
        "power": "plant",
        "ref:US:EIA": "55328",
        "source": "U.S. Energy Information Administration - EIA-860 - 2021",
        "start_date": "2002-08"
      },
      "lat": 45.7933796,
      "lon": -119.3129584
    },
    {
      "type": "way",
      "id": 765261299,
      "center": {
        "lat": 45.6994414,
        "lon": -119.8135499
      },
      "tags": {
        "landuse": "industrial",
        "name": "Carty Generating Station",
        "operator": "Portland General Electric",
        "plant:method": "combustion",
        "plant:output:electricity": "500 MW",
        "plant:source": "gas",
        "plant:type": "combined_cycle",
        "power": "plant",
        "ref:US:EIA": "58503",
        "source": "U.S. Energy Information Administration - EIA-860 - 2021",
        "start_date": "2016-07"
      },
      "lat": 45.6994414,
      "lon": -119.8135499
    },
    {
      "type": "way",
      "id": 773653779,
      "center": {
        "lat": 45.8482345,
        "lon": -119.6732523
      },
      "tags": {
        "building": "yes",
        "landuse": "industrial",
        "name": "Coyote Springs",
        "operator": "Portland General Electric Co",
        "plant:method": "combustion",
        "plant:output:electricity": "296 MW",
        "plant:output:hot_water": "yes",
        "plant:source": "gas",
        "plant:type": "combined_cycle",
        "power": "plant",
        "ref:US:EIA": "7350",
        "source": "U.S. Energy Information Administration - EIA-860 - 2021;https://www.gem.wiki/Coyote_Springs_power_station",
        "start_date": "1995-11",
        "wikidata": "Q11964172"
      },
      "lat": 45.8482345,
      "lon": -119.6732523
    },
    {
      "type": "way",
      "id": 773894153,
      "center": {
        "lat": 44.7582062,
        "lon": -121.2752378
      },
      "tags": {
        "plant:method": "photovoltaic",
        "plant:output:electricity": "yes",
        "plant:source": "solar",
        "power": "plant"
      },
      "lat": 44.7582062,
      "lon": -121.2752378
    },
    {
      "type": "way",
      "id": 774545006,
      "center": {
        "lat": 44.605785,
        "lon": -121.277222
      },
      "tags": {
        "building": "yes",
        "name": "Round Butte Power Plant",
        "operator": "Portland General Electric Co",
        "plant:output:electricity": "372.5 MW",
        "plant:source": "hydro",
        "power": "plant",
        "ref:US:EIA": "3050",
        "source": "U.S. Energy Information Administration - EIA-860 - 2020",
        "start_date": "1964-08",
        "wikidata": "Q11998514"
      },
      "lat": 44.605785,
      "lon": -121.277222
    },
    {
      "type": "way",
      "id": 792228088,
      "center": {
        "lat": 45.2043687,
        "lon": -122.7456489
      },
      "tags": {
        "barrier": "fence",
        "plant:method": "photovoltaic",
        "plant:output:electricity": "yes",
        "plant:source": "solar",
        "power": "plant"
      },
      "lat": 45.2043687,
      "lon": -122.7456489
    },
    {
      "type": "way",
      "id": 828285429,
      "center": {
        "lat": 44.1829133,
        "lon": -120.9159607
      },
      "tags": {
        "alt_name": "Solar Star Oregon II",
        "barrier": "fence",
        "name": "Gala Solar",
        "operator": "Avangrid Renewables",
        "plant:method": "photovoltaic",
        "plant:output:electricity": "56 MW",
        "plant:source": "solar",
        "power": "plant",
        "ref:US:EIA": "61048",
        "start_date": "2017-10"
      },
      "lat": 44.1829133,
      "lon": -120.9159607
    },
    {
      "type": "way",
      "id": 828287350,
      "center": {
        "lat": 45.5875583,
        "lon": -120.5965676
      },
      "tags": {
        "barrier": "fence",
        "name": "Wy'East Solar",
        "operator": "Avangrid Renewables",
        "plant:method": "photovoltaic",
        "plant:output:electricity": "10 MW",
        "plant:source": "solar",
        "power": "plant",
        "ref:US:EIA": "61345",
        "source": "U.S. Energy Information Administration - EIA-860 - 2021",
        "start_date": "2018-08"
      },
      "lat": 45.5875583,
      "lon": -120.5965676
    },
    {
      "type": "way",
      "id": 828324642,
      "center": {
        "lat": 44.6738275,
        "lon": -121.1229298
      },
      "tags": {
        "barrier": "fence",
        "name": "Adams Solar Center",
        "operator": "GCL New Energy",
        "plant:method": "photovoltaic",
        "plant:output:electricity": "13 MW",
        "plant:source": "solar",
        "power": "plant",
        "ref:US:EIA": "61496",
        "start_date": "2018"
      },
      "lat": 44.6738275,
      "lon": -121.1229298
    },
    {
      "type": "way",
      "id": 828326410,
      "center": {
        "lat": 44.6190181,
        "lon": -121.2062444
      },
      "tags": {
        "barrier": "fence",
        "name": "Elbe Solar Center",
        "operator": "GCL New Energy",
        "plant:method": "photovoltaic",
        "plant:output:electricity": "13 MW",
        "plant:source": "solar",
        "power": "plant",
        "ref:US:EIA": "61497",
        "start_date": "2018"
      },
      "lat": 44.6190181,
      "lon": -121.2062444
    },
    {
      "type": "way",
      "id": 828347332,
      "center": {
        "lat": 45.4307137,
        "lon": -122.284557
      },
      "tags": {
        "barrier": "fence",
        "name": "Boring Solar",
        "operator": "Boring Solar LLC",
        "plant:method": "photovoltaic",
        "plant:output:electricity": "2.2 MW",
        "plant:source": "solar",
        "power": "plant",
        "ref:US:EIA": "62169",
        "source": "U.S. Energy Information Administration - EIA-860 - 2021",
        "start_date": "2019-04"
      },
      "lat": 45.4307137,
      "lon": -122.284557
    },
    {
      "type": "way",
      "id": 828353178,
      "center": {
        "lat": 45.1703992,
        "lon": -122.4727431
      },
      "tags": {
        "barrier": "fence",
        "name": "SP Solar 6 - Colton",
        "plant:method": "photovoltaic",
        "plant:output:electricity": "2.2 MW",
        "plant:source": "solar",
        "power": "plant",
        "ref:US:EIA": "61831"
      },
      "lat": 45.1703992,
      "lon": -122.4727431
    },
    {
      "type": "way",
      "id": 828353711,
      "center": {
        "lat": 45.0142728,
        "lon": -122.8071955
      },
      "tags": {
        "barrier": "fence",
        "name": "Silverton Solar",
        "plant:method": "photovoltaic",
        "plant:output:electricity": "2.2 MW",
        "plant:source": "solar",
        "power": "plant",
        "ref:US:EIA": "61829"
      },
      "lat": 45.0142728,
      "lon": -122.8071955
    },
    {
      "type": "way",
      "id": 828376546,
      "center": {
        "lat": 45.0331084,
        "lon": -123.0958408
      },
      "tags": {
        "barrier": "fence",
        "name": "SP Solar 8 - Valley Creek Road",
        "plant:method": "photovoltaic",
        "plant:output:electricity": "2.2 MW",
        "plant:source": "solar",
        "power": "plant",
        "ref:US:EIA": "61828"
      },
      "lat": 45.0331084,
      "lon": -123.0958408
    },
    {
      "type": "way",
      "id": 828381086,
      "center": {
        "lat": 45.1123415,
        "lon": -123.2343701
      },
      "tags": {
        "barrier": "fence",
        "name": "Bellevue Solar",
        "operator": "EDF Renewable Energy",
        "plant:method": "photovoltaic",
        "plant:output:electricity": "1.66 MW",
        "plant:source": "solar",
        "power": "plant",
        "ref:US:EIA": "57372",
        "start_date": "2013",
        "website": "https://www.edf-re.com/project/bellevue-solar/"
      },
      "lat": 45.1123415,
      "lon": -123.2343701
    },
    {
      "type": "way",
      "id": 828382991,
      "center": {
        "lat": 45.1083568,
        "lon": -123.2782078
      },
      "tags": {
        "barrier": "fence",
        "name": "Yamhill Solar",
        "operator": "EDF Renewable Energy",
        "plant:method": "photovoltaic",
        "plant:output:electricity": "1.19 MW",
        "plant:source": "solar",
        "power": "plant",
        "ref:US:EIA": "57652",
        "start_date": "2011",
        "website": "https://www.edf-re.com/project/yamhill-solar/"
      },
      "lat": 45.1083568,
      "lon": -123.2782078
    },
    {
      "type": "way",
      "id": 828385663,
      "center": {
        "lat": 45.0864969,
        "lon": -123.4228687
      },
      "tags": {
        "barrier": "fence",
        "name": "SP Solar 5 - Mill Creek Road",
        "plant:method": "photovoltaic",
        "plant:output:electricity": "2.2 MW",
        "plant:source": "solar",
        "power": "plant",
        "ref:US:EIA": "61338"
      },
      "lat": 45.0864969,
      "lon": -123.4228687
    },
    {
      "type": "way",
      "id": 828388622,
      "center": {
        "lat": 45.0527126,
        "lon": -123.6092947
      },
      "tags": {
        "barrier": "fence",
        "name": "NorWest Energy 14 - Grand Ronde",
        "plant:method": "photovoltaic",
        "plant:output:electricity": "2.2 MW",
        "plant:source": "solar",
        "power": "plant",
        "ref:US:EIA": "61835"
      },
      "lat": 45.0527126,
      "lon": -123.6092947
    },
    {
      "type": "way",
      "id": 828392365,
      "center": {
        "lat": 44.8261516,
        "lon": -122.9489043
      },
      "tags": {
        "barrier": "fence",
        "name": "Sheep Solar",
        "plant:method": "photovoltaic",
        "plant:output:electricity": "2.2 MW",
        "plant:source": "solar",
        "power": "plant",
        "ref:US:EIA": "61830"
      },
      "lat": 44.8261516,
      "lon": -122.9489043
    },
    {
      "type": "way",
      "id": 828393682,
      "center": {
        "lat": 44.5660448,
        "lon": -123.2947975
      },
      "tags": {
        "barrier": "fence",
        "name": "Oregon State University 35th Street Solar Field",
        "operator": "Oregon State University",
        "plant:method": "photovoltaic",
        "plant:output:electricity": "1435 kW",
        "plant:source": "solar",
        "power": "plant"
      },
      "lat": 44.5660448,
      "lon": -123.2947975
    },
    {
      "type": "way",
      "id": 828399417,
      "center": {
        "lat": 42.6113973,
        "lon": -121.8625077
      },
      "tags": {
        "barrier": "fence",
        "name": "Chiloquin Solar",
        "operator": "Saturn Power",
        "plant:method": "photovoltaic",
        "plant:output:electricity": "9.9 MW",
        "plant:source": "solar",
        "power": "plant",
        "ref:US:EIA": "61631"
      },
      "lat": 42.6113973,
      "lon": -121.8625077
    },
    {
      "type": "way",
      "id": 828405241,
      "center": {
        "lat": 42.2364539,
        "lon": -121.5776552
      },
      "tags": {
        "barrier": "fence",
        "name": "Woodline Solar",
        "operator": "Woodline Solar, LLC",
        "plant:method": "photovoltaic",
        "plant:output:electricity": "8 MW",
        "plant:source": "solar",
        "power": "plant",
        "ref:US:EIA": "61559",
        "source": "U.S. Energy Information Administration - EIA-860 - 2021",
        "start_date": "2017-12",
        "wikidata": "Q116721839"
      },
      "lat": 42.2364539,
      "lon": -121.5776552
    },
    {
      "type": "way",
      "id": 828510514,
      "center": {
        "lat": 42.2391175,
        "lon": -121.5856596
      },
      "tags": {
        "barrier": "fence",
        "name": "OR Solar 8 - Dairy",
        "operator": "Heelstone Energy Holdings, LLC",
        "plant:method": "photovoltaic",
        "plant:output:electricity": "10 MW",
        "plant:source": "solar",
        "power": "plant",
        "ref:US:EIA": "61424",
        "source": "U.S. Energy Information Administration - EIA-860 - 2021",
        "start_date": "2018-03",
        "website": "https://www.origisenergy.com/projects/oregon-1-8/",
        "wikidata": "Q116721738"
      },
      "lat": 42.2391175,
      "lon": -121.5856596
    },
    {
      "type": "way",
      "id": 828513444,
      "center": {
        "lat": 42.0304691,
        "lon": -121.6116981
      },
      "tags": {
        "barrier": "fence",
        "name": "OR Solar 5 - Merrill",
        "operator": "Origis Energy",
        "plant:method": "photovoltaic",
        "plant:output:electricity": "8 MW",
        "plant:source": "solar",
        "power": "plant",
        "ref:US:EIA": "61423",
        "source": "U.S. Energy Information Administration - EIA-860 - 2020",
        "start_date": "2017-12",
        "website": "https://www.origisenergy.com/projects/oregon-1-8/"
      },
      "lat": 42.0304691,
      "lon": -121.6116981
    },
    {
      "type": "way",
      "id": 828519307,
      "center": {
        "lat": 42.0222371,
        "lon": -121.4231205
      },
      "tags": {
        "barrier": "fence",
        "name": "OR Solar 3 - Turkey Hill",
        "operator": "Origis Energy",
        "plant:method": "photovoltaic",
        "plant:output:electricity": "10 MW",
        "plant:source": "solar",
        "power": "plant",
        "ref:US:EIA": "61201",
        "source": "U.S. Energy Information Administration - EIA-860 - 2020",
        "start_date": "2017-12",
        "website": "https://www.origisenergy.com/projects/oregon-1-8/",
        "wikidata": "Q116721591"
      },
      "lat": 42.0222371,
      "lon": -121.4231205
    },
    {
      "type": "way",
      "id": 828525696,
      "center": {
        "lat": 42.1751216,
        "lon": -120.3626672
      },
      "tags": {
        "barrier": "fence",
        "name": "Black Cap Solar",
        "operator": "PacifiCorp",
        "operator:wikidata": "Q2045479",
        "plant:method": "photovoltaic",
        "plant:output:electricity": "2 MW",
        "plant:source": "solar",
        "power": "plant",
        "ref:US:EIA": "58150",
        "source": "U.S. Energy Information Administration - EIA-860 - 2021",
        "start_date": "2012-10",
        "website": "https://www.obsidianrenewables.com/black-cap-solar.html"
      },
      "lat": 42.1751216,
      "lon": -120.3626672
    },
    {
      "type": "way",
      "id": 828525697,
      "center": {
        "lat": 42.1761439,
        "lon": -120.3647596
      },
      "tags": {
        "barrier": "fence",
        "name": "Lakeview 363 Solar",
        "operator": "Obsidian Renewables",
        "plant:method": "photovoltaic",
        "plant:output:electricity": "0.363 MW3",
        "plant:source": "solar",
        "power": "plant",
        "start_date": "2012",
        "website": "https://www.obsidianrenewables.com/lakeview-363.html"
      },
      "lat": 42.1761439,
      "lon": -120.3647596
    },
    {
      "type": "way",
      "id": 828525698,
      "center": {
        "lat": 42.1752791,
        "lon": -120.3647706
      },
      "tags": {
        "barrier": "fence",
        "name": "Lakeview 500 Solar",
        "operator": "Obsidian Renewables",
        "plant:method": "photovoltaic",
        "plant:output:electricity": "0.5 MW",
        "plant:source": "solar",
        "power": "plant",
        "start_date": "2013-12",
        "website": "https://www.obsidianrenewables.com/lakeview-500.html"
      },
      "lat": 42.1752791,
      "lon": -120.3647706
    },
    {
      "type": "way",
      "id": 828525733,
      "center": {
        "lat": 42.1747012,
        "lon": -120.3619417
      },
      "tags": {
        "barrier": "fence",
        "name": "BC Solar",
        "operator": "PSE&G",
        "plant:method": "photovoltaic",
        "plant:output:electricity": "8 MW",
        "plant:source": "solar",
        "power": "plant",
        "ref:US:EIA": "60616",
        "source": "U.S. Energy Information Administration - EIA-860 - 2021",
        "start_date": "2016-11"
      },
      "lat": 42.1747012,
      "lon": -120.3619417
    },
    {
      "type": "way",
      "id": 828544753,
      "center": {
        "lat": 42.4078571,
        "lon": -121.0452705
      },
      "tags": {
        "barrier": "fence",
        "name": "Old Mill Solar",
        "operator": "NextEra Energy",
        "operator:wikidata": "Q967868",
        "plant:method": "photovoltaic",
        "plant:output:electricity": "6.8 MW",
        "plant:source": "solar",
        "power": "plant",
        "ref:US:EIA": "59374"
      },
      "lat": 42.4078571,
      "lon": -121.0452705
    },
    {
      "type": "way",
      "id": 828577018,
      "center": {
        "lat": 42.2114016,
        "lon": -120.3710631
      },
      "tags": {
        "barrier": "farm",
        "name": "OR Solar 6 - Lakeview",
        "operator": "Heelstone Energy Holdings, LLC",
        "plant:method": "photovoltaic",
        "plant:output:electricity": "10 MW",
        "plant:source": "solar",
        "power": "plant",
        "ref:US:EIA": "61430",
        "source": "U.S. Energy Information Administration - EIA-860 - 2021",
        "start_date": "2017-12",
        "website": "https://www.origisenergy.com/projects/oregon-1-8/"
      },
      "lat": 42.2114016,
      "lon": -120.3710631
    },
    {
      "type": "way",
      "id": 828583248,
      "center": {
        "lat": 43.932511,
        "lon": -116.9885541
      },
      "tags": {
        "barrier": "fence",
        "name": "Thunderegg Solar Center",
        "plant:method": "photovoltaic",
        "plant:output:electricity": "10 MW",
        "plant:source": "solar",
        "power": "plant",
        "ref:US:EIA": "60334",
        "source": "https://www.gridinfo.com/plant/thunderegg-solar-center-llc/60334"
      },
      "lat": 43.932511,
      "lon": -116.9885541
    },
    {
      "type": "way",
      "id": 828645432,
      "center": {
        "lat": 43.9989417,
        "lon": -117.1004181
      },
      "tags": {
        "barrier": "fence",
        "name": "Railroad Solar Center",
        "plant:method": "photovoltaic",
        "plant:output:electricity": "4.5 MW",
        "plant:source": "solar",
        "power": "plant",
        "ref:US:EIA": "60333",
        "start_date": "2016-11"
      },
      "lat": 43.9989417,
      "lon": -117.1004181
    },
    {
      "type": "way",
      "id": 828654505,
      "center": {
        "lat": 44.1505013,
        "lon": -117.000963
      },
      "tags": {
        "barrier": "fence",
        "name": "Hyline Solar Center",
        "plant:method": "photovoltaic",
        "plant:output:electricity": "9 MW",
        "plant:source": "solar",
        "power": "plant",
        "ref:US:EIA": "60331",
        "start_date": "2016-10"
      },
      "lat": 44.1505013,
      "lon": -117.000963
    },
    {
      "type": "way",
      "id": 828678160,
      "center": {
        "lat": 43.2344049,
        "lon": -120.4875445
      },
      "tags": {
        "barrier": "fence",
        "name": "Outback Solar I",
        "plant:method": "photovoltaic",
        "plant:output:electricity": "5 MW",
        "plant:source": "solar",
        "power": "plant",
        "ref:US:EIA": "58131",
        "start_date": "2012"
      },
      "lat": 43.2344049,
      "lon": -120.4875445
    },
    {
      "type": "way",
      "id": 828684599,
      "center": {
        "lat": 44.0615475,
        "lon": -121.2277283
      },
      "tags": {
        "barrier": "fence",
        "name": "Collier Solar",
        "plant:method": "photovoltaic",
        "plant:output:electricity": "10 MW",
        "plant:source": "solar",
        "power": "plant",
        "ref:US:EIA": "60976",
        "start_date": "2016"
      },
      "lat": 44.0615475,
      "lon": -121.2277283
    },
    {
      "type": "way",
      "id": 828684630,
      "center": {
        "lat": 44.0620772,
        "lon": -121.2370719
      },
      "tags": {
        "barrier": "fence",
        "name": "Bear Creek Solar Center",
        "operator": "GCL New Energy",
        "plant:method": "photovoltaic",
        "plant:output:electricity": "10 MW",
        "plant:source": "solar",
        "power": "plant",
        "ref:US:EIA": "61281"
      },
      "lat": 44.0620772,
      "lon": -121.2370719
    },
    {
      "type": "way",
      "id": 833587561,
      "center": {
        "lat": 46.1736457,
        "lon": -123.1767181
      },
      "tags": {
        "landuse": "industrial",
        "name": "Beaver Power Plant",
        "operator": "Portland General Electric",
        "plant:method": "combustion",
        "plant:output:electricity": "610.7 MW",
        "plant:source": "gas",
        "plant:type": "combined_cycle",
        "power": "plant",
        "ref:US:EIA": "8073",
        "source": "U.S. Energy Information Administration - EIA-860 - 2021",
        "start_date": "1974-08",
        "wikidata": "Q11960388"
      },
      "lat": 46.1736457,
      "lon": -123.1767181
    },
    {
      "type": "way",
      "id": 854109653,
      "center": {
        "lat": 44.3274254,
        "lon": -121.0244939
      },
      "tags": {
        "plant:method": "photovoltaic",
        "plant:output:electricity": "yes",
        "plant:source": "solar",
        "power": "plant"
      },
      "lat": 44.3274254,
      "lon": -121.0244939
    },
    {
      "type": "way",
      "id": 896519829,
      "center": {
        "lat": 42.1726794,
        "lon": -121.8143986
      },
      "tags": {
        "name": "Klamath Generation Peakers",
        "operator": "Klamath Energy LLC",
        "plant:output:electricity": "117.6 MW",
        "plant:source": "gas",
        "power": "plant",
        "ref:US:EIA": "55544",
        "source": "bing",
        "start_date": "2002-05"
      },
      "lat": 42.1726794,
      "lon": -121.8143986
    },
    {
      "type": "way",
      "id": 907586704,
      "center": {
        "lat": 45.542188,
        "lon": -122.9309182
      },
      "tags": {
        "plant:method": "photovoltaic",
        "plant:output:electricity": "yes",
        "plant:source": "solar",
        "power": "plant"
      },
      "lat": 45.542188,
      "lon": -122.9309182
    },
    {
      "type": "way",
      "id": 910191058,
      "center": {
        "lat": 45.5541371,
        "lon": -122.9351753
      },
      "tags": {
        "barrier": "fence",
        "name": "Genentech Energy Resiliency Solar",
        "plant:method": "photovoltaic",
        "plant:output:electricity": "1.2 MW",
        "plant:source": "solar",
        "power": "plant"
      },
      "lat": 45.5541371,
      "lon": -122.9351753
    },
    {
      "type": "way",
      "id": 922754570,
      "center": {
        "lat": 44.5528854,
        "lon": -123.2884395
      },
      "tags": {
        "barrier": "fence",
        "plant:method": "photovoltaic",
        "plant:output:electricity": "150 kW",
        "plant:source": "solar",
        "power": "plant"
      },
      "lat": 44.5528854,
      "lon": -123.2884395
    },
    {
      "type": "way",
      "id": 927362629,
      "center": {
        "lat": 44.5808046,
        "lon": -123.2555059
      },
      "tags": {
        "plant:method": "photovoltaic",
        "plant:output:electricity": "208 kW",
        "plant:source": "solar",
        "power": "plant"
      },
      "lat": 44.5808046,
      "lon": -123.2555059
    },
    {
      "type": "way",
      "id": 978910009,
      "center": {
        "lat": 44.0695478,
        "lon": -122.8350483
      },
      "tags": {
        "building": "yes",
        "name": "Walterville Power Plant",
        "operator": "Eugene Water & Electric Board",
        "plant:method": "run-of-the-river",
        "plant:output:electricity": "7.5 MW",
        "plant:source": "hydro",
        "power": "plant",
        "ref:US:EIA": "3071",
        "source": "U.S. Energy Information Administration - EIA-860 - 2020",
        "start_date": "1949-01"
      },
      "lat": 44.0695478,
      "lon": -122.8350483
    },
    {
      "type": "way",
      "id": 995999441,
      "center": {
        "lat": 43.8672245,
        "lon": -123.2422646
      },
      "tags": {
        "barrier": "fence",
        "plant:method": "photovoltaic",
        "plant:output:electricity": "1 MW",
        "plant:source": "solar",
        "power": "plant"
      },
      "lat": 43.8672245,
      "lon": -123.2422646
    },
    {
      "type": "way",
      "id": 996922543,
      "center": {
        "lat": 42.5145123,
        "lon": -122.7570231
      },
      "tags": {
        "addr:city": "Eagle Point",
        "addr:housenumber": "2405",
        "addr:postcode": "97524",
        "addr:state": "OR",
        "addr:street": "Borphy Road",
        "barrier": "fence",
        "description": "https://www.gridinfo.com/plant/eagle-point/3024",
        "name": "Eagle Point Power Plant",
        "operator": "PacifiCorp",
        "operator:wikidata": "Q2045479",
        "plant:method": "run-of-the-river",
        "plant:output:electricity": "2.8 MW",
        "plant:source": "hydro",
        "power": "plant",
        "ref:US:EIA": "3024",
        "source": "U.S. Energy Information Administration - EIA-860 - 2024",
        "start_date": "1957-11",
        "substation": "transmission"
      },
      "lat": 42.5145123,
      "lon": -122.7570231
    },
    {
      "type": "way",
      "id": 1032975251,
      "center": {
        "lat": 44.0179688,
        "lon": -121.2595477
      },
      "tags": {
        "plant:method": "photovoltaic",
        "plant:output:electricity": "yes",
        "plant:source": "solar",
        "power": "plant"
      },
      "lat": 44.0179688,
      "lon": -121.2595477
    },
    {
      "type": "way",
      "id": 1057696210,
      "center": {
        "lat": 45.3181132,
        "lon": -122.3310388
      },
      "tags": {
        "barrier": "fence",
        "name": "Duus Solar, LLC",
        "operator": "Alchemy Renewable Energy",
        "plant:method": "photovoltaic",
        "plant:output:electricity": "10 MW",
        "plant:source": "solar",
        "power": "plant",
        "ref:US:EIA": "63330",
        "source": "U.S. Energy Information Administration - EIA-860 - 2022",
        "start_date": "2020-02"
      },
      "lat": 45.3181132,
      "lon": -122.3310388
    },
    {
      "type": "way",
      "id": 1057696211,
      "center": {
        "lat": 45.3492833,
        "lon": -122.4294842
      },
      "tags": {
        "barrier": "fence",
        "name": "SulusSolar17",
        "operator": "Adapture Renewables, Inc.",
        "plant:method": "photovoltaic",
        "plant:output:electricity": "3.1 MW",
        "plant:source": "solar",
        "power": "plant",
        "ref:US:EIA": "63908",
        "source": "U.S. Energy Information Administration - EIA-860 - 2021",
        "start_date": "2020-06"
      },
      "lat": 45.3492833,
      "lon": -122.4294842
    },
    {
      "type": "way",
      "id": 1059933085,
      "center": {
        "lat": 43.2806142,
        "lon": -122.4026828
      },
      "tags": {
        "addr:state": "OR",
        "ele": "771",
        "gnis:feature_id": "1134860",
        "name": "Lemolo Powerplant Number 2",
        "operator": "PacifiCorp",
        "operator:wikidata": "Q2045479",
        "plant:output:electricity": "38.5 MW",
        "plant:source": "hydro",
        "power": "plant",
        "ref:US:EIA": "6421",
        "source": "U.S. Energy Information Administration - EIA-860 - 2020",
        "start_date": "1956-11"
      },
      "lat": 43.2806142,
      "lon": -122.4026828
    },
    {
      "type": "way",
      "id": 1059933086,
      "center": {
        "lat": 44.9708741,
        "lon": -116.8467323
      },
      "tags": {
        "name": "Oxbow Power Plant",
        "operator": "Idaho Power",
        "operator:wikidata": "Q3147780",
        "plant:output:electricity": "190 MW",
        "plant:source": "hydro",
        "power": "plant",
        "ref:US:EIA": "3014",
        "source": "U.S. Energy Information Administration - EIA-860 - 2020",
        "start_date": "1961-07",
        "wikidata": "Q7115136"
      },
      "lat": 44.9708741,
      "lon": -116.8467323
    },
    {
      "type": "way",
      "id": 1071037659,
      "center": {
        "lat": 45.3539114,
        "lon": -122.6189505
      },
      "tags": {
        "building": "yes",
        "layer": "1",
        "name": "Sullivan Power Plant",
        "operator": "Portland General Electric Co",
        "plant:output:electricity": "15.4 MW",
        "plant:source": "hydro",
        "power": "plant",
        "ref:US:EIA": "3053",
        "source": "U.S. Energy Information Administration - EIA-860 - 2021",
        "start_date": "1924-05",
        "wikidata": "Q49003474",
        "wikipedia": "en:T. W. Sullivan Hydroelectric Plant"
      },
      "lat": 45.3539114,
      "lon": -122.6189505
    },
    {
      "type": "way",
      "id": 1071037669,
      "center": {
        "lat": 45.4714776,
        "lon": -123.1398176
      },
      "tags": {
        "barrier": "fence",
        "name": "O'Neill Creek Solar",
        "operator": "O'Neill Creek Solar LLC",
        "plant:method": "photovoltaic",
        "plant:output:electricity": "2.2 MW",
        "plant:source": "solar",
        "power": "plant",
        "ref:US:EIA": "63235",
        "source": "U.S. Energy Information Administration - EIA-860 - 2021",
        "start_date": "2019-11"
      },
      "lat": 45.4714776,
      "lon": -123.1398176
    },
    {
      "type": "way",
      "id": 1071037671,
      "center": {
        "lat": 45.3738431,
        "lon": -122.2642185
      },
      "tags": {
        "name": "Tickle Creek Solar",
        "operator": "Neighborhood Power Corp.",
        "plant:output:electricity": "1.9 MW",
        "plant:source": "solar",
        "power": "plant",
        "ref:US:EIA": "63442",
        "source": "U.S. Energy Information Administration - EIA-860 - 2021",
        "start_date": "2019-12"
      },
      "lat": 45.3738431,
      "lon": -122.2642185
    },
    {
      "type": "way",
      "id": 1071037672,
      "center": {
        "lat": 45.4314375,
        "lon": -122.2864721
      },
      "tags": {
        "barrier": "fence",
        "name": "Dunn Road Solar",
        "operator": "Neighborhood Power Corp.",
        "plant:output:electricity": "1.8 MW",
        "plant:source": "solar",
        "power": "plant",
        "ref:US:EIA": "63642",
        "source": "U.S. Energy Information Administration - EIA-860 - 2021",
        "start_date": "2021-03"
      },
      "lat": 45.4314375,
      "lon": -122.2864721
    },
    {
      "type": "way",
      "id": 1071037673,
      "center": {
        "lat": 45.4200994,
        "lon": -122.334379
      },
      "tags": {
        "barrier": "fence",
        "name": "SSD Clackamas 1, LLC",
        "operator": "Thor Solar 1 CEI, LLC",
        "plant:output:electricity": "4 MW",
        "plant:source": "solar",
        "power": "plant",
        "ref:US:EIA": "63961",
        "source": "U.S. Energy Information Administration - EIA-860 - 2021",
        "start_date": "2020-12"
      },
      "lat": 45.4200994,
      "lon": -122.334379
    },
    {
      "type": "way",
      "id": 1071037674,
      "center": {
        "lat": 45.4580978,
        "lon": -122.2891858
      },
      "tags": {
        "barrier": "fence",
        "name": "SulusSolar29",
        "operator": "Adapture Renewables, Inc.",
        "plant:output:electricity": "2.6 MW",
        "plant:source": "solar",
        "power": "plant",
        "ref:US:EIA": "64048",
        "source": "U.S. Energy Information Administration - EIA-860 - 2021",
        "start_date": "2020-12"
      },
      "lat": 45.4580978,
      "lon": -122.2891858
    },
    {
      "type": "way",
      "id": 1071037679,
      "center": {
        "lat": 45.8481857,
        "lon": -119.6744006
      },
      "tags": {
        "building": "yes",
        "landuse": "industrial",
        "name": "Coyote Springs II",
        "operator": "Avista Corp",
        "plant:method": "combustion",
        "plant:output:electricity": "287 MW",
        "plant:source": "gas",
        "plant:type": "combined_cycle",
        "power": "plant",
        "ref:US:EIA": "7931",
        "source": "U.S. Energy Information Administration - EIA-860 - 2021;https://www.gem.wiki/Coyote_Springs_II_power_station",
        "start_date": "2003-07",
        "wikidata": "Q11964166"
      },
      "lat": 45.8481857,
      "lon": -119.6744006
    },
    {
      "type": "way",
      "id": 1071143522,
      "center": {
        "lat": 42.4360927,
        "lon": -122.8498745
      },
      "tags": {
        "landuse": "industrial",
        "name": "Biomass One LP",
        "operator": "Biomass One LP",
        "plant:output:electricity": "40 MW",
        "plant:source": "biomass",
        "power": "plant",
        "ref:US:EIA": "10869",
        "source": "U.S. Energy Information Administration - EIA-860 - 2021",
        "start_date": "1985-12",
        "wikidata": "Q116714119"
      },
      "lat": 42.4360927,
      "lon": -122.8498745
    },
    {
      "type": "way",
      "id": 1071143548,
      "center": {
        "lat": 42.1659661,
        "lon": -121.6850084
      },
      "tags": {
        "building": "yes",
        "layer": "1",
        "name": "C-Drop Hydro",
        "operator": "C-Drop",
        "plant:output:electricity": "1.1 MW",
        "plant:source": "hydro",
        "power": "plant",
        "ref:US:EIA": "58470",
        "source": "U.S. Energy Information Administration - EIA-860 - 2021",
        "start_date": "2012-05",
        "wikidata": "Q116718651"
      },
      "lat": 42.1659661,
      "lon": -121.6850084
    },
    {
      "type": "way",
      "id": 1092187198,
      "center": {
        "lat": 45.2673818,
        "lon": -123.0142258
      },
      "tags": {
        "name": "OR - Green Key - Gun Club",
        "operator": "Gun Club Solar, LLC",
        "plant:method": "photovoltaic",
        "plant:output:electricity": "2.5 MW",
        "plant:source": "solar",
        "power": "plant",
        "ref:US:EIA": "68445",
        "start_date": "2024-12"
      },
      "lat": 45.2673818,
      "lon": -123.0142258
    },
    {
      "type": "way",
      "id": 1094228835,
      "center": {
        "lat": 44.5663424,
        "lon": -123.3086859
      },
      "tags": {
        "barrier": "fence",
        "name": "Oregon State University 53rd Street Solar Array",
        "operator": "SunPower",
        "plant:method": "photovoltaic",
        "plant:output:electricity": "289 kW",
        "plant:source": "solar",
        "power": "plant",
        "ref:US:EIA": "59790"
      },
      "lat": 44.5663424,
      "lon": -123.3086859
    },
    {
      "type": "way",
      "id": 1121525564,
      "center": {
        "lat": 42.5175567,
        "lon": -121.9113377
      },
      "tags": {
        "barrier": "fence",
        "power": "plant"
      },
      "lat": 42.5175567,
      "lon": -121.9113377
    },
    {
      "type": "way",
      "id": 1121525650,
      "center": {
        "lat": 42.4795089,
        "lon": -121.8876999
      },
      "tags": {
        "barrier": "fence",
        "power": "plant"
      },
      "lat": 42.4795089,
      "lon": -121.8876999
    },
    {
      "type": "way",
      "id": 1121525662,
      "center": {
        "lat": 42.4641372,
        "lon": -121.886346
      },
      "tags": {
        "barrier": "fence",
        "power": "plant"
      },
      "lat": 42.4641372,
      "lon": -121.886346
    },
    {
      "type": "way",
      "id": 1130766362,
      "center": {
        "lat": 44.5763667,
        "lon": -123.2388128
      },
      "tags": {
        "barrier": "fence",
        "name": "Oregon State University Aquatic Animal Health Lab Solar Array",
        "operator": "SunPower",
        "plant:method": "photovoltaic",
        "plant:output:electricity": "482 kW",
        "plant:source": "solar",
        "power": "plant"
      },
      "lat": 44.5763667,
      "lon": -123.2388128
    },
    {
      "type": "way",
      "id": 1130767138,
      "center": {
        "lat": 45.2827766,
        "lon": -122.7530019
      },
      "tags": {
        "barrier": "fence",
        "name": "Oregon State University North Willamette Research and Extension Center Solar Array",
        "operator": "SunPower",
        "plant:method": "photovoltaic",
        "plant:output:electricity": "221 kW",
        "plant:source": "solar",
        "power": "plant"
      },
      "lat": 45.2827766,
      "lon": -122.7530019
    },
    {
      "type": "way",
      "id": 1130779377,
      "center": {
        "lat": 45.8182722,
        "lon": -119.2803387
      },
      "tags": {
        "barrier": "fence",
        "name": "Oregon State University Hermiston Solar Array",
        "operator": "SunPower",
        "plant:method": "photovoltaic",
        "plant:output:electricity": "431 kW",
        "plant:source": "solar",
        "power": "plant"
      },
      "lat": 45.8182722,
      "lon": -119.2803387
    },
    {
      "type": "way",
      "id": 1130779895,
      "center": {
        "lat": 45.8503958,
        "lon": -119.2999242
      },
      "tags": {
        "barrier": "fence",
        "plant:method": "photovoltaic",
        "plant:output:electricity": "yes",
        "plant:source": "solar",
        "power": "plant"
      },
      "lat": 45.8503958,
      "lon": -119.2999242
    },
    {
      "type": "way",
      "id": 1130788181,
      "center": {
        "lat": 45.0869956,
        "lon": -123.4174785
      },
      "tags": {
        "barrier": "fence",
        "name": "Red Prairie Solar",
        "operator": "TLS Capital, Inc",
        "plant:method": "photovoltaic",
        "plant:output:electricity": "2.2 MW",
        "plant:source": "solar",
        "power": "plant",
        "ref:US:EIA": "65228",
        "source": "U.S. Energy Information Administration - EIA-860m - 2025",
        "start_date": "2021-08"
      },
      "lat": 45.0869956,
      "lon": -123.4174785
    },
    {
      "type": "way",
      "id": 1130815266,
      "center": {
        "lat": 45.0768382,
        "lon": -123.3934767
      },
      "tags": {
        "barrier": "fence",
        "name": "Ballston Solar",
        "plant:method": "photovoltaic",
        "plant:output:electricity": "2.2 MW",
        "plant:source": "solar",
        "power": "plant",
        "ref:US:EIA": "62170"
      },
      "lat": 45.0768382,
      "lon": -123.3934767
    },
    {
      "type": "way",
      "id": 1130815315,
      "center": {
        "lat": 45.079002,
        "lon": -123.4029765
      },
      "tags": {
        "barrier": "fence",
        "name": "Sulus Solar 33",
        "plant:method": "photovoltaic",
        "plant:output:electricity": "3 MW",
        "plant:source": "solar",
        "power": "plant",
        "ref:US:EIA": "64006"
      },
      "lat": 45.079002,
      "lon": -123.4029765
    },
    {
      "type": "way",
      "id": 1130820557,
      "center": {
        "lat": 45.1023285,
        "lon": -123.4194339
      },
      "tags": {
        "barrier": "fence",
        "name": "Butler Solar",
        "plant:method": "photovoltaic",
        "plant:output:electricity": "4 MW",
        "plant:source": "solar",
        "power": "plant",
        "ref:US:EIA": "63694"
      },
      "lat": 45.1023285,
      "lon": -123.4194339
    },
    {
      "type": "way",
      "id": 1131058161,
      "center": {
        "lat": 45.1038089,
        "lon": -123.5154328
      },
      "tags": {
        "barrier": "fence",
        "name": "Sulus Solar 28",
        "plant:method": "photovoltaic",
        "plant:output:electricity": "3 MW",
        "plant:source": "solar",
        "power": "plant",
        "ref:US:EIA": "64007"
      },
      "lat": 45.1038089,
      "lon": -123.5154328
    },
    {
      "type": "way",
      "id": 1131080913,
      "center": {
        "lat": 44.8596277,
        "lon": -123.0081641
      },
      "tags": {
        "barrier": "fence",
        "name": "Rafael Solar",
        "operator": "Rafael Solar LLC",
        "plant:method": "photovoltaic",
        "plant:output:electricity": "2.2 MW",
        "plant:source": "solar",
        "power": "plant",
        "ref:US:EIA": "63206",
        "start_date": "2019-10"
      },
      "lat": 44.8596277,
      "lon": -123.0081641
    },
    {
      "type": "way",
      "id": 1131087861,
      "center": {
        "lat": 44.8765344,
        "lon": -122.9346822
      },
      "tags": {
        "barrier": "fence",
        "name": "Greenpark Solar",
        "plant:method": "photovoltaic",
        "plant:output:electricity": "1.3 MW",
        "plant:source": "solar",
        "power": "plant",
        "ref:US:EIA": "64033"
      },
      "lat": 44.8765344,
      "lon": -122.9346822
    },
    {
      "type": "way",
      "id": 1131089349,
      "center": {
        "lat": 44.9670496,
        "lon": -122.9578082
      },
      "tags": {
        "barrier": "fence",
        "name": "Bighorn Solar",
        "plant:method": "photovoltaic",
        "plant:output:electricity": "2.2 MW",
        "plant:source": "solar",
        "power": "plant",
        "ref:US:EIA": "63467"
      },
      "lat": 44.9670496,
      "lon": -122.9578082
    },
    {
      "type": "way",
      "id": 1131090145,
      "center": {
        "lat": 44.9850863,
        "lon": -122.9404396
      },
      "tags": {
        "barrier": "fence",
        "name": "SSD Marion 3",
        "plant:output:electricity": "2 MW",
        "plant:source": "solar",
        "power": "plant",
        "ref:US:EIA": "63958"
      },
      "lat": 44.9850863,
      "lon": -122.9404396
    },
    {
      "type": "way",
      "id": 1131090473,
      "center": {
        "lat": 45.0833027,
        "lon": -122.9042271
      },
      "tags": {
        "barrier": "fence",
        "name": "Kale Patch Solar",
        "operator": "Kale Patch Solar LLC",
        "plant:method": "photovoltaic",
        "plant:output:electricity": "2.2 MW",
        "plant:source": "solar",
        "power": "plant",
        "ref:US:EIA": "63208",
        "start_date": "2019-10"
      },
      "lat": 45.0833027,
      "lon": -122.9042271
    },
    {
      "type": "way",
      "id": 1131419979,
      "center": {
        "lat": 45.0835347,
        "lon": -122.9220467
      },
      "tags": {
        "barrier": "fence",
        "plant:method": "photovoltaic",
        "plant:output:electricity": "yes",
        "plant:source": "solar",
        "power": "plant"
      },
      "lat": 45.0835347,
      "lon": -122.9220467
    },
    {
      "type": "way",
      "id": 1131421110,
      "center": {
        "lat": 45.1206826,
        "lon": -122.9364545
      },
      "tags": {
        "barrier": "fence",
        "name": "Saint Louis Solar",
        "plant:method": "photovoltaic",
        "plant:output:electricity": "2.2 MW",
        "plant:source": "solar",
        "power": "plant",
        "ref:US:EIA": "63456"
      },
      "lat": 45.1206826,
      "lon": -122.9364545
    },
    {
      "type": "way",
      "id": 1131421978,
      "center": {
        "lat": 45.1376554,
        "lon": -122.9141647
      },
      "tags": {
        "barrier": "fence",
        "name": "SSD Marion 1",
        "plant:method": "photovoltaic",
        "plant:output:electricity": "2 MW",
        "plant:source": "solar",
        "power": "plant",
        "ref:US:EIA": "63964"
      },
      "lat": 45.1376554,
      "lon": -122.9141647
    },
    {
      "type": "way",
      "id": 1131422332,
      "center": {
        "lat": 45.172004,
        "lon": -122.9122177
      },
      "tags": {
        "barrier": "fence",
        "name": "Case Creek Solar",
        "operator": "Case Creek Solar LLC",
        "plant:method": "photovoltaic",
        "plant:output:electricity": "2.2 MW",
        "plant:source": "solar",
        "power": "plant",
        "ref:US:EIA": "63207",
        "start_date": "2019-10"
      },
      "lat": 45.172004,
      "lon": -122.9122177
    },
    {
      "type": "way",
      "id": 1131423036,
      "center": {
        "lat": 45.1842847,
        "lon": -123.1036668
      },
      "tags": {
        "barrier": "fence",
        "name": "Palmer Creek Solar",
        "operator": "Greenbacker Renewable Energy Corporation",
        "plant:method": "photovoltaic",
        "plant:output:electricity": "2.3 MW",
        "plant:source": "solar",
        "power": "plant",
        "ref:US:EIA": "63956"
      },
      "lat": 45.1842847,
      "lon": -123.1036668
    },
    {
      "type": "way",
      "id": 1131423379,
      "center": {
        "lat": 45.1373454,
        "lon": -122.801163
      },
      "tags": {
        "barrier": "fence",
        "name": "Williams Acres Solar",
        "plant:method": "photovoltaic",
        "plant:output:electricity": "2.5 MW",
        "plant:source": "solar",
        "power": "plant",
        "ref:US:EIA": "63664"
      },
      "lat": 45.1373454,
      "lon": -122.801163
    },
    {
      "type": "way",
      "id": 1131424862,
      "center": {
        "lat": 45.145179,
        "lon": -122.7863058
      },
      "tags": {
        "barrier": "fence",
        "name": "Bristol Solar",
        "plant:method": "photovoltaic",
        "plant:output:electricity": "3 MW",
        "plant:source": "solar",
        "power": "plant",
        "ref:US:EIA": "64009"
      },
      "lat": 45.145179,
      "lon": -122.7863058
    },
    {
      "type": "way",
      "id": 1131426512,
      "center": {
        "lat": 45.1135168,
        "lon": -122.7933627
      },
      "tags": {
        "barrier": "fence",
        "name": "SSD Marion 5",
        "plant:method": "photovoltaic",
        "plant:output:electricity": "2 MW",
        "plant:source": "solar",
        "power": "plant",
        "ref:US:EIA": "63959"
      },
      "lat": 45.1135168,
      "lon": -122.7933627
    },
    {
      "type": "way",
      "id": 1131427308,
      "center": {
        "lat": 45.087531,
        "lon": -122.7728297
      },
      "tags": {
        "barrier": "fence",
        "name": "Pika Solar",
        "plant:method": "photovoltaic",
        "plant:output:electricity": "2.2 MW",
        "plant:source": "solar",
        "power": "plant",
        "ref:US:EIA": "63462"
      },
      "lat": 45.087531,
      "lon": -122.7728297
    },
    {
      "type": "way",
      "id": 1131428989,
      "center": {
        "lat": 44.9853898,
        "lon": -122.8126108
      },
      "tags": {
        "barrier": "fence",
        "name": "Brush Creek Solar",
        "plant:method": "photovoltaic",
        "plant:output:electricity": "2.2 MW",
        "plant:source": "solar",
        "power": "plant",
        "ref:US:EIA": "63464"
      },
      "lat": 44.9853898,
      "lon": -122.8126108
    },
    {
      "type": "way",
      "id": 1131429399,
      "center": {
        "lat": 44.9705109,
        "lon": -122.803427
      },
      "tags": {
        "barrier": "fence",
        "name": "Drift Creek Solar",
        "plant:method": "photovoltaic",
        "plant:output:electricity": "2.2 MW",
        "plant:source": "solar",
        "power": "plant",
        "ref:US:EIA": "63466"
      },
      "lat": 44.9705109,
      "lon": -122.803427
    },
    {
      "type": "way",
      "id": 1131429904,
      "center": {
        "lat": 44.9744663,
        "lon": -122.774895
      },
      "tags": {
        "barrier": "fence",
        "name": "Sulus Solar 22",
        "plant:method": "photovoltaic",
        "plant:output:electricity": "3 MW",
        "plant:source": "solar",
        "power": "plant",
        "ref:US:EIA": "64022"
      },
      "lat": 44.9744663,
      "lon": -122.774895
    },
    {
      "type": "way",
      "id": 1131430722,
      "center": {
        "lat": 45.1280524,
        "lon": -122.8288108
      },
      "tags": {
        "name": "River Valley Solar",
        "operator": "Neighborhood Power Corp.",
        "plant:method": "photovoltaic",
        "plant:output:electricity": "1.9 MW",
        "plant:source": "solar",
        "power": "plant",
        "ref:US:EIA": "63665",
        "source": "U.S. Energy Information Administration - EIA-860 - 2022",
        "start_date": "2022-04"
      },
      "lat": 45.1280524,
      "lon": -122.8288108
    },
    {
      "type": "way",
      "id": 1136039351,
      "center": {
        "lat": 45.2689419,
        "lon": -122.8217153
      },
      "tags": {
        "name": "Sulus Solar 25",
        "plant:method": "photovoltaic",
        "plant:output:electricity": "2.2 MW",
        "plant:source": "solar",
        "power": "plant",
        "ref:US:EIA": "64034"
      },
      "lat": 45.2689419,
      "lon": -122.8217153
    },
    {
      "type": "way",
      "id": 1148638480,
      "center": {
        "lat": 44.2529022,
        "lon": -120.8831919
      },
      "tags": {
        "barrier": "fence",
        "name": "Millican Solar Energy",
        "operator": "Invenergy",
        "operator:wikidata": "Q6059803",
        "plant:method": "photovoltaic",
        "plant:output:electricity": "71 MW",
        "plant:source": "solar",
        "power": "plant",
        "ref:US:EIA": "63050",
        "source": "https://gem.wiki/Millican_Solar_Energy",
        "start_date": "2021"
      },
      "lat": 44.2529022,
      "lon": -120.8831919
    },
    {
      "type": "way",
      "id": 1149412740,
      "center": {
        "lat": 43.3192962,
        "lon": -121.0023464
      },
      "tags": {
        "name": "Fort Rock I",
        "operator": "Fort Rock Solar I, LLC",
        "plant:method": "photovoltaic",
        "plant:output:electricity": "10 MW",
        "plant:source": "solar",
        "power": "plant",
        "ref:US:EIA": "63636",
        "source": "U.S. Energy Information Administration - EIA-860 - 2022",
        "start_date": "2020-03"
      },
      "lat": 43.3192962,
      "lon": -121.0023464
    },
    {
      "type": "way",
      "id": 1149417954,
      "center": {
        "lat": 43.5543938,
        "lon": -119.687222
      },
      "tags": {
        "name": "Riley",
        "operator": "Riley Solar I LLC",
        "plant:method": "photovoltaic",
        "plant:output:electricity": "10 MW",
        "plant:source": "solar",
        "power": "plant",
        "ref:US:EIA": "63925",
        "source": "U.S. Energy Information Administration - EIA-860 - 2022",
        "start_date": "2020-07"
      },
      "lat": 43.5543938,
      "lon": -119.687222
    },
    {
      "type": "way",
      "id": 1149419697,
      "center": {
        "lat": 43.395812,
        "lon": -120.949629
      },
      "tags": {
        "name": "Rock Garden Solar, LLC",
        "operator": "NES Euryalus",
        "plant:method": "photovoltaic",
        "plant:output:electricity": "10 MW",
        "plant:source": "solar",
        "power": "plant",
        "ref:US:EIA": "63779",
        "source": "U.S. Energy Information Administration - EIA-860 - 2022",
        "start_date": "2020-06"
      },
      "lat": 43.395812,
      "lon": -120.949629
    },
    {
      "type": "way",
      "id": 1150064133,
      "center": {
        "lat": 44.7015704,
        "lon": -117.7641618
      },
      "tags": {
        "name": "Baker City Solar",
        "operator": "Adapture Renewables, Inc.",
        "plant:method": "photovoltaic",
        "plant:output:electricity": "15 MW",
        "plant:source": "solar",
        "power": "plant",
        "ref:US:EIA": "61854",
        "source": "U.S. Energy Information Administration - EIA-860 - 2022",
        "start_date": "2020-02"
      },
      "lat": 44.7015704,
      "lon": -117.7641618
    },
    {
      "type": "way",
      "id": 1153621576,
      "center": {
        "lat": 45.0732162,
        "lon": -122.793801
      },
      "tags": {
        "addr:city": "Mount Angel",
        "addr:country": "US",
        "addr:postcode": "97362",
        "addr:state": "OR",
        "barrier": "fence",
        "name": "Belvedere Solar",
        "plant:method": "photovoltaic",
        "plant:output:electricity": "2970 kW",
        "plant:source": "solar",
        "power": "plant"
      },
      "lat": 45.0732162,
      "lon": -122.793801
    },
    {
      "type": "way",
      "id": 1153919614,
      "center": {
        "lat": 43.9502965,
        "lon": -117.0731014
      },
      "tags": {
        "name": "Morgan Solar Center",
        "operator": "Adapture Renewables, Inc.",
        "plant:method": "photovoltaic",
        "plant:output:electricity": "3 MW",
        "plant:source": "solar",
        "power": "plant",
        "ref:US:EIA": "61855",
        "source": "U.S. Energy Information Administration - EIA-860 - 2022",
        "start_date": "2020-05"
      },
      "lat": 43.9502965,
      "lon": -117.0731014
    },
    {
      "type": "way",
      "id": 1153919628,
      "center": {
        "lat": 44.1580665,
        "lon": -117.4436161
      },
      "tags": {
        "name": "Vale Solar Center",
        "operator": "Adapture Renewables, Inc.",
        "plant:method": "photovoltaic",
        "plant:output:electricity": "3 MW",
        "plant:source": "solar",
        "power": "plant",
        "ref:US:EIA": "61856",
        "source": "U.S. Energy Information Administration - EIA-860 - 2022",
        "start_date": "2020-08"
      },
      "lat": 44.1580665,
      "lon": -117.4436161
    },
    {
      "type": "way",
      "id": 1153919629,
      "center": {
        "lat": 44.1131805,
        "lon": -117.0265431
      },
      "tags": {
        "name": "Ontario Solar Center",
        "operator": "Adapture Renewables, Inc.",
        "plant:method": "photovoltaic",
        "plant:output:electricity": "3 MW",
        "plant:source": "solar",
        "power": "plant",
        "ref:US:EIA": "61860",
        "source": "U.S. Energy Information Administration - EIA-860 - 2022",
        "start_date": "2020-05"
      },
      "lat": 44.1131805,
      "lon": -117.0265431
    },
    {
      "type": "way",
      "id": 1153924339,
      "center": {
        "lat": 44.4668578,
        "lon": -118.2054305
      },
      "tags": {
        "name": "Brush Solar Center",
        "operator": "Adapture Renewables, Inc.",
        "plant:method": "photovoltaic",
        "plant:output:electricity": "2.8 MW",
        "plant:source": "solar",
        "power": "plant",
        "ref:US:EIA": "61844",
        "source": "U.S. Energy Information Administration - EIA-860 - 2022",
        "start_date": "2020-01"
      },
      "lat": 44.4668578,
      "lon": -118.2054305
    },
    {
      "type": "way",
      "id": 1155609799,
      "center": {
        "lat": 45.2550908,
        "lon": -122.8032647
      },
      "tags": {
        "barrier": "fence",
        "name": "SSD Marion 6, LLC",
        "operator": "Thor Solar 1 CEI, LLC",
        "plant:method": "photovoltaic",
        "plant:output:electricity": "2 MW",
        "plant:source": "solar",
        "power": "plant",
        "ref:US:EIA": "63960",
        "source": "U.S. Energy Information Administration - EIA-860 - 2022",
        "start_date": "2020-12"
      },
      "lat": 45.2550908,
      "lon": -122.8032647
    },
    {
      "type": "way",
      "id": 1155609939,
      "center": {
        "lat": 45.1056729,
        "lon": -122.6620523
      },
      "tags": {
        "barrier": "fence",
        "name": "SSD Clackamas 4, LLC",
        "operator": "Thor Solar 1 CEI, LLC",
        "plant:method": "photovoltaic",
        "plant:output:electricity": "2 MW",
        "plant:source": "solar",
        "power": "plant",
        "ref:US:EIA": "63962",
        "source": "U.S. Energy Information Administration - EIA-860 - 2022",
        "start_date": "2020-12"
      },
      "lat": 45.1056729,
      "lon": -122.6620523
    },
    {
      "type": "way",
      "id": 1155610089,
      "center": {
        "lat": 45.1816317,
        "lon": -122.5917832
      },
      "tags": {
        "barrier": "fence",
        "name": "SSD Clackamas 7, LLC",
        "operator": "Thor Solar 1 CEI, LLC",
        "plant:method": "photovoltaic",
        "plant:output:electricity": "2 MW",
        "plant:source": "solar",
        "power": "plant",
        "ref:US:EIA": "63963",
        "source": "U.S. Energy Information Administration - EIA-860 - 2022",
        "start_date": "2020-12"
      },
      "lat": 45.1816317,
      "lon": -122.5917832
    },
    {
      "type": "way",
      "id": 1156055825,
      "center": {
        "lat": 42.1476881,
        "lon": -120.4201569
      },
      "tags": {
        "name": "Garrett Solar",
        "operator": "SOLV Energy LLC",
        "plant:method": "photovoltaic",
        "plant:output:electricity": "10 MW",
        "plant:source": "solar",
        "power": "plant",
        "ref:US:EIA": "63301",
        "source": "U.S. Energy Information Administration - EIA-860 - 2022",
        "start_date": "2019-12"
      },
      "lat": 42.1476881,
      "lon": -120.4201569
    },
    {
      "type": "way",
      "id": 1156061453,
      "center": {
        "lat": 43.5033896,
        "lon": -119.1521795
      },
      "tags": {
        "barrier": "fence",
        "name": "Starvation",
        "operator": "Starvation Solar I, LLC",
        "plant:method": "photovoltaic",
        "plant:output:electricity": "9.9 MW",
        "plant:source": "solar",
        "power": "plant",
        "ref:US:EIA": "63344",
        "source": "U.S. Energy Information Administration - EIA-860 - 2022",
        "start_date": "2019-12"
      },
      "lat": 43.5033896,
      "lon": -119.1521795
    },
    {
      "type": "way",
      "id": 1159284653,
      "center": {
        "lat": 42.5217868,
        "lon": -122.828215
      },
      "tags": {
        "name": "OR Solar 2, LLC",
        "operator": "OR Solar 2, LLC",
        "plant:method": "photovoltaic",
        "plant:output:electricity": "10 MW",
        "plant:source": "solar",
        "power": "plant",
        "ref:US:EIA": "61200",
        "source": "U.S. Energy Information Administration - EIA-860 - 2022",
        "start_date": "2020-10"
      },
      "lat": 42.5217868,
      "lon": -122.828215
    },
    {
      "type": "way",
      "id": 1159721421,
      "center": {
        "lat": 45.6795636,
        "lon": -118.8505107
      },
      "tags": {
        "barrier": "fence",
        "name": "Pendleton Solar (NorWest 9)",
        "operator": "Cypress Creek Renewables",
        "plant:method": "photovoltaic",
        "plant:output:electricity": "6 MW",
        "plant:source": "solar",
        "power": "plant",
        "ref:US:EIA": "62241"
      },
      "lat": 45.6795636,
      "lon": -118.8505107
    },
    {
      "type": "way",
      "id": 1159801393,
      "center": {
        "lat": 45.1314015,
        "lon": -122.6193939
      },
      "tags": {
        "barrier": "fence",
        "name": "Thomas Creek Solar",
        "operator": "Neighborhood Power Corp.",
        "plant:method": "photovoltaic",
        "plant:output:electricity": "2.2 MW",
        "plant:source": "solar",
        "power": "plant",
        "ref:US:EIA": "63443",
        "source": "U.S. Energy Information Administration - EIA-860 - 2022",
        "start_date": "2019-11"
      },
      "lat": 45.1314015,
      "lon": -122.6193939
    },
    {
      "type": "way",
      "id": 1159801856,
      "center": {
        "lat": 45.171527,
        "lon": -122.6231857
      },
      "tags": {
        "name": "Minke Solar",
        "operator": "Minke Solar, LLC",
        "plant:method": "photovoltaic",
        "plant:output:electricity": "2.2 MW",
        "plant:source": "solar",
        "power": "plant",
        "ref:US:EIA": "63465",
        "source": "U.S. Energy Information Administration - EIA-860 - 2022",
        "start_date": "2020-12"
      },
      "lat": 45.171527,
      "lon": -122.6231857
    },
    {
      "type": "way",
      "id": 1159992877,
      "center": {
        "lat": 45.1264508,
        "lon": -122.6075288
      },
      "tags": {
        "barrier": "fence",
        "name": "Mt Hope Solar",
        "operator": "Neighborhood Power Corp.",
        "plant:method": "photovoltaic",
        "plant:output:electricity": "2.5 MW",
        "plant:source": "solar",
        "power": "plant",
        "ref:US:EIA": "63663",
        "source": "U.S. Energy Information Administration - EIA-860 - 2022",
        "start_date": "2021-03"
      },
      "lat": 45.1264508,
      "lon": -122.6075288
    },
    {
      "type": "way",
      "id": 1159995542,
      "center": {
        "lat": 45.1415564,
        "lon": -122.6495809
      },
      "tags": {
        "barrier": "fence",
        "name": "SulusSolar35",
        "operator": "Adapture Renewables, Inc.",
        "plant:method": "photovoltaic",
        "plant:output:electricity": "3 MW",
        "plant:source": "solar",
        "power": "plant",
        "ref:US:EIA": "63969",
        "source": "U.S. Energy Information Administration - EIA-860 - 2022",
        "start_date": "2020-07"
      },
      "lat": 45.1415564,
      "lon": -122.6495809
    },
    {
      "type": "way",
      "id": 1160558726,
      "center": {
        "lat": 43.5000399,
        "lon": -119.1436265
      },
      "tags": {
        "barrier": "fence",
        "name": "West Hines Solar I, LLC",
        "operator": "NES Euryalus",
        "plant:method": "photovoltaic",
        "plant:output:electricity": "10 MW",
        "plant:source": "solar",
        "power": "plant",
        "ref:US:EIA": "63796",
        "source": "U.S. Energy Information Administration - EIA-860 - 2022",
        "start_date": "2020-06"
      },
      "lat": 43.5000399,
      "lon": -119.1436265
    },
    {
      "type": "way",
      "id": 1160574243,
      "center": {
        "lat": 45.2688169,
        "lon": -122.3292949
      },
      "tags": {
        "barrier": "fence",
        "name": "Day Hill Solar, LLC",
        "operator": "Greenbacker Renewable Energy Corporation",
        "plant:method": "photovoltaic",
        "plant:output:electricity": "2.3 MW",
        "plant:source": "solar",
        "power": "plant",
        "ref:US:EIA": "63957",
        "source": "U.S. Energy Information Administration - EIA-860 - 2022",
        "start_date": "2020-10"
      },
      "lat": 45.2688169,
      "lon": -122.3292949
    },
    {
      "type": "way",
      "id": 1160575460,
      "center": {
        "lat": 45.559792,
        "lon": -123.0715552
      },
      "tags": {
        "name": "MilfordSolar OR",
        "operator": "Adapture Renewables, Inc.",
        "plant:method": "photovoltaic",
        "plant:output:electricity": "3 MW",
        "plant:source": "solar",
        "power": "plant",
        "ref:US:EIA": "64008",
        "source": "U.S. Energy Information Administration - EIA-860 - 2022",
        "start_date": "2021-01"
      },
      "lat": 45.559792,
      "lon": -123.0715552
    },
    {
      "type": "way",
      "id": 1162868759,
      "center": {
        "lat": 45.4195817,
        "lon": -122.2771901
      },
      "tags": {
        "barrier": "fence",
        "name": "NSE Astoria - Skyward",
        "operator": "Standard Solar",
        "plant:method": "photovoltaic",
        "plant:output:electricity": "2.5 MW",
        "plant:source": "solar",
        "power": "plant",
        "ref:US:EIA": "66368",
        "source": "U.S. Energy Information Administration - EIA-860 - 2022",
        "start_date": "2021-11"
      },
      "lat": 45.4195817,
      "lon": -122.2771901
    },
    {
      "type": "way",
      "id": 1162904607,
      "center": {
        "lat": 45.3234305,
        "lon": -123.1754079
      },
      "tags": {
        "name": "Sesqui-C Solar (CSG)",
        "operator": "Sesqui-C Solar, LLC",
        "plant:method": "photovoltaic",
        "plant:output:electricity": "2.5 MW",
        "plant:source": "solar",
        "power": "plant",
        "ref:US:EIA": "65751",
        "source": "U.S. Energy Information Administration - EIA-860 - 2022",
        "start_date": "2022-12"
      },
      "lat": 45.3234305,
      "lon": -123.1754079
    },
    {
      "type": "way",
      "id": 1162904811,
      "center": {
        "lat": 45.4312861,
        "lon": -122.2956087
      },
      "tags": {
        "name": "Sandy River Solar (CSG)",
        "operator": "Sandy River Solar, LLC",
        "plant:method": "photovoltaic",
        "plant:output:electricity": "1.9 MW",
        "plant:source": "solar",
        "power": "plant",
        "ref:US:EIA": "65750",
        "source": "U.S. Energy Information Administration - EIA-860 - 2022",
        "start_date": "2022-12"
      },
      "lat": 45.4312861,
      "lon": -122.2956087
    },
    {
      "type": "way",
      "id": 1162904819,
      "center": {
        "lat": 45.1436481,
        "lon": -122.6076392
      },
      "tags": {
        "barrier": "fence",
        "name": "Kaiser Creek Solar (CSG)",
        "operator": "Kaiser Creek Solar, LLC",
        "plant:method": "photovoltaic",
        "plant:output:electricity": "2 MW",
        "plant:source": "solar",
        "power": "plant",
        "ref:US:EIA": "65748",
        "source": "U.S. Energy Information Administration - EIA-860 - 2022",
        "start_date": "2022-12"
      },
      "lat": 45.1436481,
      "lon": -122.6076392
    },
    {
      "type": "way",
      "id": 1162904825,
      "center": {
        "lat": 44.929496,
        "lon": -122.9368533
      },
      "tags": {
        "name": "Fruitland Creek Solar (CSG)",
        "operator": "Fruitland Creek Solar, LLC",
        "plant:method": "photovoltaic",
        "plant:output:electricity": "1.8 MW",
        "plant:source": "solar",
        "power": "plant",
        "ref:US:EIA": "65747",
        "source": "U.S. Energy Information Administration - EIA-860 - 2022",
        "start_date": "2022-12"
      },
      "lat": 44.929496,
      "lon": -122.9368533
    },
    {
      "type": "way",
      "id": 1162905298,
      "center": {
        "lat": 45.058597,
        "lon": -123.4970431
      },
      "tags": {
        "barrier": "fence",
        "name": "Cosper Creek Solar",
        "plant:method": "photovoltaic",
        "plant:output:electricity": "2500 kW",
        "plant:source": "solar",
        "power": "plant",
        "ref:US:EIA": "65746"
      },
      "lat": 45.058597,
      "lon": -123.4970431
    },
    {
      "type": "way",
      "id": 1162905483,
      "center": {
        "lat": 45.0761588,
        "lon": -122.9332766
      },
      "tags": {
        "name": "Carnes Creek Solar",
        "plant:method": "photovoltaic",
        "plant:output:electricity": "2500 kW",
        "plant:source": "solar",
        "power": "plant",
        "ref:US:EIA": "65745"
      },
      "lat": 45.0761588,
      "lon": -122.9332766
    },
    {
      "type": "way",
      "id": 1169699431,
      "center": {
        "lat": 42.2078367,
        "lon": -121.8135377
      },
      "tags": {
        "barrier": "fence",
        "name": "Linkville Solar (CSG)",
        "operator": "Linkville Solar, LLC",
        "plant:method": "photovoltaic",
        "plant:output:electricity": "2.8 MW",
        "plant:source": "solar",
        "power": "plant",
        "ref:US:EIA": "65749",
        "source": "U.S. Energy Information Administration - EIA-860 - 2022"
      },
      "lat": 42.2078367,
      "lon": -121.8135377
    },
    {
      "type": "way",
      "id": 1169709498,
      "center": {
        "lat": 43.395466,
        "lon": -120.954881
      },
      "tags": {
        "name": "Fort Rock IV",
        "operator": "Fort Rock Solar IV LLC",
        "plant:method": "photovoltaic",
        "plant:output:electricity": "10 MW",
        "plant:source": "solar",
        "power": "plant",
        "ref:US:EIA": "63926",
        "source": "U.S. Energy Information Administration - EIA-860 - 2022",
        "start_date": "2020-06"
      },
      "lat": 43.395466,
      "lon": -120.954881
    },
    {
      "type": "way",
      "id": 1185582231,
      "center": {
        "lat": 46.1717396,
        "lon": -123.1579439
      },
      "tags": {
        "landuse": "industrial",
        "name": "Beaver Power Plant",
        "operator": "Portland General Electric",
        "plant:method": "combustion",
        "plant:output:electricity": "500 MW",
        "plant:source": "gas",
        "power": "plant",
        "source": "https://www.oregon.gov/energy/facilities-safety/facilities/Pages/BPP.aspx",
        "start_date": "01/01/1976"
      },
      "lat": 46.1717396,
      "lon": -123.1579439
    },
    {
      "type": "way",
      "id": 1199655808,
      "center": {
        "lat": 44.6124088,
        "lon": -123.9327034
      },
      "tags": {
        "building": "yes",
        "fixme": "Is this the correct location?",
        "name": "Georgia Pacific Toledo Mill Biomass Power Project",
        "operator": "Georgia-Pacific Toledo LLC",
        "plant:method": "combustion",
        "plant:output:electricity": "18.8 MW",
        "plant:output:hot_water": "yes",
        "plant:output:steam": "yes",
        "plant:source": "biomass",
        "power": "plant",
        "ref:US:EIA": "58109",
        "source": "U.S. Energy Information Administration - EIA-860 - 2024",
        "start_date": "2007-02"
      },
      "lat": 44.6124088,
      "lon": -123.9327034
    },
    {
      "type": "way",
      "id": 1208216174,
      "center": {
        "lat": 45.287887,
        "lon": -122.9490239
      },
      "tags": {
        "plant:method": "photovoltaic",
        "plant:output:electricity": "yes",
        "plant:source": "solar",
        "power": "plant"
      },
      "lat": 45.287887,
      "lon": -122.9490239
    },
    {
      "type": "way",
      "id": 1211620187,
      "center": {
        "lat": 42.0146533,
        "lon": -121.4081558
      },
      "tags": {
        "plant:output:electricity": "yes",
        "plant:source": "hydro",
        "power": "plant"
      },
      "lat": 42.0146533,
      "lon": -121.4081558
    },
    {
      "type": "way",
      "id": 1213390306,
      "center": {
        "lat": 44.7706525,
        "lon": -122.6120706
      },
      "tags": {
        "landuse": "industrial",
        "name": "Evergreen BioPower LLC",
        "operator": "Freres Engineered Wood",
        "plant:method": "combustion",
        "plant:output:electricity": "21 MW",
        "plant:output:hot_water": "yes",
        "plant:output:steam": "yes",
        "plant:source": "biomass",
        "power": "plant",
        "ref:US:EIA": "56781",
        "source": "U.S. Energy Information Administration - EIA-860 - 2022",
        "start_date": "2007-09"
      },
      "lat": 44.7706525,
      "lon": -122.6120706
    },
    {
      "type": "way",
      "id": 1213748131,
      "center": {
        "lat": 44.4501205,
        "lon": -122.5491556
      },
      "tags": {
        "name": "Green Peter Dam",
        "operator": "USACE Northwestern Division",
        "operator:wikidata": "Q7060302",
        "plant:output:electricity": "80 MW",
        "plant:source": "hydro",
        "power": "plant",
        "ref:US:EIA": "3080",
        "source": "U.S. Energy Information Administration - EIA-860 - 2022",
        "start_date": "1967-07"
      },
      "lat": 44.4501205,
      "lon": -122.5491556
    },
    {
      "type": "way",
      "id": 1213748166,
      "center": {
        "lat": 44.4161395,
        "lon": -122.6704848
      },
      "tags": {
        "name": "Foster Dam",
        "operator": "USACE Northwestern Division",
        "plant:output:electricity": "20 MW",
        "plant:source": "hydro",
        "power": "plant",
        "ref:US:EIA": "6552",
        "source": "U.S. Energy Information Administration - EIA-860 - 2024",
        "start_date": "1968-09"
      },
      "lat": 44.4161395,
      "lon": -122.6704848
    },
    {
      "type": "way",
      "id": 1213749770,
      "center": {
        "lat": 44.1310065,
        "lon": -122.2433374
      },
      "tags": {
        "name": "Cougar Dam",
        "operator": "USACE Northwestern Division",
        "plant:output:electricity": "26 MW",
        "plant:source": "hydro",
        "power": "plant",
        "ref:US:EIA": "3076",
        "source": "U.S. Energy Information Administration - EIA-860 - 2022",
        "start_date": "1964-03"
      },
      "lat": 44.1310065,
      "lon": -122.2433374
    },
    {
      "type": "way",
      "id": 1213749867,
      "center": {
        "lat": 43.7106239,
        "lon": -122.4239333
      },
      "tags": {
        "name": "Hills Creek Dam",
        "operator": "USACE Northwestern Division",
        "plant:output:electricity": "30 MW",
        "plant:source": "hydro",
        "power": "plant",
        "ref:US:EIA": "3081",
        "source": "U.S. Energy Information Administration - EIA-860 - 2022",
        "start_date": "1962-02"
      },
      "lat": 43.7106239,
      "lon": -122.4239333
    },
    {
      "type": "way",
      "id": 1213749954,
      "center": {
        "lat": 42.6717575,
        "lon": -122.6771707
      },
      "tags": {
        "name": "Lost Creek Dam",
        "operator": "USACE Northwestern Division",
        "plant:output:electricity": "49 MW",
        "plant:source": "hydro",
        "power": "plant",
        "ref:US:EIA": "6174",
        "source": "U.S. Energy Information Administration - EIA-860 - 2022",
        "start_date": "1977-09"
      },
      "lat": 42.6717575,
      "lon": -122.6771707
    },
    {
      "type": "way",
      "id": 1213750258,
      "center": {
        "lat": 45.2434727,
        "lon": -122.2799295
      },
      "tags": {
        "name": "North Fork Dam",
        "operator": "Portland General Electric Co",
        "plant:output:electricity": "40.8 MW",
        "plant:source": "hydro",
        "power": "plant",
        "ref:US:EIA": "3047",
        "source": "U.S. Energy Information Administration - EIA-860 - 2022",
        "start_date": "1958-11"
      },
      "lat": 45.2434727,
      "lon": -122.2799295
    },
    {
      "type": "way",
      "id": 1213752784,
      "center": {
        "lat": 45.2679316,
        "lon": -122.3194867
      },
      "tags": {
        "name": "Faraday Dam",
        "operator": "Portland General Electric Co",
        "plant:output:electricity": "19.2 MW",
        "plant:source": "hydro",
        "power": "plant",
        "ref:US:EIA": "3045",
        "source": "U.S. Energy Information Administration - EIA-860 - 2022",
        "start_date": "1907-02"
      },
      "lat": 45.2679316,
      "lon": -122.3194867
    },
    {
      "type": "way",
      "id": 1219919480,
      "center": {
        "lat": 43.8389365,
        "lon": -123.047725
      },
      "tags": {
        "barrier": "fence",
        "plant:method": "photovoltaic",
        "plant:output:electricity": "yes",
        "plant:source": "solar",
        "power": "plant"
      },
      "lat": 43.8389365,
      "lon": -123.047725
    },
    {
      "type": "way",
      "id": 1224000918,
      "center": {
        "lat": 44.6022067,
        "lon": -123.2351118
      },
      "tags": {
        "barrier": "fence",
        "fixme": "Check output amount",
        "plant:method": "photovoltaic",
        "plant:output:electricity": "17 kW",
        "plant:source": "solar",
        "power": "plant"
      },
      "lat": 44.6022067,
      "lon": -123.2351118
    },
    {
      "type": "way",
      "id": 1227402317,
      "center": {
        "lat": 42.2248344,
        "lon": -121.795465
      },
      "tags": {
        "building": "yes",
        "plant:source": "hydro",
        "power": "plant"
      },
      "lat": 42.2248344,
      "lon": -121.795465
    },
    {
      "type": "way",
      "id": 1234220282,
      "center": {
        "lat": 45.1577814,
        "lon": -122.8196377
      },
      "tags": {
        "plant:method": "photovoltaic",
        "plant:output:electricity": "yes",
        "plant:source": "solar",
        "power": "plant"
      },
      "lat": 45.1577814,
      "lon": -122.8196377
    },
    {
      "type": "way",
      "id": 1234233186,
      "center": {
        "lat": 45.1519979,
        "lon": -122.851294
      },
      "tags": {
        "plant:method": "photovoltaic",
        "plant:output:electricity": "yes",
        "plant:source": "solar",
        "power": "plant"
      },
      "lat": 45.1519979,
      "lon": -122.851294
    },
    {
      "type": "way",
      "id": 1235726531,
      "center": {
        "lat": 44.5043524,
        "lon": -123.2873981
      },
      "tags": {
        "plant:method": "photovoltaic",
        "plant:output:electricity": "100 kW",
        "plant:source": "solar",
        "power": "plant"
      },
      "lat": 44.5043524,
      "lon": -123.2873981
    },
    {
      "type": "way",
      "id": 1238905614,
      "center": {
        "lat": 44.1161147,
        "lon": -123.1789587
      },
      "tags": {
        "landuse": "industrial",
        "name": "Seneca Sustainable Energy LLC",
        "operator": "Seneca Sustainable Energy LLC",
        "plant:method": "combustion",
        "plant:output:electricity": "19.8 MW",
        "plant:output:hot_water": "yes",
        "plant:source": "biomass",
        "power": "plant",
        "ref:US:EIA": "57457",
        "source": "https://www.lrapa.org/air-quality-protection/permitting-lane-county-sources/cleaner-air-oregon/cao-seneca-sustainable-energy/",
        "start_date": "2011-04"
      },
      "lat": 44.1161147,
      "lon": -123.1789587
    },
    {
      "type": "way",
      "id": 1277909828,
      "center": {
        "lat": 45.5592028,
        "lon": -122.9412521
      },