{
  "version": 0.6,
  "generator": "Overpass API 0.7.62.11 87bfad18",
  "osm3s": {
    "timestamp_osm_base": "2026-04-24T18:15:17Z",
    "timestamp_areas_base": "2026-04-24T09:42:59Z",
    "copyright": "The data included in this document is from www.openstreetmap.org. The data is made available under ODbL."
  },
  "elements": [
    {
      "type": "node",
      "id": 8915522348,
      "lat": 44.9501116,
      "lon": -123.002044,
      "tags": {
        "power": "substation"
      }
    },
    {
      "type": "way",
      "id": 32333686,
      "center": {
        "lat": 45.0147441,
        "lon": -122.9994016
      },
      "tags": {
        "name": "Chemawa Substation",
        "operator": "Bonneville Power Administration",
        "operator:short": "BPA",
        "operator:wikidata": "Q2910288",
        "operator:wikipedia": "en:Bonneville Power Administration",
        "power": "substation",
        "voltage": "230000;115000;57000"
      },
      "lat": 45.0147441,
      "lon": -122.9994016
    },
    {
      "type": "way",
      "id": 39380969,
      "center": {
        "lat": 45.5332929,
        "lon": -122.6601472
      },
      "tags": {
        "addr:city": "Portland",
        "addr:housenumber": "1414",
        "addr:postcode": "97232",
        "addr:state": "OR",
        "addr:street": "Northeast Grand Avenue",
        "barrier": "fence",
        "name": "Holladay Substation",
        "operator": "PacifiCorp",
        "operator:wikidata": "Q2045479",
        "operator:wikipedia": "en:PacifiCorp",
        "power": "substation",
        "substation": "distribution",
        "voltage": "115000;12470"
      },
      "lat": 45.5332929,
      "lon": -122.6601472
    },
    {
      "type": "way",
      "id": 39636199,
      "center": {
        "lat": 45.541427,
        "lon": -122.6651785
      },
      "tags": {
        "addr:city": "Portland",
        "addr:housenumber": "44",
        "addr:postcode": "97212",
        "addr:state": "OR",
        "addr:street": "Northeast Knott Street",
        "barrier": "fence",
        "name": "Knott Substation",
        "operator": "PacifiCorp",
        "operator:wikidata": "Q2045479",
        "operator:wikipedia": "en:PacifiCorp",
        "power": "substation",
        "substation": "transmission",
        "voltage": "115000;57000;12470"
      },
      "lat": 45.541427,
      "lon": -122.6651785
    },
    {
      "type": "way",
      "id": 40941186,
      "center": {
        "lat": 45.2673451,
        "lon": -122.7221646
      },
      "tags": {
        "name": "Canby Substation",
        "power": "substation"
      },
      "lat": 45.2673451,
      "lon": -122.7221646
    },
    {
      "type": "way",
      "id": 42169433,
      "center": {
        "lat": 45.3178143,
        "lon": -122.7667702
      },
      "tags": {
        "barrier": "fence",
        "fence_type": "chain_link",
        "name": "Wilsonville Substation",
        "operator": "Portland General Electric",
        "operator:short": "PGE",
        "operator:wikidata": "Q7231939",
        "operator:wikipedia": "en:Portland General Electric",
        "power": "substation",
        "substation": "minor_distribution",
        "voltage": "115000"
      },
      "lat": 45.3178143,
      "lon": -122.7667702
    },
    {
      "type": "way",
      "id": 42910216,
      "center": {
        "lat": 45.2686583,
        "lon": -122.6784867
      },
      "tags": {
        "name": "Westcott Substation",
        "power": "substation",
        "source": "Yahoo"
      },
      "lat": 45.2686583,
      "lon": -122.6784867
    },
    {
      "type": "way",
      "id": 44883301,
      "center": {
        "lat": 44.9694086,
        "lon": -122.9726153
      },
      "tags": {
        "barrier": "fence",
        "location": "outdoor",
        "power": "substation",
        "substation": "distribution"
      },
      "lat": 44.9694086,
      "lon": -122.9726153
    },
    {
      "type": "way",
      "id": 45702222,
      "center": {
        "lat": 45.5161745,
        "lon": -122.6319074
      },
      "tags": {
        "barrier": "fence",
        "name": "Alder Substation",
        "operator": "Portland General Electric",
        "operator:short": "PGE",
        "operator:wikidata": "Q7231939",
        "operator:wikipedia": "en:Portland General Electric",
        "power": "substation",
        "substation": "distribution",
        "voltage": "115000;13000"
      },
      "lat": 45.5161745,
      "lon": -122.6319074
    },
    {
      "type": "way",
      "id": 47286861,
      "center": {
        "lat": 45.508635,
        "lon": -122.7722447
      },
      "tags": {
        "barrier": "fence",
        "name": "Cedar Hills Substation",
        "operator": "Portland General Electric",
        "operator:short": "PGE",
        "operator:wikidata": "Q7231939",
        "operator:wikipedia": "en:Portland General Electric",
        "power": "substation",
        "substation": "distribution"
      },
      "lat": 45.508635,
      "lon": -122.7722447
    },
    {
      "type": "way",
      "id": 48532391,
      "center": {
        "lat": 45.5061512,
        "lon": -122.6744848
      },
      "tags": {
        "barrier": "fence",
        "name": "Lincoln Substation",
        "operator": "PacifiCorp",
        "operator:wikidata": "Q2045479",
        "operator:wikipedia": "en:PacifiCorp",
        "power": "substation",
        "substation": "distribution",
        "voltage": "115000;12470"
      },
      "lat": 45.5061512,
      "lon": -122.6744848
    },
    {
      "type": "way",
      "id": 48871578,
      "center": {
        "lat": 45.4588139,
        "lon": -122.651714
      },
      "tags": {
        "barrier": "wall",
        "name": "Sellwood Substation",
        "operator": "Portland General Electric",
        "operator:short": "PGE",
        "operator:wikidata": "Q7231939",
        "operator:wikipedia": "en:Portland General Electric",
        "power": "substation",
        "substation": "transmission",
        "voltage": "115000;57000;13000"
      },
      "lat": 45.4588139,
      "lon": -122.651714
    },
    {
      "type": "way",
      "id": 49552887,
      "center": {
        "lat": 45.4972505,
        "lon": -122.6772795
      },
      "tags": {
        "barrier": "fence",
        "name": "Urban Substation",
        "operator": "Portland General Electric",
        "operator:short": "PGE",
        "operator:wikidata": "Q7231939",
        "operator:wikipedia": "en:Portland General Electric",
        "power": "substation",
        "substation": "distribution",
        "voltage": "115000;13000"
      },
      "lat": 45.4972505,
      "lon": -122.6772795
    },
    {
      "type": "way",
      "id": 51541608,
      "center": {
        "lat": 45.4380399,
        "lon": -122.830867
      },
      "tags": {
        "barrier": "fence",
        "name": "Murrayhill Substation",
        "operator": "Portland General Electric",
        "operator:short": "PGE",
        "operator:wikidata": "Q7231939",
        "operator:wikipedia": "en:Portland General Electric",
        "power": "substation",
        "substation": "distribution",
        "voltage": "230000;115000"
      },
      "lat": 45.4380399,
      "lon": -122.830867
    },
    {
      "type": "way",
      "id": 51756731,
      "center": {
        "lat": 45.5498064,
        "lon": -122.8957348
      },
      "tags": {
        "barrier": "fence",
        "name": "Keeler Substation",
        "operator": "Bonneville Power Administration",
        "operator:short": "BPA",
        "operator:wikidata": "Q2910288",
        "operator:wikipedia": "en:Bonneville Power Administration",
        "power": "substation",
        "substation": "distribution",
        "voltage": "500000;230000;115000"
      },
      "lat": 45.5498064,
      "lon": -122.8957348
    },
    {
      "type": "way",
      "id": 51757614,
      "center": {
        "lat": 45.6138531,
        "lon": -122.7646992
      },
      "tags": {
        "barrier": "fence",
        "name": "Saint Johns Substation",
        "operator": "Bonneville Power Administration",
        "operator:short": "BPA",
        "operator:wikidata": "Q2910288",
        "operator:wikipedia": "en:Bonneville Power Administration",
        "power": "substation",
        "substation": "transmission",
        "voltage": "230000;115000"
      },
      "lat": 45.6138531,
      "lon": -122.7646992
    },
    {
      "type": "way",
      "id": 51757617,
      "center": {
        "lat": 45.6143172,
        "lon": -122.7676973
      },
      "tags": {
        "barrier": "fence",
        "name": "Rivergate North Substation",
        "operator": "Portland General Electric",
        "operator:short": "PGE",
        "operator:wikidata": "Q7231939",
        "operator:wikipedia": "en:Portland General Electric",
        "power": "substation",
        "substation": "transmission",
        "voltage": "230000;115000"
      },
      "lat": 45.6143172,
      "lon": -122.7676973
    },
    {
      "type": "way",
      "id": 51757619,
      "center": {
        "lat": 45.6127761,
        "lon": -122.7677438
      },
      "tags": {
        "barrier": "fence",
        "name": "Rivergate South Substation",
        "operator": "Portland General Electric",
        "operator:short": "PGE",
        "operator:wikidata": "Q7231939",
        "operator:wikipedia": "en:Portland General Electric",
        "power": "substation",
        "substation": "distribution",
        "voltage": "115000;13000"
      },
      "lat": 45.6127761,
      "lon": -122.7677438
    },
    {
      "type": "way",
      "id": 51777289,
      "center": {
        "lat": 45.5074525,
        "lon": -122.8440295
      },
      "tags": {
        "addr:housenumber": "1785",
        "addr:street": "Southwest 158th Avenue",
        "barrier": "fence",
        "name": "Saint Mary's Substation",
        "operator": "Portland General Electric",
        "operator:short": "PGE",
        "operator:wikidata": "Q7231939",
        "operator:wikipedia": "en:Portland General Electric",
        "power": "substation",
        "substation": "distribution",
        "voltage": "230000;115000"
      },
      "lat": 45.5074525,
      "lon": -122.8440295
    },
    {
      "type": "way",
      "id": 51777297,
      "center": {
        "lat": 45.5321337,
        "lon": -122.8469099
      },
      "tags": {
        "barrier": "fence",
        "name": "Oak Hills Substation",
        "operator": "Portland General Electric",
        "operator:wikidata": "Q7231939",
        "operator:wikipedia": "en:Portland General Electric",
        "power": "substation",
        "substation": "minor_distribution"
      },
      "lat": 45.5321337,
      "lon": -122.8469099
    },
    {
      "type": "way",
      "id": 51801255,
      "center": {
        "lat": 45.6518315,
        "lon": -122.7274564
      },
      "tags": {
        "barrier": "fence",
        "name": "Alcoa Substation",
        "operator": "Bonneville Power Administration",
        "operator:short": "BPA",
        "operator:wikidata": "Q2910288",
        "operator:wikipedia": "en:Bonneville Power Administration",
        "power": "substation",
        "substation": "distribution",
        "voltage": "230000;115000"
      },
      "lat": 45.6518315,
      "lon": -122.7274564
    },
    {
      "type": "way",
      "id": 54051614,
      "center": {
        "lat": 45.5822287,
        "lon": -122.3804344
      },
      "tags": {
        "addr:city": "Washougal",
        "addr:country": "US",
        "addr:housenumber": "345",
        "addr:postcode": "98671",
        "addr:state": "WA",
        "addr:street": "1st Street",
        "name": "Oak Park Substation",
        "power": "substation",
        "source": "esri/Clark_County_Address_Points_;yahoo_wms",
        "voltage": "115000"
      },
      "lat": 45.5822287,
      "lon": -122.3804344
    },
    {
      "type": "way",
      "id": 54051773,
      "center": {
        "lat": 45.5769696,
        "lon": -122.4089407
      },
      "tags": {
        "power": "substation",
        "source": "yahoo_wms",
        "voltage": "69000"
      },
      "lat": 45.5769696,
      "lon": -122.4089407
    },
    {
      "type": "way",
      "id": 54051793,
      "center": {
        "lat": 45.582125,
        "lon": -122.4040703
      },
      "tags": {
        "barrier": "fence",
        "power": "substation",
        "source": "yahoo_wms",
        "substation": "distribution",
        "voltage": "69000"
      },
      "lat": 45.582125,
      "lon": -122.4040703
    },
    {
      "type": "way",
      "id": 54051861,
      "center": {
        "lat": 45.5592869,
        "lon": -122.4089269
      },
      "tags": {
        "name": "Troutdale Substation",
        "operator": "PacifiCorp",
        "operator:wikidata": "Q2045479",
        "operator:wikipedia": "en:PacifiCorp",
        "power": "substation",
        "source": "yahoo_wms",
        "substation": "distribution",
        "voltage": "230000"
      },
      "lat": 45.5592869,
      "lon": -122.4089269
    },
    {
      "type": "way",
      "id": 54051932,
      "center": {
        "lat": 45.5545141,
        "lon": -122.4299315
      },
      "tags": {
        "name": "Blue Lake Substation",
        "operator": "Portland General Electric",
        "operator:short": "PGE",
        "operator:wikidata": "Q7231939",
        "operator:wikipedia": "en:Portland General Electric",
        "power": "substation",
        "source": "yahoo_wms",
        "voltage": "230000"
      },
      "lat": 45.5545141,
      "lon": -122.4299315
    },
    {
      "type": "way",
      "id": 54061634,
      "center": {
        "lat": 45.6484303,
        "lon": -121.9602518
      },
      "tags": {
        "name": "North Bonneville Substation",
        "operator": "Bonneville Power Administration",
        "operator:short": "BPA",
        "operator:wikidata": "Q2910288",
        "power": "substation",
        "source": "yahoo_wms",
        "substation": "transmission",
        "voltage": "230000"
      },
      "lat": 45.6484303,
      "lon": -121.9602518
    },
    {
      "type": "way",
      "id": 54674660,
      "center": {
        "lat": 45.3292898,
        "lon": -122.777461
      },
      "tags": {
        "barrier": "fence",
        "name": "Pearl Substation",
        "operator": "Bonneville Power Administration",
        "operator:short": "BPA",
        "operator:wikidata": "Q2910288",
        "operator:wikipedia": "en:Bonneville Power Administration",
        "power": "substation",
        "substation": "transmission",
        "voltage": "500000;230000"
      },
      "lat": 45.3292898,
      "lon": -122.777461
    },
    {
      "type": "way",
      "id": 54674661,
      "center": {
        "lat": 45.3326573,
        "lon": -122.779218
      },
      "tags": {
        "barrier": "fence",
        "name": "Oregon City Substation",
        "operator": "Bonneville Power Administration",
        "operator:short": "BPA",
        "operator:wikidata": "Q2910288",
        "operator:wikipedia": "en:Bonneville Power Administration",
        "power": "substation",
        "substation": "distribution",
        "voltage": "115000"
      },
      "lat": 45.3326573,
      "lon": -122.779218
    },
    {
      "type": "way",
      "id": 54675166,
      "center": {
        "lat": 45.3717276,
        "lon": -122.8362968
      },
      "tags": {
        "barrier": "fence",
        "name": "Sherwood Substation",
        "operator": "Bonneville Power Administration",
        "operator:short": "BPA",
        "operator:wikidata": "Q2910288",
        "operator:wikipedia": "en:Bonneville Power Administration",
        "power": "substation",
        "substation": "transmission",
        "voltage": "230000;115000"
      },
      "lat": 45.3717276,
      "lon": -122.8362968
    },
    {
      "type": "way",
      "id": 54717629,
      "center": {
        "lat": 44.7998606,
        "lon": -122.6987822
      },
      "tags": {
        "name": "Marion Substation",
        "power": "substation",
        "source": "yahoo_wms",
        "voltage": "500000"
      },
      "lat": 44.7998606,
      "lon": -122.6987822
    },
    {
      "type": "way",
      "id": 54717927,
      "center": {
        "lat": 44.7709664,
        "lon": -122.660368
      },
      "tags": {
        "disused": "yes",
        "name": "Lyons UHV Transformer",
        "operator": "Bonneville Power Administration",
        "operator:short": "BPA",
        "operator:wikidata": "Q2910288",
        "power": "substation",
        "source": "yahoo_wms",
        "substation": "transmission",
        "voltage": "1100000"
      },
      "lat": 44.7709664,
      "lon": -122.660368
    },
    {
      "type": "way",
      "id": 55262606,
      "center": {
        "lat": 46.1079836,
        "lon": -123.0339864
      },
      "tags": {
        "name": "Alston Substation",
        "power": "substation",
        "source": "yahoo_wms",
        "voltage": "500000;230000"
      },
      "lat": 46.1079836,
      "lon": -123.0339864
    },
    {
      "type": "way",
      "id": 55972035,
      "center": {
        "lat": 45.6778677,
        "lon": -120.7379801
      },
      "tags": {
        "name": "John Day Substation",
        "operator": "Bonneville Power Administration",
        "operator:short": "BPA",
        "operator:wikidata": "Q2910288",
        "operator:wikipedia": "en:Bonneville Power Administration",
        "power": "substation",
        "voltage": "500000"
      },
      "lat": 45.6778677,
      "lon": -120.7379801
    },
    {
      "type": "way",
      "id": 55975040,
      "center": {
        "lat": 45.5958931,
        "lon": -121.1133004
      },
      "tags": {
        "barrier": "fence",
        "frequency": "0;60",
        "name": "Celilo Converter Station",
        "operator": "Bonneville Power Administration",
        "operator:short": "BPA",
        "operator:wikidata": "Q2910288",
        "operator:wikipedia": "en:Bonneville Power Administration",
        "power": "substation",
        "source": "yahoo_wms",
        "substation": "converter",
        "voltage": "500000",
        "wikidata": "Q5058055",
        "wikipedia": "en:Celilo Converter Station"
      },
      "lat": 45.5958931,
      "lon": -121.1133004
    },
    {
      "type": "way",
      "id": 55975045,
      "center": {
        "lat": 45.6036675,
        "lon": -121.1079791
      },
      "tags": {
        "barrier": "fence",
        "name": "Big Eddy Substation",
        "power": "substation",
        "source": "yahoo_wms",
        "substation": "transmission",
        "voltage": "500000"
      },
      "lat": 45.6036675,
      "lon": -121.1079791
    },
    {
      "type": "way",
      "id": 55975082,
      "center": {
        "lat": 45.6063815,
        "lon": -121.1157655
      },
      "tags": {
        "name": "Big Eddy Substation",
        "operator": "Bonneville Power Administration",
        "operator:short": "BPA",
        "operator:wikidata": "Q2910288",
        "operator:wikipedia": "en:Bonneville Power Administration",
        "power": "substation",
        "source": "yahoo_wms",
        "substation": "transmission",
        "voltage": "230000;115000"
      },
      "lat": 45.6063815,
      "lon": -121.1157655
    },
    {
      "type": "way",
      "id": 56024635,
      "center": {
        "lat": 45.7024674,
        "lon": -120.1528519
      },
      "tags": {
        "name": "Slatt Substation",
        "operator": "Bonneville Power Administration",
        "operator:short": "BPA",
        "operator:wikidata": "Q2910288",
        "power": "substation",
        "source": "yahoo_wms",
        "substation": "transmission"
      },
      "lat": 45.7024674,
      "lon": -120.1528519
    },
    {
      "type": "way",
      "id": 56028647,
      "center": {
        "lat": 45.2308714,
        "lon": -120.900401
      },
      "tags": {
        "name": "Buckley Substation",
        "operator": "Bonneville Power Administration",
        "operator:short": "BPA",
        "operator:wikidata": "Q2910288",
        "power": "substation",
        "source": "yahoo_wms",
        "voltage": "500000"
      },
      "lat": 45.2308714,
      "lon": -120.900401
    },
    {
      "type": "way",
      "id": 56237930,
      "center": {
        "lat": 45.7636881,
        "lon": -119.9986177
      },
      "tags": {
        "power": "substation",
        "source": "yahoo_wms",
        "voltage": "230000"
      },
      "lat": 45.7636881,
      "lon": -119.9986177
    },
    {
      "type": "way",
      "id": 56271410,
      "center": {
        "lat": 45.8452425,
        "lon": -119.6477819
      },
      "tags": {
        "power": "substation",
        "source": "yahoo_wms",
        "substation": "transmission"
      },
      "lat": 45.8452425,
      "lon": -119.6477819
    },
    {
      "type": "way",
      "id": 56271524,
      "center": {
        "lat": 45.8471198,
        "lon": -119.6736044
      },
      "tags": {
        "power": "substation",
        "source": "yahoo_wms",
        "substation": "generation",
        "voltage": "500000"
      },
      "lat": 45.8471198,
      "lon": -119.6736044
    },
    {
      "type": "way",
      "id": 56392639,
      "center": {
        "lat": 45.1938221,
        "lon": -121.0358399
      },
      "tags": {
        "name": "Maupin Substation",
        "power": "substation"
      },
      "lat": 45.1938221,
      "lon": -121.0358399
    },
    {
      "type": "way",
      "id": 57037737,
      "center": {
        "lat": 45.5928286,
        "lon": -122.1769767
      },
      "tags": {
        "barrier": "fence",
        "name": "Cape Horn Substation",
        "operator": "Skamania County Public Utility District #1",
        "power": "substation",
        "source": "yahoo_wms",
        "substation": "distribution",
        "voltage": "115000"
      },
      "lat": 45.5928286,
      "lon": -122.1769767
    },
    {
      "type": "way",
      "id": 67976306,
      "center": {
        "lat": 45.4608196,
        "lon": -122.4832338
      },
      "tags": {
        "barrier": "fence",
        "name": "Pleasant Valley Substation",
        "operator": "Portland General Electric",
        "operator:short": "PGE",
        "operator:wikidata": "Q7231939",
        "operator:wikipedia": "en:Portland General Electric",
        "power": "substation",
        "substation": "minor_distribution"
      },
      "lat": 45.4608196,
      "lon": -122.4832338
    },
    {
      "type": "way",
      "id": 68481568,
      "center": {
        "lat": 45.5374877,
        "lon": -122.6154623
      },
      "tags": {
        "name": "Hollywood Substation",
        "operator": "PacifiCorp",
        "operator:wikidata": "Q2045479",
        "power": "substation",
        "substation": "minor_distribution"
      },
      "lat": 45.5374877,
      "lon": -122.6154623
    },
    {
      "type": "way",
      "id": 68862388,
      "center": {
        "lat": 45.5549161,
        "lon": -122.6465943
      },
      "tags": {
        "barrier": "fence",
        "name": "Vernon Substation",
        "operator": "PacifiCorp",
        "operator:wikidata": "Q2045479",
        "operator:wikipedia": "en:PacifiCorp",
        "power": "substation",
        "source": "Yahoo",
        "substation": "minor_distribution"
      },
      "lat": 45.5549161,
      "lon": -122.6465943
    },
    {
      "type": "way",
      "id": 70945980,
      "center": {
        "lat": 45.5090096,
        "lon": -122.6582438
      },
      "tags": {
        "barrier": "fence",
        "fence_type": "barbed_wire",
        "name": "Harrison Substation",
        "operator": "Portland General Electric",
        "operator:short": "PGE",
        "operator:wikidata": "Q7231939",
        "operator:wikipedia": "en:Portland General Electric",
        "power": "substation",
        "substation": "transmission",
        "voltage": "115000;13000;11100"
      },
      "lat": 45.5090096,
      "lon": -122.6582438
    },
    {
      "type": "way",
      "id": 70945981,
      "center": {
        "lat": 45.5090067,
        "lon": -122.6572613
      },
      "tags": {
        "barrier": "fence",
        "fence_type": "barbed_wire",
        "name": "Harrison Substation",
        "operator": "PacifiCorp",
        "operator:wikidata": "Q2045479",
        "operator:wikipedia": "en:PacifiCorp",
        "power": "substation",
        "substation": "transmission",
        "voltage": "115000"
      },
      "lat": 45.5090067,
      "lon": -122.6572613
    },
    {
      "type": "way",
      "id": 71872271,
      "center": {
        "lat": 45.3690623,
        "lon": -122.8458565
      },
      "tags": {
        "barrier": "fence",
        "name": "Six Corners Substation",
        "operator": "Portland General Electric",
        "operator:wikidata": "Q7231939",
        "operator:wikipedia": "en:Portland General Electric",
        "power": "substation",
        "substation": "minor_distribution"
      },
      "lat": 45.3690623,
      "lon": -122.8458565
    },
    {
      "type": "way",
      "id": 73581685,
      "center": {
        "lat": 45.4692963,
        "lon": -122.6720623
      },
      "tags": {
        "barrier": "fence",
        "name": "Riverview Substation",
        "operator": "Portland General Electric",
        "operator:short": "PGE",
        "operator:wikidata": "Q7231939",
        "operator:wikipedia": "en:Portland General Electric",
        "power": "substation",
        "substation": "distribution",
        "voltage": "115000;13000"
      },
      "lat": 45.4692963,
      "lon": -122.6720623
    },
    {
      "type": "way",
      "id": 74459430,
      "center": {
        "lat": 44.074011,
        "lon": -123.1772868
      },
      "tags": {
        "name": "Danebo Substation",
        "operator": "Eugene Water & Electric Board",
        "operator:short": "EWEB",
        "operator:wikidata": "Q5407841",
        "operator:wikipedia": "en:Eugene Water & Electric Board",
        "power": "substation",
        "source": "NAIP",
        "substation": "distribution",
        "voltage": "115000"
      },
      "lat": 44.074011,
      "lon": -123.1772868
    },
    {
      "type": "way",
      "id": 74460378,
      "center": {
        "lat": 44.0910694,
        "lon": -123.1718046
      },
      "tags": {
        "barrier": "fence",
        "location": "outdoor",
        "name": "Jessen Substation",
        "operator": "Eugene Water & Electric Board",
        "operator:short": "EWEB",
        "operator:wikidata": "Q5407841",
        "operator:wikipedia": "en:Eugene Water & Electric Board",
        "power": "substation",
        "substation": "distribution",
        "voltage": "115000"
      },
      "lat": 44.0910694,
      "lon": -123.1718046
    },
    {
      "type": "way",
      "id": 74846397,
      "center": {
        "lat": 44.0982199,
        "lon": -123.1213522
      },
      "tags": {
        "name": "Santa Clara Substation",
        "operator": "Eugene Water & Electric Board",
        "operator:short": "EWEB",
        "operator:wikidata": "Q5407841",
        "operator:wikipedia": "en:Eugene Water & Electric Board",
        "power": "substation",
        "source": "NAIP",
        "substation": "distribution",
        "voltage": "115000"
      },
      "lat": 44.0982199,
      "lon": -123.1213522
    },
    {
      "type": "way",
      "id": 76554675,
      "center": {
        "lat": 44.0052254,
        "lon": -123.0775254
      },
      "tags": {
        "name": "Dillard Substation",
        "operator": "Eugene Water & Electric Board",
        "operator:short": "EWEB",
        "operator:wikidata": "Q5407841",
        "operator:wikipedia": "en:Eugene Water & Electric Board",
        "power": "substation",
        "source": "NAIP",
        "voltage": "115000"
      },
      "lat": 44.0052254,
      "lon": -123.0775254
    },
    {
      "type": "way",
      "id": 76554756,
      "center": {
        "lat": 43.9933691,
        "lon": -123.0638395
      },
      "tags": {
        "addr:city": "Eugene",
        "addr:housenumber": "32477",
        "addr:postcode": "97405",
        "addr:state": "OR",
        "addr:street": "Dillard Road",
        "name": "Hideaway Substation",
        "operator": "Lane Electric Co-op",
        "power": "substation",
        "source": "NAIP",
        "voltage": "115000"
      },
      "lat": 43.9933691,
      "lon": -123.0638395
    },
    {
      "type": "way",
      "id": 77087420,
      "center": {
        "lat": 45.4887334,
        "lon": -122.6076299
      },
      "tags": {
        "barrier": "fence",
        "name": "Arleta Substation",
        "operator": "Portland General Electric",
        "operator:short": "PGE",
        "operator:wikidata": "Q7231939",
        "operator:wikipedia": "en:Portland General Electric",
        "power": "substation",
        "substation": "distribution",
        "voltage": "57000;13000"
      },
      "lat": 45.4887334,
      "lon": -122.6076299
    },
    {
      "type": "way",
      "id": 77707503,
      "center": {
        "lat": 45.521377,
        "lon": -122.9698262
      },
      "tags": {
        "addr:city": "Hillsboro",
        "addr:housenumber": "180",
        "addr:postcode": "97123",
        "addr:street": "Southeast 12th Avenue",
        "building": "yes",
        "name": "Washington Street Substation",
        "operator": "TriMet",
        "operator:wikidata": "Q1766623",
        "power": "substation",
        "substation": "traction"
      },
      "lat": 45.521377,
      "lon": -122.9698262
    },
    {
      "type": "way",
      "id": 79879329,
      "center": {
        "lat": 45.4866998,
        "lon": -122.7246656
      },
      "tags": {
        "barrier": "fence",
        "name": "Glencullen Substation",
        "operator": "Portland General Electric",
        "operator:short": "PGE",
        "operator:wikidata": "Q7231939",
        "operator:wikipedia": "en:Portland General Electric",
        "power": "substation",
        "substation": "distribution",
        "voltage": "115000;13000"
      },
      "lat": 45.4866998,
      "lon": -122.7246656
    },
    {
      "type": "way",
      "id": 80794931,
      "center": {
        "lat": 45.6932266,
        "lon": -122.6942487
      },
      "tags": {
        "barrier": "fence",
        "name": "Van Dyke Substation",
        "operator": "Clark Public Utilities",
        "operator:wikidata": "Q20712245",
        "operator:wikipedia": "en:Clark Public Utilities",
        "power": "substation",
        "source": "bing",
        "substation": "distribution",
        "voltage": "115000"
      },
      "lat": 45.6932266,
      "lon": -122.6942487
    },
    {
      "type": "way",
      "id": 81347729,
      "center": {
        "lat": 45.5222609,
        "lon": -122.5604724
      },
      "tags": {
        "barrier": "fence",
        "name": "Russellville Substation",
        "operator": "PacifiCorp",
        "operator:wikidata": "Q2045479",
        "operator:wikipedia": "en:PacifiCorp",
        "power": "substation",
        "substation": "minor_distribution"
      },
      "lat": 45.5222609,
      "lon": -122.5604724
    },
    {
      "type": "way",
      "id": 81798052,
      "center": {
        "lat": 45.4304154,
        "lon": -122.7770663
      },
      "tags": {
        "barrier": "fence",
        "name": "Tigard Substation",
        "operator": "Portland General Electric",
        "operator:short": "PGE",
        "operator:wikidata": "Q7231939",
        "power": "substation",
        "substation": "distribution",
        "voltage": "115000;13000"
      },
      "lat": 45.4304154,
      "lon": -122.7770663
    },
    {
      "type": "way",
      "id": 83073427,
      "center": {
        "lat": 44.0396997,
        "lon": -122.9614794
      },
      "tags": {
        "name": "Jasper Substation",
        "operator": "Springfield Utility Board",
        "operator:short": "SUB",
        "operator:wikidata": "Q114835124",
        "power": "substation",
        "source": "NAIP",
        "substation": "distribution",
        "voltage": "115000"
      },
      "lat": 44.0396997,
      "lon": -122.9614794
    },
    {
      "type": "way",
      "id": 83568786,
      "center": {
        "lat": 44.0531895,
        "lon": -122.9440948
      },
      "tags": {
        "name": "Weyerhaeuser Substation #2",
        "operator": "Eugene Water & Electric Board",
        "operator:short": "EWEB",
        "operator:wikidata": "Q5407841",
        "operator:wikipedia": "en:Eugene Water & Electric Board",
        "power": "substation",
        "substation": "industrial",
        "voltage": "115000"
      },
      "lat": 44.0531895,
      "lon": -122.9440948
    },
    {
      "type": "way",
      "id": 83672864,
      "center": {
        "lat": 44.0274993,
        "lon": -123.1045381
      },
      "tags": {
        "name": "Monroe Substation",
        "operator": "Eugene Water & Electric Board",
        "operator:short": "EWEB",
        "operator:wikidata": "Q5407841",
        "operator:wikipedia": "en:Eugene Water & Electric Board",
        "power": "substation",
        "substation": "distribution",
        "voltage": "115000"
      },
      "lat": 44.0274993,
      "lon": -123.1045381
    },
    {
      "type": "way",
      "id": 83789747,
      "center": {
        "lat": 44.0715943,
        "lon": -122.9669965
      },
      "tags": {
        "name": "Hayden Bridge Substation",
        "operator": "Eugene Water & Electric Board",
        "operator:short": "EWEB",
        "operator:wikidata": "Q5407841",
        "operator:wikipedia": "en:Eugene Water & Electric Board",
        "power": "substation",
        "substation": "distribution",
        "voltage": "115000"
      },
      "lat": 44.0715943,
      "lon": -122.9669965
    },
    {
      "type": "way",
      "id": 83789750,
      "center": {
        "lat": 44.0712668,
        "lon": -122.972313
      },
      "tags": {
        "name": "Hayden Bridge Switching Station North",
        "operator": "Eugene Water & Electric Board",
        "operator:short": "EWEB",
        "operator:wikidata": "Q5407841",
        "operator:wikipedia": "en:Eugene Water & Electric Board",
        "power": "substation",
        "substation": "distribution",
        "voltage": "115000"
      },
      "lat": 44.0712668,
      "lon": -122.972313
    },
    {
      "type": "way",
      "id": 85195293,
      "center": {
        "lat": 45.2123082,
        "lon": -123.1807687
      },
      "tags": {
        "barrier": "fence",
        "name": "McMinnville Substation",
        "operator": "Bonneville Power Administration",
        "operator:short": "BPA",
        "operator:wikidata": "Q2910288",
        "power": "substation",
        "substation": "distribution",
        "voltage": "115000"
      },
      "lat": 45.2123082,
      "lon": -123.1807687
    },
    {
      "type": "way",
      "id": 86092858,
      "center": {
        "lat": 45.4028118,
        "lon": -122.5267918
      },
      "tags": {
        "barrier": "fence",
        "name": "Carver Substation",
        "operator": "Portland General Electric",
        "operator:short": "PGE",
        "operator:wikidata": "Q7231939",
        "operator:wikipedia": "en:Portland General Electric",
        "power": "substation",
        "source": "NAIP",
        "substation": "transmission",
        "voltage": "230000;115000;13000"
      },
      "lat": 45.4028118,
      "lon": -122.5267918
    },
    {
      "type": "way",
      "id": 86191896,
      "center": {
        "lat": 45.3981397,
        "lon": -122.2708961
      },
      "tags": {
        "barrier": "fence",
        "name": "Sandy Substation",
        "operator": "Portland General Electric",
        "operator:short": "PGE",
        "operator:wikidata": "Q7231939",
        "power": "substation"
      },
      "lat": 45.3981397,
      "lon": -122.2708961
    },
    {
      "type": "way",
      "id": 86419706,
      "center": {
        "lat": 44.0452071,
        "lon": -123.0124644
      },
      "tags": {
        "name": "10th Street Substation",
        "operator": "Springfield Utility Board",
        "operator:short": "SUB",
        "operator:wikidata": "Q114835124",
        "power": "substation",
        "substation": "distribution",
        "voltage": "115000"
      },
      "lat": 44.0452071,
      "lon": -123.0124644
    },
    {
      "type": "way",
      "id": 86419707,
      "center": {
        "lat": 44.0439813,
        "lon": -123.0008213
      },
      "tags": {
        "building": "no",
        "name": "Springfield Substation",
        "operator": "Springfield Utility Board",
        "operator:short": "SUB",
        "operator:wikidata": "Q114835124",
        "power": "substation",
        "substation": "distribution",
        "voltage": "115000"
      },
      "lat": 44.0439813,
      "lon": -123.0008213
    },
    {
      "type": "way",
      "id": 88615577,
      "center": {
        "lat": 44.0957551,
        "lon": -123.0436781
      },
      "tags": {
        "barrier": "fence",
        "name": "McKenzie Substation",
        "operator": "Eugene Water & Electric Board",
        "operator:short": "EWEB",
        "operator:wikidata": "Q5407841",
        "operator:wikipedia": "en:Eugene Water & Electric Board",
        "power": "substation",
        "substation": "transmission",
        "voltage": "230000"
      },
      "lat": 44.0957551,
      "lon": -123.0436781
    },
    {
      "type": "way",
      "id": 88622814,
      "center": {
        "lat": 44.055872,
        "lon": -123.1655292
      },
      "tags": {
        "name": "Bertelsen Substation",
        "operator": "Eugene Water & Electric Board",
        "operator:short": "EWEB",
        "operator:wikidata": "Q5407841",
        "operator:wikipedia": "en:Eugene Water & Electric Board",
        "power": "substation",
        "substation": "distribution",
        "voltage": "115000"
      },
      "lat": 44.055872,
      "lon": -123.1655292
    },
    {
      "type": "way",
      "id": 88974158,
      "center": {
        "lat": 43.8630577,
        "lon": -121.4387938
      },
      "tags": {
        "operator": "Midstate Electric Cooperative",
        "power": "substation",
        "source": "NAIP"
      },
      "lat": 43.8630577,
      "lon": -121.4387938
    },
    {
      "type": "way",
      "id": 88982268,
      "center": {
        "lat": 44.0023101,
        "lon": -121.3302672
      },
      "tags": {
        "power": "substation"
      },
      "lat": 44.0023101,
      "lon": -121.3302672
    },
    {
      "type": "way",
      "id": 88982424,
      "center": {
        "lat": 44.0572328,
        "lon": -121.2335397
      },
      "tags": {
        "barrier": "fence",
        "fixme": "name",
        "power": "substation",
        "substation": "transmission"
      },
      "lat": 44.0572328,
      "lon": -121.2335397
    },
    {
      "type": "way",
      "id": 88982442,
      "center": {
        "lat": 44.2702087,
        "lon": -121.2106158
      },
      "tags": {
        "name": "Redmond Substation",
        "operator": "Bonneville Power Administration",
        "operator:short": "BPA",
        "operator:wikidata": "Q2910288",
        "operator:wikipedia": "en:Bonneville Power Administration",
        "power": "substation",
        "substation": "distribution",
        "voltage": "230000;115000"
      },
      "lat": 44.2702087,
      "lon": -121.2106158
    },
    {
      "type": "way",
      "id": 89384747,
      "center": {
        "lat": 45.4463128,
        "lon": -122.7840773
      },
      "tags": {
        "name": "Progress Substation",
        "operator": "Portland General Electric",
        "operator:short": "PGE",
        "operator:wikidata": "Q7231939",
        "operator:wikipedia": "en:Portland General Electric",
        "power": "substation",
        "substation": "distribution",
        "voltage": "115000;13000"
      },
      "lat": 45.4463128,
      "lon": -122.7840773
    },
    {
      "type": "way",
      "id": 89534328,
      "center": {
        "lat": 45.5239925,
        "lon": -122.8989445
      },
      "tags": {
        "barrier": "fence",
        "fence_type": "chain_link",
        "name": "Orenco Substation",
        "operator": "Portland General Electric",
        "operator:short": "PGE",
        "operator:wikidata": "Q7231939",
        "operator:wikipedia": "en:Portland General Electric",
        "power": "substation",
        "substation": "distribution",
        "voltage": "115000"
      },
      "lat": 45.5239925,
      "lon": -122.8989445
    },
    {
      "type": "way",
      "id": 90298373,
      "center": {
        "lat": 45.4700288,
        "lon": -122.7871416
      },
      "tags": {
        "barrier": "fence",
        "fence_type": "chain_link",
        "name": "Denny Substation",
        "operator": "Portland General Electric",
        "operator:short": "PGE",
        "operator:wikidata": "Q7231939",
        "operator:wikipedia": "en:Portland General Electric",
        "power": "substation",
        "source": "Yahoo",
        "substation": "distribution",
        "voltage": "115000;13000"
      },
      "lat": 45.4700288,
      "lon": -122.7871416
    },
    {
      "type": "way",
      "id": 93174018,
      "center": {
        "lat": 45.3385566,
        "lon": -122.5589454
      },
      "tags": {
        "addr:city": "Oregon City",
        "addr:housenumber": "15070",
        "addr:postcode": "97045",
        "addr:state": "OR",
        "addr:street": "South Maplelane Road",
        "barrier": "fence",
        "name": "McLoughlin Substation",
        "operator": "Portland General Electric",
        "operator:short": "PGE",
        "operator:wikidata": "Q7231939",
        "power": "substation",
        "source": "NAIP",
        "substation": "transmission",
        "voltage": "230000;115000"
      },
      "lat": 45.3385566,
      "lon": -122.5589454
    },
    {
      "type": "way",
      "id": 93416192,
      "center": {
        "lat": 43.9965553,
        "lon": -123.0161471
      },
      "tags": {
        "barrier": "fence",
        "name": "Alvey Substation",
        "power": "substation",
        "source": "NAIP",
        "voltage": "500000;230000"
      },
      "lat": 43.9965553,
      "lon": -123.0161471
    },
    {
      "type": "way",
      "id": 93417092,
      "center": {
        "lat": 44.0821698,
        "lon": -123.0313688
      },
      "tags": {
        "barrier": "fence",
        "name": "Gateway Substation",
        "operator": "Springfield Utility Board",
        "operator:short": "SUB",
        "operator:wikidata": "Q114835124",
        "power": "substation",
        "substation": "distribution",
        "voltage": "115000"
      },
      "lat": 44.0821698,
      "lon": -123.0313688
    },
    {
      "type": "way",
      "id": 93417102,
      "center": {
        "lat": 44.0821858,
        "lon": -123.0493712
      },
      "tags": {
        "name": "Willakenzie Substation",
        "operator": "Eugene Water & Electric Board",
        "operator:short": "EWEB",
        "operator:wikidata": "Q5407841",
        "power": "substation",
        "substation": "distribution",
        "voltage": "115000"
      },
      "lat": 44.0821858,
      "lon": -123.0493712
    },
    {
      "type": "way",
      "id": 93814035,
      "center": {
        "lat": 45.6377788,
        "lon": -122.6987225
      },
      "tags": {
        "barrier": "fence",
        "name": "Carborundum Substation",
        "operator": "Bonneville Power Administration",
        "operator:short": "BPA",
        "operator:wikidata": "Q2910288",
        "operator:wikipedia": "en:Bonneville Power Administration",
        "power": "substation",
        "substation": "distribution",
        "voltage": "115000"
      },
      "lat": 45.6377788,
      "lon": -122.6987225
    },
    {
      "type": "way",
      "id": 93893875,
      "center": {
        "lat": 45.594502,
        "lon": -122.7206007
      },
      "tags": {
        "barrier": "fence",
        "name": "Portsmouth Substation",
        "operator": "Portland General Electric",
        "operator:wikidata": "Q7231939",
        "operator:wikipedia": "en:Portland General Electric",
        "power": "substation",
        "source": "bing",
        "substation": "minor_distribution"
      },
      "lat": 45.594502,
      "lon": -122.7206007
    },
    {
      "type": "way",
      "id": 93896131,
      "center": {
        "lat": 45.639528,
        "lon": -122.7611902
      },
      "tags": {
        "barrier": "fence",
        "name": "Kelley Point Substation",
        "operator": "Portland General Electric",
        "operator:wikidata": "Q7231939",
        "operator:wikipedia": "en:Portland General Electric",
        "power": "substation",
        "substation": "minor_distribution"
      },
      "lat": 45.639528,
      "lon": -122.7611902
    },
    {
      "type": "way",
      "id": 93984357,
      "center": {
        "lat": 42.0796144,
        "lon": -121.3899577
      },
      "tags": {
        "barrier": "fence",
        "name": "Captain Jack Substation",
        "power": "substation",
        "voltage": "500000"
      },
      "lat": 42.0796144,
      "lon": -121.3899577
    },
    {
      "type": "way",
      "id": 94019612,
      "center": {
        "lat": 43.0139807,
        "lon": -120.9559068
      },
      "tags": {
        "name": "Summer Lake Substation",
        "operator": "PacifiCorp",
        "operator:wikidata": "Q2045479",
        "power": "substation",
        "substation": "transmission",
        "voltage": "500000"
      },
      "lat": 43.0139807,
      "lon": -120.9559068
    },
    {
      "type": "way",
      "id": 94019615,
      "center": {
        "lat": 42.8534718,
        "lon": -120.9874095
      },
      "tags": {
        "name": "Sycan Capacitor Station",
        "operator": "Bonneville Power Administration;Portland General Electric;PacifiCorp",
        "power": "substation",
        "substation": "capacitor",
        "voltage": "500000"
      },
      "lat": 42.8534718,
      "lon": -120.9874095
    },
    {
      "type": "way",
      "id": 94053265,
      "center": {
        "lat": 45.1613768,
        "lon": -120.9022861
      },
      "tags": {
        "name": "Bakeoven Capacitor Station",
        "operator": "Bonneville Power Administration",
        "operator:short": "BPA",
        "operator:wikidata": "Q2910288",
        "power": "substation",
        "substation": "capacitor",
        "voltage": "500000"
      },
      "lat": 45.1613768,
      "lon": -120.9022861
    },
    {
      "type": "way",
      "id": 94053268,
      "center": {
        "lat": 43.7203806,
        "lon": -120.8551892
      },
      "tags": {
        "name": "Sand Springs Capacitor Stattion",
        "operator": "Bonneville Power Administration",
        "operator:short": "BPA",
        "operator:wikidata": "Q2910288",
        "power": "substation",
        "substation": "capacitor"
      },
      "lat": 43.7203806,
      "lon": -120.8551892
    },
    {
      "type": "way",
      "id": 94053279,
      "center": {
        "lat": 44.4819547,
        "lon": -121.0202547
      },
      "tags": {
        "barrier": "fence",
        "name": "Grizzly Substation",
        "operator": "Bonneville Power Administration",
        "operator:short": "BPA",
        "operator:wikidata": "Q2910288",
        "operator:wikipedia": "en:Bonneville Power Administration",
        "power": "substation",
        "substation": "compensation",
        "voltage": "500000"
      },
      "lat": 44.4819547,
      "lon": -121.0202547
    },
    {
      "type": "way",
      "id": 94053280,
      "center": {
        "lat": 44.2261249,
        "lon": -120.9328556
      },
      "tags": {
        "barrier": "fence",
        "name": "Ponderosa Substation",
        "operator": "Bonneville Power Administration",
        "operator:short": "BPA",
        "operator:wikidata": "Q2910288",
        "power": "substation",
        "substation": "transmission",
        "voltage": "500000;230000;115000"
      },
      "lat": 44.2261249,
      "lon": -120.9328556
    },
    {
      "type": "way",
      "id": 94369503,
      "center": {
        "lat": 45.6023197,
        "lon": -122.7450882
      },
      "tags": {
        "access": "private",
        "barrier": "fence",
        "fence_type": "chain_link",
        "name": "St. John's Switching Station",
        "operator": "Pacific Power",
        "operator:wikidata": "Q2045479",
        "power": "substation",
        "source": "bing",
        "substation": "transmission",
        "voltage": "115000"
      },
      "lat": 45.6023197,
      "lon": -122.7450882
    },
    {
      "type": "way",
      "id": 94369521,
      "center": {
        "lat": 45.6005878,
        "lon": -122.7275477
      },
      "tags": {
        "barrier": "fence",
        "name": "Bloss Substation",
        "operator": "PacifiCorp",
        "operator:wikidata": "Q2045479",
        "operator:wikipedia": "en:PacifiCorp",
        "power": "substation",
        "substation": "distribution",
        "voltage": "115000;12470"
      },
      "lat": 45.6005878,
      "lon": -122.7275477
    },
    {
      "type": "way",
      "id": 94369599,
      "center": {
        "lat": 45.6278164,
        "lon": -122.7820047
      },
      "tags": {
        "barrier": "fence",
        "power": "substation",
        "substation": "transmission"
      },
      "lat": 45.6278164,
      "lon": -122.7820047
    },
    {
      "type": "way",
      "id": 94369664,
      "center": {
        "lat": 45.6111662,
        "lon": -122.7727644
      },
      "tags": {
        "barrier": "fence",
        "power": "substation",
        "substation": "industrial",
        "voltage": "115000"
      },
      "lat": 45.6111662,
      "lon": -122.7727644
    },
    {
      "type": "way",
      "id": 94398296,
      "center": {
        "lat": 45.6506461,
        "lon": -122.7243308
      },
      "tags": {
        "barrier": "fence",
        "power": "substation",
        "source": "bing",
        "voltage": "115000"
      },
      "lat": 45.6506461,
      "lon": -122.7243308
    },
    {
      "type": "way",
      "id": 94446414,
      "center": {
        "lat": 43.6674093,
        "lon": -119.0476771
      },
      "tags": {
        "power": "substation",
        "substation": "transmission",
        "voltage": "500000"
      },
      "lat": 43.6674093,
      "lon": -119.0476771
    },
    {
      "type": "way",
      "id": 94787319,
      "center": {
        "lat": 45.5768763,
        "lon": -122.7574696
      },
      "tags": {
        "barrier": "fence",
        "operator": "Siltronic",
        "operator:type": "private",
        "operator:wikidata": "Q2286374",
        "operator:wikipedia": "en:Siltronic",
        "power": "substation"
      },
      "lat": 45.5768763,
      "lon": -122.7574696
    },
    {
      "type": "way",
      "id": 94842591,
      "center": {
        "lat": 45.5631891,
        "lon": -122.7017307
      },
      "tags": {
        "barrier": "fence",
        "power": "substation"
      },
      "lat": 45.5631891,
      "lon": -122.7017307
    },
    {
      "type": "way",
      "id": 94849047,
      "center": {
        "lat": 44.9587806,
        "lon": -123.0920017
      },
      "tags": {
        "name": "Jim Hughes Substation",
        "operator": "Salem Electric",
        "power": "substation",
        "source": "NAIP",
        "substation": "minor_distribution",
        "voltage": "115000"
      },
      "lat": 44.9587806,
      "lon": -123.0920017
    },
    {
      "type": "way",
      "id": 94885714,
      "center": {
        "lat": 45.3609501,
        "lon": -122.4074028
      },
      "tags": {
        "barrier": "fence",
        "name": "Ostrander Substation",
        "operator": "Bonneville Power Administration",
        "operator:short": "BPA",
        "operator:wikidata": "Q2910288",
        "operator:wikipedia": "en:Bonneville Power Administration",
        "power": "substation",
        "source": "bing",
        "substation": "transmission",
        "voltage": "500000;230000"
      },
      "lat": 45.3609501,
      "lon": -122.4074028
    },
    {
      "type": "way",
      "id": 94922211,
      "center": {
        "lat": 45.5291672,
        "lon": -121.5647449
      },
      "tags": {
        "barrier": "fence",
        "name": "Parkdale Substation",
        "operator": "Bonneville Power Administration",
        "operator:short": "BPA",
        "operator:wikidata": "Q2910288",
        "power": "substation",
        "source": "bing",
        "substation": "distribution"
      },
      "lat": 45.5291672,
      "lon": -121.5647449
    },
    {
      "type": "way",
      "id": 94922230,
      "center": {
        "lat": 45.6355781,
        "lon": -121.2040871
      },
      "tags": {
        "name": "Chenoweth Substation",
        "operator": "Bonneville Power Administration",
        "operator:short": "BPA",
        "operator:wikidata": "Q2910288",
        "operator:wikipedia": "en:Bonneville Power Administration",
        "power": "substation",
        "ref": "Chenoweth Substation",
        "source": "bing",
        "substation": "transmission",
        "voltage": "230000;115000"
      },
      "lat": 45.6355781,
      "lon": -121.2040871
    },
    {
      "type": "way",
      "id": 94933901,
      "center": {
        "lat": 45.3301993,
        "lon": -122.5063823
      },
      "tags": {
        "barrier": "fence",
        "name": "Redland Substation",
        "operator": "Portland General Electric",
        "operator:wikidata": "Q7231939",
        "operator:wikipedia": "en:Portland General Electric",
        "power": "substation",
        "source": "bing",
        "substation": "minor_distribution",
        "voltage": "115000"
      },
      "lat": 45.3301993,
      "lon": -122.5063823
    },
    {
      "type": "way",
      "id": 94950082,
      "center": {
        "lat": 45.5538243,
        "lon": -122.6971772
      },
      "tags": {
        "barrier": "fence",
        "power": "substation",
        "substation": "minor_distribution"
      },
      "lat": 45.5538243,
      "lon": -122.6971772
    },
    {
      "type": "way",
      "id": 95768138,
      "center": {
        "lat": 44.0621077,
        "lon": -123.0570395
      },
      "tags": {
        "name": "Currin Substation",
        "name:etymology": "Hugh Currin",
        "name:etymology:wikidata": "Q130213274",
        "operator": "Eugene Water & Electric Board",
        "operator:short": "EWEB",
        "operator:wikidata": "Q5407841",
        "power": "substation",
        "start_date": "1962",
        "substation": "distribution",
        "voltage": "115000",
        "wikidata": "Q130213251"
      },
      "lat": 44.0621077,
      "lon": -123.0570395
    },
    {
      "type": "way",
      "id": 95813050,
      "center": {
        "lat": 46.0397061,
        "lon": -122.889121
      },
      "tags": {
        "barrier": "fence",
        "name": "Trojan Substation",
        "operator": "Portland General Electric",
        "operator:short": "PGE",
        "operator:wikidata": "Q7231939",
        "operator:wikipedia": "en:Portland General Electric",
        "power": "substation",
        "voltage": "230000"
      },
      "lat": 46.0397061,
      "lon": -122.889121
    },
    {
      "type": "way",
      "id": 96851045,
      "center": {
        "lat": 45.5798973,
        "lon": -122.6675121
      },
      "tags": {
        "barrier": "fence",
        "name": "Columbia Substation",
        "operator": "PacifiCorp",
        "operator:wikidata": "Q2045479",
        "operator:wikipedia": "en:PacifiCorp",
        "power": "substation",
        "source": "bing",
        "substation": "distribution",
        "voltage": "115000;69000;12470"
      },
      "lat": 45.5798973,
      "lon": -122.6675121
    },
    {
      "type": "way",
      "id": 97339344,
      "center": {
        "lat": 45.3801774,
        "lon": -122.0446731
      },
      "tags": {
        "barrier": "fence",
        "name": "Brightwood Substation",
        "operator": "Portland General Electric",
        "operator:short": "PGE",
        "operator:wikidata": "Q7231939",
        "power": "substation"
      },
      "lat": 45.3801774,
      "lon": -122.0446731
    },
    {
      "type": "way",
      "id": 98077525,
      "center": {
        "lat": 45.4850194,
        "lon": -122.7485916
      },
      "tags": {
        "name": "Raleigh Hills Substation",
        "operator": "Portland General Electric",
        "operator:short": "PGE",
        "operator:wikidata": "Q7231939",
        "operator:wikipedia": "en:Portland General Electric",
        "power": "substation",
        "substation": "distribution",
        "voltage": "115000;13000"
      },
      "lat": 45.4850194,
      "lon": -122.7485916
    },
    {
      "type": "way",
      "id": 98398193,
      "center": {
        "lat": 45.5251623,
        "lon": -122.4457517
      },
      "tags": {
        "barrier": "fence",
        "name": "Glisan Substation",
        "operator": "Portland General Electric",
        "operator:wikidata": "Q7231939",
        "operator:wikipedia": "en:Portland General Electric",
        "power": "substation",
        "substation": "minor_distribution",
        "voltage": "115000"
      },
      "lat": 45.5251623,
      "lon": -122.4457517
    },
    {
      "type": "way",
      "id": 98404998,
      "center": {
        "lat": 45.5347224,
        "lon": -122.4315035
      },
      "tags": {
        "barrier": "fence",
        "name": "Fairview Substation",
        "operator": "Portland General Electric",
        "operator:short": "PGE",
        "operator:wikidata": "Q7231939",
        "operator:wikipedia": "en:Portland General Electric",
        "power": "substation",
        "source": "Yahoo",
        "substation": "minor_distribution"
      },
      "lat": 45.5347224,
      "lon": -122.4315035
    },
    {
      "type": "way",
      "id": 98570950,
      "center": {
        "lat": 45.5007805,
        "lon": -122.4170252
      },
      "tags": {
        "barrier": "fence",
        "name": "Hogan South Substation",
        "operator": "Portland General Electric",
        "operator:short": "PGE",
        "operator:wikidata": "Q7231939",
        "power": "substation",
        "source": "Yahoo",
        "substation": "transmission",
        "voltage": "115000;57000;13000"
      },
      "lat": 45.5007805,
      "lon": -122.4170252
    },
    {
      "type": "way",
      "id": 98570951,
      "center": {
        "lat": 45.5009529,
        "lon": -122.4144143
      },
      "tags": {
        "barrier": "fence",
        "name": "Hogan North Substation",
        "operator": "Portland General Electric",
        "operator:short": "PGE",
        "operator:wikidata": "Q7231939",
        "operator:wikipedia": "en:Portland General Electric",
        "power": "substation",
        "source": "Yahoo",
        "substation": "distribution",
        "voltage": "115000;13000"
      },
      "lat": 45.5009529,
      "lon": -122.4144143
    },
    {
      "type": "way",
      "id": 98811194,
      "center": {
        "lat": 45.9232435,
        "lon": -119.100065
      },
      "tags": {
        "power": "substation",
        "source": "bing"
      },
      "lat": 45.9232435,
      "lon": -119.100065
    },
    {
      "type": "way",
      "id": 98958155,
      "center": {
        "lat": 45.0130022,
        "lon": -123.0010841
      },
      "tags": {
        "barrier": "fence",
        "power": "substation"
      },
      "lat": 45.0130022,
      "lon": -123.0010841
    },
    {
      "type": "way",
      "id": 99002047,
      "center": {
        "lat": 44.0509589,
        "lon": -123.2319979
      },
      "tags": {
        "name": "Lane Substation",
        "operator": "Bonneville Power Administration",
        "operator:short": "BPA",
        "operator:wikidata": "Q2910288",
        "operator:wikipedia": "en:Bonneville Power Administration",
        "power": "substation",
        "source": "bing",
        "substation": "transmission",
        "voltage": "500000;230000;115000"
      },
      "lat": 44.0509589,
      "lon": -123.2319979
    },
    {
      "type": "way",
      "id": 99002049,
      "center": {
        "lat": 44.5045757,
        "lon": -122.8658701
      },
      "tags": {
        "name": "Lebanon Substation",
        "power": "substation",
        "source": "bing"
      },
      "lat": 44.5045757,
      "lon": -122.8658701
    },
    {
      "type": "way",
      "id": 99002052,
      "center": {
        "lat": 44.0635022,
        "lon": -122.9290884
      },
      "tags": {
        "name": "Thurston Substation",
        "operator": "Eugene Water & Electric Board",
        "operator:short": "EWEB",
        "operator:wikidata": "Q5407841",
        "operator:wikipedia": "en:Eugene Water & Electric Board",
        "power": "substation",
        "source": "bing",
        "substation": "distribution",
        "voltage": "115000"
      },
      "lat": 44.0635022,
      "lon": -122.9290884
    },
    {
      "type": "way",
      "id": 99446830,
      "center": {
        "lat": 44.9301198,
        "lon": -122.9490885
      },
      "tags": {
        "barrier": "fence",
        "name": "Bethel Substation",
        "operator": "Portland General Electric",
        "operator:short": "PGE",
        "operator:wikidata": "Q7231939",
        "operator:wikipedia": "en:Portland General Electric",
        "power": "substation",
        "source": "bing"
      },
      "lat": 44.9301198,
      "lon": -122.9490885
    },
    {
      "type": "way",
      "id": 99446837,
      "center": {
        "lat": 44.725562,
        "lon": -122.1879867
      },
      "tags": {
        "power": "substation"
      },
      "lat": 44.725562,
      "lon": -122.1879867
    },
    {
      "type": "way",
      "id": 99446842,
      "center": {
        "lat": 44.6014322,
        "lon": -121.2684101
      },
      "tags": {
        "name": "Round Butte Substation",
        "operator": "Portland General Electric",
        "operator:short": "PGE",
        "operator:wikidata": "Q7231939",
        "power": "substation",
        "source": "bing",
        "voltage": "500000;230000"
      },
      "lat": 44.6014322,
      "lon": -121.2684101
    },
    {
      "type": "way",
      "id": 99446847,
      "center": {
        "lat": 44.7248098,
        "lon": -122.2538417
      },
      "tags": {
        "power": "substation",
        "source": "bing",
        "voltage": "230000"
      },
      "lat": 44.7248098,
      "lon": -122.2538417
    },
    {
      "type": "way",
      "id": 99449563,
      "center": {
        "lat": 44.5907614,
        "lon": -123.4285536
      },
      "tags": {
        "power": "substation",
        "source": "bing"
      },
      "lat": 44.5907614,
      "lon": -123.4285536
    },
    {
      "type": "way",
      "id": 99449566,
      "center": {
        "lat": 44.6213204,
        "lon": -123.9231917
      },
      "tags": {
        "addr:city": "Toledo",
        "addr:housenumber": "160",
        "addr:postcode": "97391",
        "addr:state": "OR",
        "addr:street": "Northeast Sturdevant Road",
        "name": "Toledo Substation",
        "operator": "Bonneville Power Administration",
        "operator:short": "BPA",
        "operator:wikidata": "Q2910288",
        "power": "substation",
        "source": "bing",
        "substation": "distribution",
        "voltage": "230000"
      },
      "lat": 44.6213204,
      "lon": -123.9231917
    },
    {
      "type": "way",
      "id": 99449568,
      "center": {
        "lat": 44.6057651,
        "lon": -123.6100704
      },
      "tags": {
        "addr:city": "Blodgett",
        "addr:housenumber": "4083",
        "addr:postcode": "97326",
        "addr:state": "OR",
        "addr:street": "Clem Road",
        "fenced": "yes",
        "power": "substation"
      },
      "lat": 44.6057651,
      "lon": -123.6100704
    },
    {
      "type": "way",
      "id": 99450146,
      "center": {
        "lat": 44.6211527,
        "lon": -123.1271288
      },
      "tags": {
        "name": "Albany Substation",
        "operator": "Bonneville Power Administration",
        "operator:short": "BPA",
        "operator:wikidata": "Q2910288",
        "power": "substation",
        "source": "bing",
        "substation": "distribution",
        "voltage": "230000;115000"
      },
      "lat": 44.6211527,
      "lon": -123.1271288
    },
    {
      "type": "way",
      "id": 99450148,
      "center": {
        "lat": 44.6226366,
        "lon": -123.1253489
      },
      "tags": {
        "name": "Hazelwood Substation",
        "operator": "PacifiCorp",
        "operator:wikidata": "Q2045479",
        "power": "substation",
        "source": "bing",
        "substation": "minor_distribution",
        "voltage": "115000"
      },
      "lat": 44.6226366,
      "lon": -123.1253489
    },
    {
      "type": "way",
      "id": 99618924,
      "center": {
        "lat": 45.6746631,
        "lon": -120.3105976
      },
      "tags": {
        "power": "substation",
        "source": "usgs",
        "voltage": "230000"
      },
      "lat": 45.6746631,
      "lon": -120.3105976
    },
    {
      "type": "way",
      "id": 99624752,
      "center": {
        "lat": 45.5847464,
        "lon": -120.6017874
      },
      "tags": {
        "power": "substation",
        "source": "usgs",
        "voltage": "230000"
      },
      "lat": 45.5847464,
      "lon": -120.6017874
    },
    {
      "type": "way",
      "id": 99908296,
      "center": {
        "lat": 44.2915596,
        "lon": -121.5029421
      },
      "tags": {
        "operator": "Central Electric Co-operative",
        "power": "substation"
      },
      "lat": 44.2915596,
      "lon": -121.5029421
    },
    {
      "type": "way",
      "id": 100586555,
      "center": {
        "lat": 44.0074086,
        "lon": -124.0106986
      },
      "tags": {
        "barrier": "fence",
        "name": "Wendson Substation",
        "operator": "Bonneville Power Administration",
        "operator:short": "BPA",
        "operator:wikidata": "Q2910288",
        "operator:wikipedia": "en:Bonneville Power Administration",
        "power": "substation",
        "source": "bing",
        "substation": "distribution",
        "voltage": "230000"
      },
      "lat": 44.0074086,
      "lon": -124.0106986
    },
    {
      "type": "way",
      "id": 101108285,
      "center": {
        "lat": 45.0670014,
        "lon": -117.8636077
      },
      "tags": {
        "barrier": "fence",
        "power": "substation",
        "source": "usgs",
        "substation": "transmission",
        "voltage": "230000"
      },
      "lat": 45.0670014,
      "lon": -117.8636077
    },
    {
      "type": "way",
      "id": 101121557,
      "center": {
        "lat": 44.9704473,
        "lon": -116.8502838
      },
      "tags": {
        "name": "Oxbow Substation",
        "operator": "Idaho Power",
        "operator:wikidata": "Q3147780",
        "power": "substation",
        "source": "bing",
        "substation": "transmission",
        "voltage": "230000"
      },
      "lat": 44.9704473,
      "lon": -116.8502838
    },
    {
      "type": "way",
      "id": 101121560,
      "center": {
        "lat": 44.9859003,
        "lon": -116.8587974
      },
      "tags": {
        "barrier": "fence",
        "power": "substation",
        "source": "bing",
        "substation": "compensation",
        "voltage": "230000"
      },
      "lat": 44.9859003,
      "lon": -116.8587974
    },
    {
      "type": "way",
      "id": 101254091,
      "center": {
        "lat": 45.8064581,
        "lon": -119.2640409
      },
      "tags": {
        "barrier": "wall",
        "location": "outdoor",
        "power": "substation",
        "source": "bing",
        "substation": "distribution"
      },
      "lat": 45.8064581,
      "lon": -119.2640409
    },
    {
      "type": "way",
      "id": 101278680,
      "center": {
        "lat": 42.173899,
        "lon": -121.8135219
      },
      "tags": {
        "name": "Klamath Substation",
        "operator": "PacifiCorp",
        "operator:wikidata": "Q2045479",
        "power": "substation",
        "source": "bing",
        "substation": "transmission",
        "voltage": "500000"
      },
      "lat": 42.173899,
      "lon": -121.8135219
    },
    {
      "type": "way",
      "id": 101278685,
      "center": {
        "lat": 42.364164,
        "lon": -122.7541026
      },
      "tags": {
        "barrier": "fence",
        "name": "Meridian Substation",
        "operator": "PacifiCorp",
        "operator:wikidata": "Q2045479",
        "operator:wikipedia": "en:PacifiCorp",
        "power": "substation",
        "source": "bing",
        "substation": "distribution",
        "voltage": "500000;230000"
      },
      "lat": 42.364164,
      "lon": -122.7541026
    },
    {
      "type": "way",
      "id": 101289581,
      "center": {
        "lat": 46.1734769,
        "lon": -123.1730415
      },
      "tags": {
        "power": "substation",
        "source": "bing",
        "voltage": "230000"
      },
      "lat": 46.1734769,
      "lon": -123.1730415
    },
    {
      "type": "way",
      "id": 101458605,
      "center": {
        "lat": 43.2061466,
        "lon": -123.2384119
      },
      "tags": {
        "barrier": "fence",
        "name": "Dixonville Substation",
        "operator": "PacifiCorp",
        "operator:wikidata": "Q2045479",
        "operator:wikipedia": "en:PacifiCorp",
        "power": "substation",
        "source": "bing",
        "voltage": "230000"
      },
      "lat": 43.2061466,
      "lon": -123.2384119
    },
    {
      "type": "way",
      "id": 101458606,
      "center": {
        "lat": 43.2180089,
        "lon": -123.2249879
      },
      "tags": {
        "barrier": "fence",
        "name": "Dixonville Substation",
        "operator": "PacifiCorp",
        "operator:wikidata": "Q2045479",
        "operator:wikipedia": "en:PacifiCorp",
        "power": "substation",
        "source": "bing",
        "voltage": "500000;230000"
      },
      "lat": 43.2180089,
      "lon": -123.2249879
    },
    {
      "type": "way",
      "id": 101941546,
      "center": {
        "lat": 45.6369633,
        "lon": -122.6656867
      },
      "tags": {
        "name": "20th and 'F' Substation",
        "operator": "Clark Public Utilities",
        "operator:wikidata": "Q20712245",
        "operator:wikipedia": "en:Clark Public Utilities",
        "power": "substation",
        "source": "bing",
        "voltage": "115000"
      },
      "lat": 45.6369633,
      "lon": -122.6656867
    },
    {
      "type": "way",
      "id": 102151058,
      "center": {
        "lat": 45.5179581,
        "lon": -120.5780499
      },
      "tags": {
        "barrier": "fence",
        "power": "substation",
        "source": "usgs",
        "voltage": "230000"
      },
      "lat": 45.5179581,
      "lon": -120.5780499
    },
    {
      "type": "way",
      "id": 102151061,
      "center": {
        "lat": 45.5911342,
        "lon": -120.612881
      },
      "tags": {
        "power": "substation",
        "source": "usgs",
        "voltage": "69000"
      },
      "lat": 45.5911342,
      "lon": -120.612881
    },
    {
      "type": "way",
      "id": 102151065,
      "center": {
        "lat": 45.6758223,
        "lon": -120.7357023
      },
      "tags": {
        "name": "John Day Substation",
        "operator": "Bonneville Power Administration",
        "operator:short": "BPA",
        "operator:wikidata": "Q2910288",
        "operator:wikipedia": "en:Bonneville Power Administration",
        "power": "substation",
        "source": "usgs",
        "voltage": "230000"
      },
      "lat": 45.6758223,
      "lon": -120.7357023
    },
    {
      "type": "way",
      "id": 102151068,
      "center": {
        "lat": 45.6487719,
        "lon": -120.6115714
      },
      "tags": {
        "power": "substation",
        "source": "usgs",
        "voltage": "230000"
      },
      "lat": 45.6487719,
      "lon": -120.6115714
    },
    {
      "type": "way",
      "id": 102537762,
      "center": {
        "lat": 44.9314611,
        "lon": -123.0889091
      },
      "tags": {
        "power": "substation",
        "source": "bing"
      },
      "lat": 44.9314611,
      "lon": -123.0889091
    },
    {
      "type": "way",
      "id": 102896874,
      "center": {
        "lat": 44.2759999,
        "lon": -121.2921652
      },
      "tags": {
        "power": "substation"
      },
      "lat": 44.2759999,
      "lon": -121.2921652
    },
    {
      "type": "way",
      "id": 103038480,
      "center": {
        "lat": 45.6746922,
        "lon": -120.2156073
      },
      "tags": {
        "name": "Jones Canyon Substation",
        "power": "substation",
        "source": "usgs",
        "voltage": "230000"
      },
      "lat": 45.6746922,
      "lon": -120.2156073
    },
    {
      "type": "way",
      "id": 103038482,
      "center": {
        "lat": 45.6747867,
        "lon": -120.2144205
      },
      "tags": {
        "power": "substation",
        "source": "usgs",
        "voltage": "230000"
      },
      "lat": 45.6747867,
      "lon": -120.2144205
    },
    {
      "type": "way",
      "id": 103038485,
      "center": {
        "lat": 45.6751217,
        "lon": -120.2137029
      },
      "tags": {
        "power": "substation",
        "source": "usgs",
        "voltage": "230000"
      },
      "lat": 45.6751217,
      "lon": -120.2137029
    },
    {
      "type": "way",
      "id": 103038488,
      "center": {
        "lat": 45.6737267,
        "lon": -120.2162829
      },
      "tags": {
        "power": "substation",
        "source": "usgs",
        "voltage": "230000"
      },
      "lat": 45.6737267,
      "lon": -120.2162829
    },
    {
      "type": "way",
      "id": 103095379,
      "center": {
        "lat": 45.6380463,
        "lon": -118.7468672
      },
      "tags": {
        "barrier": "fence",
        "name": "Roundup Substation",
        "power": "substation",
        "voltage": "230000"
      },
      "lat": 45.6380463,
      "lon": -118.7468672
    },
    {
      "type": "way",
      "id": 103121717,
      "center": {
        "lat": 45.312349,
        "lon": -118.0717962
      },
      "tags": {
        "barrier": "fence",
        "name": "La Grande Substation",
        "power": "substation",
        "voltage": "230000"
      },
      "lat": 45.312349,
      "lon": -118.0717962
    },
    {
      "type": "way",
      "id": 111203613,
      "center": {
        "lat": 44.0621324,
        "lon": -121.343818
      },
      "tags": {
        "power": "substation",
        "source": "NAIP"
      },
      "lat": 44.0621324,
      "lon": -121.343818
    },
    {
      "type": "way",
      "id": 111294361,
      "center": {
        "lat": 45.4925853,
        "lon": -122.891082
      },
      "tags": {
        "name": "Reedville Substation",
        "operator": "Portland General Electric",
        "operator:short": "PGE",
        "operator:wikidata": "Q7231939",
        "operator:wikipedia": "en:Portland General Electric",
        "power": "substation",
        "substation": "minor_distribution"
      },
      "lat": 45.4925853,
      "lon": -122.891082
    },
    {
      "type": "way",
      "id": 111784022,
      "center": {
        "lat": 44.8978643,
        "lon": -123.0534626
      },
      "tags": {
        "power": "substation",
        "source": "Bing!"
      },
      "lat": 44.8978643,
      "lon": -123.0534626
    },
    {
      "type": "way",
      "id": 112976143,
      "center": {
        "lat": 44.5681578,
        "lon": -123.2573548
      },
      "tags": {
        "addr:city": "Corvallis",
        "addr:state": "OR",
        "name": "Dixon Substation",
        "operator": "Pacific Power",
        "operator:wikidata": "Q2045479",
        "power": "substation",
        "substation": "distribution"
      },
      "lat": 44.5681578,
      "lon": -123.2573548
    },
    {
      "type": "way",
      "id": 113927813,
      "center": {
        "lat": 45.0068486,
        "lon": -122.7896269
      },
      "tags": {
        "power": "substation"
      },
      "lat": 45.0068486,
      "lon": -122.7896269
    },
    {
      "type": "way",
      "id": 115698248,
      "center": {
        "lat": 44.0260309,
        "lon": -123.0811845
      },
      "tags": {
        "name": "Hilyard Substation",
        "operator": "Eugene Water & Electric Board",
        "operator:short": "EWEB",
        "operator:wikidata": "Q5407841",
        "operator:wikipedia": "en:Eugene Water & Electric Board",
        "power": "substation",
        "substation": "distribution",
        "voltage": "115000"
      },
      "lat": 44.0260309,
      "lon": -123.0811845
    },
    {
      "type": "way",
      "id": 116057536,
      "center": {
        "lat": 44.0435638,
        "lon": -123.1024824
      },
      "tags": {
        "name": "Jefferson Substation",
        "operator": "Eugene Water & Electric Board",
        "operator:short": "EWEB",
        "operator:wikidata": "Q5407841",
        "operator:wikipedia": "en:Eugene Water & Electric Board",
        "power": "substation",
        "substation": "distribution",
        "voltage": "115000"
      },
      "lat": 44.0435638,
      "lon": -123.1024824
    },
    {
      "type": "way",
      "id": 116419650,
      "center": {
        "lat": 44.0411248,
        "lon": -123.1654492
      },
      "tags": {
        "name": "Willow Creek Substation",
        "operator": "Eugene Water & Electric Board",
        "operator:short": "EWEB",
        "operator:wikidata": "Q5407841",
        "operator:wikipedia": "en:Eugene Water & Electric Board",
        "power": "substation",
        "substation": "distribution",
        "voltage": "115000"
      },
      "lat": 44.0411248,
      "lon": -123.1654492
    },
    {
      "type": "way",
      "id": 117169170,
      "center": {
        "lat": 45.4765386,
        "lon": -122.5579827
      },
      "tags": {
        "barrier": "fence",
        "name": "Lents Substation",
        "operator": "Portland General Electric",
        "operator:short": "PGE",
        "operator:wikidata": "Q7231939",
        "operator:wikipedia": "en:Portland General Electric",
        "power": "substation",
        "substation": "transmission",
        "voltage": "57000;13000"
      },
      "lat": 45.4765386,
      "lon": -122.5579827
    },
    {
      "type": "way",
      "id": 117600640,
      "center": {
        "lat": 45.6883404,
        "lon": -121.5246929
      },
      "tags": {
        "barrier": "fence",
        "name": "Hood River Substation",
        "operator": "Bonneville Power Administration",
        "operator:short": "BPA",
        "operator:wikidata": "Q2910288",
        "operator:wikipedia": "en:Bonneville Power Administration",
        "power": "substation",
        "voltage": "115000;69000"
      },
      "lat": 45.6883404,
      "lon": -121.5246929
    },
    {
      "type": "way",
      "id": 118117211,
      "center": {
        "lat": 45.5699716,
        "lon": -122.8979915
      },
      "tags": {
        "barrier": "fence",
        "name": "West Union Substation",
        "operator": "Portland General Electric",
        "operator:short": "PGE",
        "operator:wikidata": "Q7231939",
        "operator:wikipedia": "en:Portland General Electric",
        "power": "substation",
        "substation": "distribution"
      },
      "lat": 45.5699716,
      "lon": -122.8979915
    },
    {
      "type": "way",
      "id": 118251108,
      "center": {
        "lat": 45.9007014,
        "lon": -123.8662931
      },
      "tags": {
        "power": "substation",
        "voltage": "115000"
      },
      "lat": 45.9007014,
      "lon": -123.8662931
    },
    {
      "type": "way",
      "id": 118255262,
      "center": {
        "lat": 45.5329013,
        "lon": -122.5293165
      },
      "tags": {
        "barrier": "fence",
        "name": "Glendoveer Substation",
        "operator": "Portland General Electric",
        "operator:wikidata": "Q7231939",
        "operator:wikipedia": "en:Portland General Electric",
        "power": "substation",
        "substation": "minor_distribution"
      },
      "lat": 45.5329013,
      "lon": -122.5293165
    },
    {
      "type": "way",
      "id": 118255264,
      "center": {
        "lat": 45.4820638,
        "lon": -122.5314888
      },
      "tags": {
        "barrier": "fence",
        "name": "Ramapo Substation",
        "operator": "Portland General Electric",
        "operator:wikidata": "Q7231939",
        "operator:wikipedia": "en:Portland General Electric",
        "power": "substation",
        "substation": "minor_distribution"
      },
      "lat": 45.4820638,
      "lon": -122.5314888
    },
    {
      "type": "way",
      "id": 118771233,
      "center": {
        "lat": 45.482613,
        "lon": -122.8530284
      },
      "tags": {
        "name": "Huber Substation",
        "operator": "Portland General Electric",
        "operator:short": "PGE",
        "operator:wikidata": "Q7231939",
        "operator:wikipedia": "en:Portland General Electric",
        "power": "substation",
        "substation": "minor_distribution"
      },
      "lat": 45.482613,
      "lon": -122.8530284
    },
    {
      "type": "way",
      "id": 118881452,
      "center": {
        "lat": 45.3710441,
        "lon": -122.7861052
      },
      "tags": {
        "barrier": "fence",
        "name": "Tualatin Substation",
        "operator": "Portland General Electric",
        "operator:short": "PGE",
        "operator:wikidata": "Q7231939",
        "operator:wikipedia": "en:Portland General Electric",
        "power": "substation",
        "substation": "distribution",
        "voltage": "115000;13000"
      },
      "lat": 45.3710441,
      "lon": -122.7861052
    },
    {
      "type": "way",
      "id": 119971355,
      "center": {
        "lat": 45.5354285,
        "lon": -122.4777793
      },
      "tags": {
        "barrier": "fence",
        "name": "Rockwood Substation",
        "operator": "Portland General Electric",
        "operator:wikidata": "Q7231939",
        "operator:wikipedia": "en:Portland General Electric",
        "power": "substation",
        "substation": "minor_distribution"
      },
      "lat": 45.5354285,
      "lon": -122.4777793
    },
    {
      "type": "way",
      "id": 121003923,
      "center": {
        "lat": 45.5630927,
        "lon": -122.5989309
      },
      "tags": {
        "barrier": "fence",
        "name": "Killingsworth Substation",
        "operator": "PacifiCorp",
        "operator:wikidata": "Q2045479",
        "operator:wikipedia": "en:PacifiCorp",
        "power": "substation",
        "substation": "minor_distribution"
      },
      "lat": 45.5630927,
      "lon": -122.5989309
    },
    {
      "type": "way",
      "id": 121378134,
      "center": {
        "lat": 42.2346102,
        "lon": -121.5803729
      },
      "tags": {
        "barrier": "fence",
        "fence_type": "chain_link",
        "power": "substation"
      },
      "lat": 42.2346102,
      "lon": -121.5803729
    },
    {
      "type": "way",
      "id": 122606975,
      "center": {
        "lat": 44.0623988,
        "lon": -121.3128396
      },
      "tags": {
        "power": "substation"
      },
      "lat": 44.0623988,
      "lon": -121.3128396
    },
    {
      "type": "way",
      "id": 128370036,
      "center": {
        "lat": 44.3882023,
        "lon": -123.0097227
      },
      "tags": {
        "barrier": "fence",
        "name": "Calapooya Substation",
        "operator": "Pacific Power",
        "operator:wikidata": "Q2045479",
        "power": "substation",
        "substation": "distribution",
        "voltage": "230000"
      },
      "lat": 44.3882023,
      "lon": -123.0097227
    },
    {
      "type": "way",
      "id": 128587677,
      "center": {
        "lat": 45.1931576,
        "lon": -123.1918228
      },
      "tags": {
        "barrier": "fence",
        "name": "Booth Bend Road Substation",
        "operator": "McMinnville Water & Light",
        "power": "substation",
        "substation": "minor_distribution",
        "voltage": "115000"
      },
      "lat": 45.1931576,
      "lon": -123.1918228
    },
    {
      "type": "way",
      "id": 128588927,
      "center": {
        "lat": 45.2094916,
        "lon": -123.2230382
      },
      "tags": {
        "barrier": "fence",
        "name": "Walnut City Substation",
        "operator": "McMinnville Water & Light",
        "power": "substation",
        "voltage": "115000"
      },
      "lat": 45.2094916,
      "lon": -123.2230382
    },
    {
      "type": "way",
      "id": 132500312,
      "center": {
        "lat": 45.4668795,
        "lon": -122.7483916
      },
      "tags": {
        "barrier": "fence",
        "name": "Garden Home Substation",
        "operator": "Portland General Electric",
        "operator:short": "PGE",
        "operator:wikidata": "Q7231939",
        "operator:wikipedia": "en:Portland General Electric",
        "power": "substation",
        "substation": "distribution",
        "voltage": "115000;13000"
      },
      "lat": 45.4668795,
      "lon": -122.7483916
    },
    {
      "type": "way",
      "id": 133945827,
      "center": {
        "lat": 45.6353646,
        "lon": -121.9454582
      },
      "tags": {
        "barrier": "fence",
        "name": "Acton Substation",
        "operator": "Bonneville Power Administration",
        "operator:short": "BPA",
        "operator:wikidata": "Q2910288",
        "power": "substation"
      },
      "lat": 45.6353646,
      "lon": -121.9454582
    },
    {
      "type": "way",
      "id": 134333469,
      "center": {
        "lat": 45.3446729,
        "lon": -121.9537519
      },
      "tags": {
        "barrier": "fence",
        "name": "Welches Substation",
        "operator": "Portland General Electric",
        "operator:short": "PGE",
        "operator:wikidata": "Q7231939",
        "power": "substation",
        "substation": "minor_distribution"
      },
      "lat": 45.3446729,
      "lon": -121.9537519
    },
    {
      "type": "way",
      "id": 134340625,
      "center": {
        "lat": 45.6992781,
        "lon": -121.5217462
      },
      "tags": {
        "barrier": "fence",
        "name": "Hood River Substation",
        "operator": "Pacific Power",
        "operator:wikidata": "Q2045479",
        "power": "substation",
        "voltage": "69000"
      },
      "lat": 45.6992781,
      "lon": -121.5217462
    },
    {
      "type": "way",
      "id": 135841064,
      "center": {
        "lat": 44.8536239,
        "lon": -121.1849592
      },
      "tags": {
        "power": "substation"
      },
      "lat": 44.8536239,
      "lon": -121.1849592
    },
    {
      "type": "way",
      "id": 136371891,
      "center": {
        "lat": 44.5622025,
        "lon": -123.2793472
      },
      "tags": {
        "barrier": "fence",
        "name": "Coliseum Substation",
        "operator": "Pacific Power",
        "operator:wikidata": "Q2045479",
        "power": "substation",
        "substation": "distribution"
      },
      "lat": 44.5622025,
      "lon": -123.2793472
    },
    {
      "type": "way",
      "id": 136695826,
      "center": {
        "lat": 44.2541806,
        "lon": -121.2706675
      },
      "tags": {
        "power": "substation"
      },
      "lat": 44.2541806,
      "lon": -121.2706675
    },
    {
      "type": "way",
      "id": 136962464,
      "center": {
        "lat": 44.1667116,
        "lon": -121.249335
      },
      "tags": {
        "power": "substation"
      },
      "lat": 44.1667116,
      "lon": -121.249335
    },
    {
      "type": "way",
      "id": 137280164,
      "center": {
        "lat": 44.3198043,
        "lon": -121.2197411
      },
      "tags": {
        "operator": "PacifiCorp",
        "power": "substation",
        "voltage": "115000"
      },
      "lat": 44.3198043,
      "lon": -121.2197411
    },
    {
      "type": "way",
      "id": 137779973,
      "center": {
        "lat": 44.3170185,
        "lon": -121.5938761
      },
      "tags": {
        "power": "substation"
      },
      "lat": 44.3170185,
      "lon": -121.5938761
    },
    {
      "type": "way",
      "id": 140483400,
      "center": {
        "lat": 44.6651053,
        "lon": -121.1291063
      },
      "tags": {
        "power": "substation"
      },
      "lat": 44.6651053,
      "lon": -121.1291063
    },
    {
      "type": "way",
      "id": 142569210,
      "center": {
        "lat": 45.502689,
        "lon": -122.8365746
      },
      "tags": {
        "barrier": "fence",
        "name": "Saint Mary's East Substation",
        "operator": "Portland General Electric",
        "operator:short": "PGE",
        "operator:wikidata": "Q7231939",
        "operator:wikipedia": "en:Portland General Electric",
        "power": "substation",
        "substation": "minor_distribution"
      },
      "lat": 45.502689,
      "lon": -122.8365746
    },
    {
      "type": "way",
      "id": 143926750,
      "center": {
        "lat": 45.2044868,
        "lon": -123.1040418
      },
      "tags": {
        "name": "Dayton Substation",
        "operator": "Portland General Electric",
        "operator:short": "PGE",
        "operator:wikidata": "Q7231939",
        "power": "substation",
        "source": "Bing!",
        "substation": "minor_distribution",
        "voltage": "57000;115000"
      },
      "lat": 45.2044868,
      "lon": -123.1040418
    },
    {
      "type": "way",
      "id": 145081797,
      "center": {
        "lat": 45.3910794,
        "lon": -122.6887629
      },
      "tags": {
        "barrier": "fence",
        "name": "Rosemont Substation",
        "operator": "Portland General Electric",
        "operator:short": "PGE",
        "operator:wikidata": "Q7231939",
        "operator:wikipedia": "en:Portland General Electric",
        "power": "substation",
        "substation": "distribution",
        "voltage": "115000;13000"
      },
      "lat": 45.3910794,
      "lon": -122.6887629
    },
    {
      "type": "way",
      "id": 145225060,
      "center": {
        "lat": 45.2916497,
        "lon": -122.947625
      },
      "tags": {
        "barrier": "fence",
        "name": "Springbrook Substation",
        "operator": "Portland General Electric",
        "operator:short": "PGE",
        "operator:wikidata": "Q7231939",
        "operator:wikipedia": "en:Portland General Electric",
        "power": "substation",
        "substation": "minor_distribution"
      },
      "lat": 45.2916497,
      "lon": -122.947625
    },
    {
      "type": "way",
      "id": 148379840,
      "center": {
        "lat": 45.4457306,
        "lon": -121.1279823
      },
      "tags": {
        "barrier": "fence",
        "location": "outdoor",
        "power": "substation",
        "source": "Bing",
        "substation": "distribution",
        "voltage": "69000"
      },
      "lat": 45.4457306,
      "lon": -121.1279823
    },
    {
      "type": "way",
      "id": 149092031,
      "center": {
        "lat": 45.2695914,
        "lon": -122.3188894
      },
      "tags": {
        "barrier": "fence",
        "name": "Faraday Plant Substation",
        "operator": "Portland General Electric",
        "operator:short": "PGE",
        "operator:wikidata": "Q7231939",
        "power": "substation",
        "substation": "transmission",
        "voltage": "115000"
      },
      "lat": 45.2695914,
      "lon": -122.3188894
    },
    {
      "type": "way",
      "id": 150437179,
      "center": {
        "lat": 45.1092849,
        "lon": -122.7879793
      },
      "tags": {
        "barrier": "fence",
        "power": "substation",
        "source": "Bing!"
      },
      "lat": 45.1092849,
      "lon": -122.7879793
    },
    {
      "type": "way",
      "id": 153739231,
      "center": {
        "lat": 44.0398192,
        "lon": -123.1298484
      },
      "tags": {
        "name": "Westmoreland Substation",
        "operator": "Eugene Water & Electric Board",
        "operator:short": "EWEB",
        "operator:wikidata": "Q5407841",
        "operator:wikipedia": "en:Eugene Water & Electric Board",
        "power": "substation",
        "source": "Bing",
        "substation": "distribution",
        "voltage": "115000"
      },
      "lat": 44.0398192,
      "lon": -123.1298484
    },
    {
      "type": "way",
      "id": 153739558,
      "center": {
        "lat": 44.7321984,
        "lon": -123.0096663
      },
      "tags": {
        "power": "substation"
      },
      "lat": 44.7321984,
      "lon": -123.0096663
    },
    {
      "type": "way",
      "id": 159123135,
      "center": {
        "lat": 45.4373947,
        "lon": -117.284843
      },
      "tags": {
        "name": "Hurricane Substation",
        "operator": "PacifiCorp",
        "operator:wikidata": "Q2045479",
        "power": "substation",
        "voltage": "230000;69000"
      },
      "lat": 45.4373947,
      "lon": -117.284843
    },
    {
      "type": "way",
      "id": 160054182,
      "center": {
        "lat": 45.7050224,
        "lon": -119.4141841
      },
      "tags": {
        "power": "substation",
        "source": "bing"
      },
      "lat": 45.7050224,
      "lon": -119.4141841
    },
    {
      "type": "way",
      "id": 160065686,
      "center": {
        "lat": 45.675368,
        "lon": -120.2128251
      },
      "tags": {
        "power": "substation",
        "source": "bing",
        "voltage": "230000"
      },
      "lat": 45.675368,
      "lon": -120.2128251
    },
    {
      "type": "way",
      "id": 161344062,
      "center": {
        "lat": 45.5152537,
        "lon": -120.6863446
      },
      "tags": {
        "name": "De Moss Substation",
        "operator": "Bonneville Power Administration",
        "operator:short": "BPA",
        "operator:wikidata": "Q2910288",
        "power": "substation",
        "source": "bing",
        "substation": "transmission",
        "voltage": "115000"
      },
      "lat": 45.5152537,
      "lon": -120.6863446
    },
    {
      "type": "way",
      "id": 161344069,
      "center": {
        "lat": 45.5197208,
        "lon": -120.5106767
      },
      "tags": {
        "power": "substation",
        "source": "bing",
        "voltage": "230000"
      },
      "lat": 45.5197208,
      "lon": -120.5106767
    },
    {
      "type": "way",
      "id": 161728025,
      "center": {
        "lat": 45.2434573,
        "lon": -120.1840935
      },
      "tags": {
        "power": "substation",
        "voltage": "115000"
      },
      "lat": 45.2434573,
      "lon": -120.1840935
    },
    {
      "type": "way",
      "id": 161729440,
      "center": {
        "lat": 44.1442779,
        "lon": -121.052789
      },
      "tags": {
        "barrier": "fence",
        "operator": "Central Oregon Electric",
        "power": "substation",
        "substation": "distribution"
      },
      "lat": 44.1442779,
      "lon": -121.052789
    },
    {
      "type": "way",
      "id": 161840583,
      "center": {
        "lat": 44.0781353,
        "lon": -121.0277885
      },
      "tags": {
        "power": "substation"
      },
      "lat": 44.0781353,
      "lon": -121.0277885
    },
    {
      "type": "way",
      "id": 162046467,
      "center": {
        "lat": 45.3759132,
        "lon": -122.741294
      },
      "tags": {
        "barrier": "fence",
        "name": "Meridian Substation",
        "operator": "Portland General Electric",
        "operator:short": "PGE",
        "operator:wikidata": "Q7231939",
        "operator:wikipedia": "en:Portland General Electric",
        "power": "substation",
        "substation": "distribution",
        "voltage": "115000;13000"
      },
      "lat": 45.3759132,
      "lon": -122.741294
    },
    {
      "type": "way",
      "id": 164026155,
      "center": {
        "lat": 44.2970379,
        "lon": -120.8854807
      },
      "tags": {
        "barrier": "fence",
        "power": "substation",
        "substation": "industrial",
        "voltage": "115000"
      },
      "lat": 44.2970379,
      "lon": -120.8854807
    },
    {
      "type": "way",
      "id": 164026156,
      "center": {
        "lat": 44.2976202,
        "lon": -120.8856685
      },
      "tags": {
        "barrier": "fence",
        "power": "substation",
        "substation": "transmission",
        "voltage": "115000"
      },
      "lat": 44.2976202,
      "lon": -120.8856685
    },
    {
      "type": "way",
      "id": 167377989,
      "center": {
        "lat": 44.8400361,
        "lon": -116.8965103
      },
      "tags": {
        "name": "Brownlee Substation",
        "operator": "Idaho Power",
        "operator:wikidata": "Q3147780",
        "power": "substation",
        "voltage": "230000"
      },
      "lat": 44.8400361,
      "lon": -116.8965103
    },
    {
      "type": "way",
      "id": 167411093,
      "center": {
        "lat": 45.3104415,
        "lon": -118.0714508
      },
      "tags": {
        "power": "substation",
        "voltage": "230000"
      },
      "lat": 45.3104415,
      "lon": -118.0714508
    },
    {
      "type": "way",
      "id": 167542898,
      "center": {
        "lat": 43.6682785,
        "lon": -121.5162248
      },
      "tags": {
        "barrier": "fence",
        "fixme": "name",
        "power": "substation",
        "substation": "distribution"
      },
      "lat": 43.6682785,
      "lon": -121.5162248
    },
    {
      "type": "way",
      "id": 167703686,
      "center": {
        "lat": 45.0655053,
        "lon": -122.7983459
      },
      "tags": {
        "power": "substation"
      },
      "lat": 45.0655053,
      "lon": -122.7983459
    },
    {
      "type": "way",
      "id": 167703840,
      "center": {
        "lat": 45.1365798,
        "lon": -122.8387765
      },
      "tags": {
        "name": "Woodburn Substation",
        "power": "substation"
      },
      "lat": 45.1365798,
      "lon": -122.8387765
    },
    {
      "type": "way",
      "id": 168003305,
      "center": {
        "lat": 42.1985467,
        "lon": -121.7838313
      },
      "tags": {
        "barrier": "fence",
        "name": "Klamath Falls Substation",
        "operator": "PacifiCorp",
        "operator:wikidata": "Q2045479",
        "power": "substation",
        "substation": "transmission"
      },
      "lat": 42.1985467,
      "lon": -121.7838313
    },
    {
      "type": "way",
      "id": 168640490,
      "center": {
        "lat": 44.7174159,
        "lon": -117.7755726
      },
      "tags": {
        "barrier": "fence",
        "name": "Quartz Substation",
        "operator": "Idaho Power",
        "power": "substation",
        "substation": "transmission",
        "voltage": "230000;138000"
      },
      "lat": 44.7174159,
      "lon": -117.7755726
    },
    {
      "type": "way",
      "id": 168646522,
      "center": {
        "lat": 44.0526303,
        "lon": -116.9779717
      },
      "tags": {
        "name": "Ontario Substation",
        "operator": "Idaho Power",
        "power": "substation",
        "voltage": "230000;138000;69000"
      },
      "lat": 44.0526303,
      "lon": -116.9779717
    },
    {
      "type": "way",
      "id": 168814285,
      "center": {
        "lat": 45.6239232,
        "lon": -121.5347752
      },