{
  "version": 0.6,
  "generator": "Overpass API 0.7.62.11 87bfad18",
  "osm3s": {
    "timestamp_osm_base": "2026-04-24T18:15:17Z",
    "timestamp_areas_base": "2026-04-24T09:42:59Z",
    "copyright": "The data included in this document is from www.openstreetmap.org. The data is made available under ODbL."
  },
  "elements": [
    {
      "type": "way",
      "id": 19352523,
      "center": {
        "lat": 41.7644288,
        "lon": -71.4291154
      },
      "tags": {
        "barrier": "fence",
        "location": "outdoor",
        "name": "Auburn Substation",
        "operator": "Rhode Island Energy",
        "operator:wikidata": "Q130232431",
        "power": "substation",
        "ref": "73",
        "substation": "minor_distribution",
        "tiger:cfcc": "C20",
        "tiger:reviewed": "no",
        "voltage": "23000;4160"
      },
      "lat": 41.7644288,
      "lon": -71.4291154
    },
    {
      "type": "way",
      "id": 19352602,
      "center": {
        "lat": 41.97954,
        "lon": -71.5228857
      },
      "tags": {
        "access": "no",
        "barrier": "fence",
        "frequency": "60",
        "location": "outdoor",
        "name": "Woonsocket Substation",
        "operator": "Rhode Island Energy",
        "operator:wikidata": "Q130232431",
        "power": "substation",
        "ref": "26",
        "substation": "distribution",
        "voltage": "115000;13800"
      },
      "lat": 41.97954,
      "lon": -71.5228857
    },
    {
      "type": "way",
      "id": 83918804,
      "center": {
        "lat": 41.8673822,
        "lon": -71.3816167
      },
      "tags": {
        "alt_name": "Pawtucket North Substation",
        "barrier": "fence",
        "frequency": "60",
        "location": "outdoor",
        "name": "Pawtucket 1 Substation",
        "operator": "Rhode Island Energy",
        "operator:wikidata": "Q130232431",
        "power": "substation",
        "ref": "107",
        "substation": "distribution",
        "voltage": "115000;13800"
      },
      "lat": 41.8673822,
      "lon": -71.3816167
    },
    {
      "type": "way",
      "id": 140012533,
      "center": {
        "lat": 42.0101304,
        "lon": -71.6736561
      },
      "tags": {
        "barrier": "fence",
        "location": "outdoor",
        "name": "Sherman Road Substation",
        "operator": "Rhode Island Energy",
        "operator:wikidata": "Q130232431",
        "power": "substation",
        "substation": "transmission",
        "voltage": "345000"
      },
      "lat": 42.0101304,
      "lon": -71.6736561
    },
    {
      "type": "way",
      "id": 140046323,
      "center": {
        "lat": 41.9695245,
        "lon": -71.5391609
      },
      "tags": {
        "location": "outdoor",
        "name": "West Farnum #17 Substation",
        "operator": "Rhode Island Energy",
        "operator:wikidata": "Q130232431",
        "power": "substation",
        "substation": "transmission",
        "voltage": "345000;115000"
      },
      "lat": 41.9695245,
      "lon": -71.5391609
    },
    {
      "type": "way",
      "id": 140047680,
      "center": {
        "lat": 42.0095362,
        "lon": -71.669541
      },
      "tags": {
        "location": "outdoor",
        "name": "Ocean State Substation",
        "operator": "LS Power Equity Partners LLC",
        "power": "substation",
        "substation": "transmission",
        "voltage": "345000"
      },
      "lat": 42.0095362,
      "lon": -71.669541
    },
    {
      "type": "way",
      "id": 140052625,
      "center": {
        "lat": 41.6833692,
        "lon": -71.4794453
      },
      "tags": {
        "location": "outdoor",
        "name": "Kent County Substation",
        "operator": "Rhode Island Energy",
        "operator:wikidata": "Q130232431",
        "power": "substation",
        "substation": "transmission",
        "voltage": "345000;115000"
      },
      "lat": 41.6833692,
      "lon": -71.4794453
    },
    {
      "type": "way",
      "id": 140062772,
      "center": {
        "lat": 41.6967963,
        "lon": -71.4728034
      },
      "tags": {
        "barrier": "fence",
        "frequency": "60",
        "location": "outdoor",
        "name": "Drumrock Substation",
        "operator": "Rhode Island Energy",
        "operator:wikidata": "Q130232431",
        "power": "substation",
        "ref": "14",
        "substation": "distribution",
        "voltage": "115000"
      },
      "lat": 41.6967963,
      "lon": -71.4728034
    },
    {
      "type": "way",
      "id": 140062775,
      "center": {
        "lat": 41.8277726,
        "lon": -71.519327
      },
      "tags": {
        "barrier": "fence",
        "frequency": "60",
        "name": "Hartford Avenue Substation",
        "operator": "Rhode Island Energy",
        "operator:wikidata": "Q130232431",
        "power": "substation",
        "ref": "35",
        "substation": "transmission",
        "voltage": "115000"
      },
      "lat": 41.8277726,
      "lon": -71.519327
    },
    {
      "type": "way",
      "id": 140098355,
      "center": {
        "lat": 41.7328658,
        "lon": -71.4430883
      },
      "tags": {
        "location": "outdoor",
        "name": "Blackburn Switching Station",
        "operator": "Rhode Island Energy",
        "operator:wikidata": "Q130232431",
        "power": "substation",
        "substation": "distribution",
        "voltage": "115000"
      },
      "lat": 41.7328658,
      "lon": -71.4430883
    },
    {
      "type": "way",
      "id": 140099247,
      "center": {
        "lat": 41.7295617,
        "lon": -71.4497861
      },
      "tags": {
        "location": "outdoor",
        "name": "Kilvert Street #87 Substation",
        "operator": "Rhode Island Energy",
        "operator:wikidata": "Q130232431",
        "power": "substation",
        "substation": "distribution",
        "voltage": "115000"
      },
      "lat": 41.7295617,
      "lon": -71.4497861
    },
    {
      "type": "way",
      "id": 140099248,
      "center": {
        "lat": 41.750305,
        "lon": -71.4390893
      },
      "tags": {
        "barrier": "fence",
        "frequency": "60",
        "name": "Lincoln Avenue Substation",
        "operator": "Rhode Island Energy",
        "operator:wikidata": "Q130232431",
        "power": "substation",
        "ref": "72",
        "substation": "distribution",
        "voltage": "115000"
      },
      "lat": 41.750305,
      "lon": -71.4390893
    },
    {
      "type": "way",
      "id": 140099249,
      "center": {
        "lat": 41.754236,
        "lon": -71.4403578
      },
      "tags": {
        "frequency": "60",
        "location": "outdoor",
        "name": "Sockanosset Substation",
        "operator": "Rhode Island Energy",
        "operator:wikidata": "Q130232431",
        "power": "substation",
        "ref": "24",
        "substation": "transmission",
        "voltage": "115000;23000"
      },
      "lat": 41.754236,
      "lon": -71.4403578
    },
    {
      "type": "way",
      "id": 140100436,
      "center": {
        "lat": 41.816324,
        "lon": -71.4056297
      },
      "tags": {
        "barrier": "fence",
        "location": "outdoor",
        "name": "Franklin Square Substation",
        "operator": "Rhode Island Energy",
        "operator:wikidata": "Q130232431",
        "power": "substation",
        "substation": "distribution",
        "voltage": "115000;34500;11500"
      },
      "lat": 41.816324,
      "lon": -71.4056297
    },
    {
      "type": "way",
      "id": 140100438,
      "center": {
        "lat": 41.7904301,
        "lon": -71.3303236
      },
      "tags": {
        "barrier": "fence",
        "frequency": "60",
        "location": "outdoor",
        "name": "Mink Street Substation",
        "operator": "National Grid",
        "operator:wikidata": "Q1465461",
        "power": "substation",
        "ref": "7",
        "substation": "distribution",
        "voltage": "115000"
      },
      "lat": 41.7904301,
      "lon": -71.3303236
    },
    {
      "type": "way",
      "id": 140100439,
      "center": {
        "lat": 41.8022085,
        "lon": -71.3484998
      },
      "tags": {
        "location": "outdoor",
        "name": "Wampanoug Substation",
        "operator": "Rhode Island Energy",
        "operator:wikidata": "Q130232431",
        "power": "substation",
        "substation": "distribution",
        "voltage": "115000"
      },
      "lat": 41.8022085,
      "lon": -71.3484998
    },
    {
      "type": "way",
      "id": 140994895,
      "center": {
        "lat": 41.4384749,
        "lon": -71.6323177
      },
      "tags": {
        "barrier": "fence",
        "frequency": "60",
        "location": "outdoor",
        "name": "Kenyon Substation",
        "operator": "Rhode Island Energy",
        "operator:wikidata": "Q130232431",
        "power": "substation",
        "ref": "68",
        "substation": "distribution",
        "voltage": "115000;12470"
      },
      "lat": 41.4384749,
      "lon": -71.6323177
    },
    {
      "type": "way",
      "id": 140994896,
      "center": {
        "lat": 41.4726209,
        "lon": -71.5743179
      },
      "tags": {
        "barrier": "fence",
        "frequency": "60",
        "location": "outdoor",
        "name": "West Kingston Substation",
        "operator": "Rhode Island Energy",
        "operator:wikidata": "Q130232431",
        "power": "substation",
        "ref": "62",
        "substation": "distribution",
        "voltage": "115000;34500"
      },
      "lat": 41.4726209,
      "lon": -71.5743179
    },
    {
      "type": "way",
      "id": 140994897,
      "center": {
        "lat": 41.4274568,
        "lon": -71.7041191
      },
      "tags": {
        "barrier": "fence",
        "frequency": "60",
        "name": "Wood River Substation",
        "operator": "Rhode Island Energy",
        "operator:wikidata": "Q130232431",
        "power": "substation",
        "ref": "85",
        "substation": "distribution",
        "voltage": "115000;34500"
      },
      "lat": 41.4274568,
      "lon": -71.7041191
    },
    {
      "type": "way",
      "id": 141000554,
      "center": {
        "lat": 41.5486473,
        "lon": -71.472139
      },
      "tags": {
        "name": "Tower Hill Substation",
        "operator": "Rhode Island Energy",
        "operator:wikidata": "Q130232431",
        "power": "substation",
        "substation": "distribution",
        "voltage": "115000"
      },
      "lat": 41.5486473,
      "lon": -71.472139
    },
    {
      "type": "way",
      "id": 141040328,
      "center": {
        "lat": 41.8424043,
        "lon": -71.4211498
      },
      "tags": {
        "barrier": "fence",
        "frequency": "60",
        "name": "Admiral Street Cable Terminal",
        "operator": "Rhode Island Energy",
        "operator:wikidata": "Q130232431",
        "power": "substation",
        "substation": "transition",
        "voltage": "115000"
      },
      "lat": 41.8424043,
      "lon": -71.4211498
    },
    {
      "type": "way",
      "id": 141040334,
      "center": {
        "lat": 41.8433019,
        "lon": -71.4208857
      },
      "tags": {
        "barrier": "fence",
        "frequency": "60",
        "name": "Clarkson Street Substation",
        "operator": "Rhode Island Energy",
        "operator:wikidata": "Q130232431",
        "power": "substation",
        "ref": "13",
        "substation": "distribution",
        "voltage": "115000;12470"
      },
      "lat": 41.8433019,
      "lon": -71.4208857
    },
    {
      "type": "way",
      "id": 141040335,
      "center": {
        "lat": 41.8143661,
        "lon": -71.4748693
      },
      "tags": {
        "barrier": "fence",
        "frequency": "60",
        "location": "outdoor",
        "name": "Johnston Substation",
        "operator": "Rhode Island Energy",
        "operator:wikidata": "Q130232431",
        "power": "substation",
        "ref": "18",
        "substation": "distribution",
        "voltage": "115000;23000;12470"
      },
      "lat": 41.8143661,
      "lon": -71.4748693
    },
    {
      "type": "way",
      "id": 141040385,
      "center": {
        "lat": 41.8336762,
        "lon": -71.472741
      },
      "tags": {
        "barrier": "fence",
        "frequency": "60",
        "name": "Manton Substation",
        "operator": "Rhode Island Energy",
        "operator:wikidata": "Q130232431",
        "power": "substation",
        "ref": "69",
        "substation": "minor_distribution",
        "voltage": "23000;12470"
      },
      "lat": 41.8336762,
      "lon": -71.472741
    },
    {
      "type": "way",
      "id": 141527590,
      "center": {
        "lat": 41.6097063,
        "lon": -71.4773661
      },
      "tags": {
        "name": "Old Baptist Road Substation",
        "operator": "Rhode Island Energy",
        "operator:wikidata": "Q130232431",
        "power": "substation",
        "ref": "46",
        "substation": "distribution",
        "voltage": "115000"
      },
      "lat": 41.6097063,
      "lon": -71.4773661
    },
    {
      "type": "way",
      "id": 141527610,
      "center": {
        "lat": 41.5922518,
        "lon": -71.4358121
      },
      "tags": {
        "barrier": "fence",
        "frequency": "60",
        "location": "outdoor",
        "name": "Davisville Substation",
        "operator": "Rhode Island Energy",
        "operator:wikidata": "Q130232431",
        "power": "substation",
        "ref": "84",
        "substation": "distribution",
        "voltage": "115000;34500"
      },
      "lat": 41.5922518,
      "lon": -71.4358121
    },
    {
      "type": "way",
      "id": 141527652,
      "center": {
        "lat": 41.5936147,
        "lon": -71.4290991
      },
      "tags": {
        "power": "substation",
        "substation": "generation"
      },
      "lat": 41.5936147,
      "lon": -71.4290991
    },
    {
      "type": "way",
      "id": 141527725,
      "center": {
        "lat": 41.5892401,
        "lon": -71.4208589
      },
      "tags": {
        "addr:city": "North Kingstown",
        "addr:housenumber": "1135",
        "addr:postcode": "02852",
        "addr:state": "RI",
        "addr:street": "Roger Williams Way",
        "barrier": "fence",
        "frequency": "60",
        "name": "Quonset Substation",
        "operator": "Rhode Island Energy",
        "operator:wikidata": "Q130232431",
        "power": "substation",
        "ref": "83",
        "substation": "minor_distribution",
        "voltage": "34500;12470"
      },
      "lat": 41.5892401,
      "lon": -71.4208589
    },
    {
      "type": "way",
      "id": 142062934,
      "center": {
        "lat": 41.8668341,
        "lon": -71.522228
      },
      "tags": {
        "access": "private",
        "barrier": "fence",
        "name": "Putnam Pike Substation",
        "operator": "Rhode Island Energy",
        "operator:wikidata": "Q130232431",
        "power": "substation",
        "substation": "distribution",
        "voltage": "115000"
      },
      "lat": 41.8668341,
      "lon": -71.522228
    },
    {
      "type": "way",
      "id": 142062935,
      "center": {
        "lat": 41.8814398,
        "lon": -71.5269259
      },
      "tags": {
        "barrier": "fence",
        "frequency": "60",
        "name": "Wolf Hill Substation",
        "operator": "Rhode Island Energy",
        "operator:wikidata": "Q130232431",
        "power": "substation",
        "ref": "19",
        "substation": "distribution",
        "voltage": "115000;34500"
      },
      "lat": 41.8814398,
      "lon": -71.5269259
    },
    {
      "type": "way",
      "id": 142062938,
      "center": {
        "lat": 41.874685,
        "lon": -71.5647052
      },
      "tags": {
        "barrier": "fence",
        "frequency": "60",
        "location": "outdoor",
        "name": "West Greenville Substation",
        "operator": "Rhode Island Energy",
        "operator:wikidata": "Q130232431",
        "power": "substation",
        "ref": "45",
        "substation": "minor_distribution",
        "voltage": "23000;12470"
      },
      "lat": 41.874685,
      "lon": -71.5647052
    },
    {
      "type": "way",
      "id": 142062944,
      "center": {
        "lat": 41.8580861,
        "lon": -71.4890152
      },
      "tags": {
        "barrier": "fence",
        "frequency": "60",
        "location": "outdoor",
        "name": "Centredale Substation",
        "power": "substation",
        "ref": "50",
        "substation": "minor_distribution",
        "voltage": "23000;12470;4160"
      },
      "lat": 41.8580861,
      "lon": -71.4890152
    },
    {
      "type": "way",
      "id": 142516708,
      "center": {
        "lat": 41.757704,
        "lon": -71.4075855
      },
      "tags": {
        "barrier": "fence",
        "frequency": "60",
        "name": "Lakewood Substation",
        "operator": "Rhode Island Energy",
        "operator:wikidata": "Q130232431",
        "power": "substation",
        "ref": "57",
        "substation": "minor_distribution",
        "voltage": "23000;4160"
      },
      "lat": 41.757704,
      "lon": -71.4075855
    },
    {
      "type": "way",
      "id": 145023271,
      "center": {
        "lat": 41.6431944,
        "lon": -71.1708235
      },
      "tags": {
        "name": "EMI Tiverton Substation",
        "operator": "Tiverton Power LLC",
        "power": "substation",
        "substation": "distribution",
        "voltage": "115000"
      },
      "lat": 41.6431944,
      "lon": -71.1708235
    },
    {
      "type": "way",
      "id": 145023275,
      "center": {
        "lat": 41.6437486,
        "lon": -71.1841692
      },
      "tags": {
        "name": "Tiverton Substation",
        "operator": "Rhode Island Energy",
        "operator:wikidata": "Q130232431",
        "power": "substation",
        "substation": "distribution",
        "voltage": "115000"
      },
      "lat": 41.6437486,
      "lon": -71.1841692
    },
    {
      "type": "way",
      "id": 145478289,
      "center": {
        "lat": 41.7358495,
        "lon": -71.4553992
      },
      "tags": {
        "name": "Pontiac #27 Substation",
        "operator": "Rhode Island Energy",
        "operator:wikidata": "Q130232431",
        "power": "substation",
        "substation": "distribution",
        "voltage": "115000"
      },
      "lat": 41.7358495,
      "lon": -71.4553992
    },
    {
      "type": "way",
      "id": 146666772,
      "center": {
        "lat": 41.6683046,
        "lon": -71.1799152
      },
      "tags": {
        "location": "outdoor",
        "name": "Canonicus Switchyard",
        "operator": "Rhode Island Energy",
        "operator:wikidata": "Q130232431",
        "power": "substation",
        "substation": "distribution",
        "voltage": "115000"
      },
      "lat": 41.6683046,
      "lon": -71.1799152
    },
    {
      "type": "way",
      "id": 147012941,
      "center": {
        "lat": 41.9165395,
        "lon": -71.3742921
      },
      "tags": {
        "frequency": "60",
        "location": "outdoor",
        "name": "Robinson Avenue Substation",
        "operator": "National Grid",
        "operator:wikidata": "Q1465461",
        "power": "substation",
        "substation": "distribution",
        "voltage": "115000"
      },
      "lat": 41.9165395,
      "lon": -71.3742921
    },
    {
      "type": "way",
      "id": 147012946,
      "center": {
        "lat": 41.980708,
        "lon": -71.4457727
      },
      "tags": {
        "location": "outdoor",
        "name": "Staples Substation",
        "operator": "Rhode Island Energy",
        "operator:wikidata": "Q130232431",
        "power": "substation",
        "substation": "distribution",
        "voltage": "115000"
      },
      "lat": 41.980708,
      "lon": -71.4457727
    },
    {
      "type": "way",
      "id": 147012948,
      "center": {
        "lat": 41.7336346,
        "lon": -71.280826
      },
      "tags": {
        "frequency": "60",
        "location": "outdoor",
        "name": "Warren Substation",
        "operator": "Rhode Island Energy",
        "operator:wikidata": "Q130232431",
        "power": "substation",
        "ref": "5",
        "substation": "distribution",
        "voltage": "115000;23000;12470"
      },
      "lat": 41.7336346,
      "lon": -71.280826
    },
    {
      "type": "way",
      "id": 147017407,
      "center": {
        "lat": 41.9371251,
        "lon": -71.4619979
      },
      "tags": {
        "barrier": "fence",
        "location": "outdoor",
        "name": "Washington Substation",
        "operator": "Rhode Island Energy",
        "operator:wikidata": "Q130232431",
        "power": "substation",
        "ref": "126",
        "substation": "distribution",
        "voltage": "115000;13800"
      },
      "lat": 41.9371251,
      "lon": -71.4619979
    },
    {
      "type": "way",
      "id": 147041335,
      "center": {
        "lat": 41.664594,
        "lon": -71.4920711
      },
      "tags": {
        "barrier": "fence",
        "frequency": "60",
        "location": "outdoor",
        "name": "Division Street Substation",
        "operator": "Rhode Island Energy",
        "operator:wikidata": "Q130232431",
        "power": "substation",
        "ref": "61",
        "substation": "minor_distribution",
        "voltage": "34500;12470"
      },
      "lat": 41.664594,
      "lon": -71.4920711
    },
    {
      "type": "way",
      "id": 147190475,
      "center": {
        "lat": 41.7043526,
        "lon": -71.6260778
      },
      "tags": {
        "addr:city": "Coventry",
        "addr:housenumber": "2535",
        "addr:postcode": "02816",
        "addr:state": "RI",
        "addr:street": "Flat River Road",
        "barrier": "fence",
        "name": "Coventry Substation",
        "power": "substation",
        "ref": "54",
        "substation": "minor_distribution",
        "voltage": "23000;12470"
      },
      "lat": 41.7043526,
      "lon": -71.6260778
    },
    {
      "type": "way",
      "id": 147190476,
      "center": {
        "lat": 41.7303521,
        "lon": -71.5644966
      },
      "tags": {
        "addr:city": "Scituate",
        "addr:housenumber": "15",
        "addr:state": "RI",
        "addr:street": "Hope Furnace Road",
        "frequency": "60",
        "name": "Hope Substation",
        "operator": "Rhode Island Energy",
        "operator:wikidata": "Q130232431",
        "power": "substation",
        "ref": "15",
        "substation": "minor_distribution",
        "voltage": "23000;12470"
      },
      "lat": 41.7303521,
      "lon": -71.5644966
    },
    {
      "type": "way",
      "id": 147239242,
      "center": {
        "lat": 41.9742581,
        "lon": -71.6099514
      },
      "tags": {
        "name": "Nasonville Substation",
        "operator": "Rhode Island Energy",
        "operator:wikidata": "Q130232431",
        "power": "substation",
        "substation": "distribution",
        "voltage": "115000"
      },
      "lat": 41.9742581,
      "lon": -71.6099514
    },
    {
      "type": "way",
      "id": 147239243,
      "center": {
        "lat": 42.0040781,
        "lon": -71.5077636
      },
      "tags": {
        "location": "outdoor",
        "name": "Riverside Substation",
        "operator": "Rhode Island Energy",
        "operator:wikidata": "Q130232431",
        "power": "substation",
        "substation": "distribution",
        "voltage": "115000"
      },
      "lat": 42.0040781,
      "lon": -71.5077636
    },
    {
      "type": "way",
      "id": 147559578,
      "center": {
        "lat": 41.5462722,
        "lon": -71.2807816
      },
      "tags": {
        "barrier": "fence",
        "frequency": "60",
        "name": "Jepson Substation",
        "operator": "Rhode Island Energy",
        "operator:wikidata": "Q130232431",
        "power": "substation",
        "ref": "37",
        "substation": "distribution",
        "voltage": "115000;69000;23000;13800"
      },
      "lat": 41.5462722,
      "lon": -71.2807816
    },
    {
      "type": "way",
      "id": 147559579,
      "center": {
        "lat": 41.6018277,
        "lon": -71.2553627
      },
      "tags": {
        "name": "Dexter Substation",
        "operator": "Rhode Island Substation",
        "power": "substation",
        "substation": "distribution",
        "voltage": "115000"
      },
      "lat": 41.6018277,
      "lon": -71.2553627
    },
    {
      "type": "way",
      "id": 151789361,
      "center": {
        "lat": 41.4886985,
        "lon": -71.531893
      },
      "tags": {
        "frequency": "60",
        "name": "Substation 1A",
        "operator": "Univerity of Rhode Island Facilities Operations Utilities Department",
        "power": "substation",
        "substation": "minor_distribution",
        "voltage": "34500;4160"
      },
      "lat": 41.4886985,
      "lon": -71.531893
    },
    {
      "type": "way",
      "id": 157558686,
      "center": {
        "lat": 41.7017459,
        "lon": -71.4549653
      },
      "tags": {
        "barrier": "fence",
        "frequency": "60",
        "location": "outdoor",
        "name": "Apponaug Substation",
        "operator": "Rhode Island Energy",
        "operator:wikidata": "Q130232431",
        "power": "substation",
        "ref": "3",
        "substation": "minor_distribution",
        "voltage": "23000;12470"
      },
      "lat": 41.7017459,
      "lon": -71.4549653
    },
    {
      "type": "way",
      "id": 160152916,
      "center": {
        "lat": 41.8025549,
        "lon": -71.5169506
      },
      "tags": {
        "frequency": "60",
        "location": "outdoor",
        "name": "Rise Substation",
        "operator": "National Grid",
        "operator:wikidata": "Q1465461",
        "power": "substation",
        "substation": "distribution",
        "voltage": "115000"
      },
      "lat": 41.8025549,
      "lon": -71.5169506
    },
    {
      "type": "way",
      "id": 184978317,
      "center": {
        "lat": 41.4917913,
        "lon": -71.4346824
      },
      "tags": {
        "frequency": "60",
        "name": "Bonnet Substation",
        "operator": "Rhode Island Energy",
        "operator:wikidata": "Q130232431",
        "power": "substation",
        "ref": "42",
        "substation": "minor_distribution",
        "voltage": "34500"
      },
      "lat": 41.4917913,
      "lon": -71.4346824
    },
    {
      "type": "way",
      "id": 185996009,
      "center": {
        "lat": 41.7212706,
        "lon": -71.4726454
      },
      "tags": {
        "barrier": "fence",
        "name": "Warwick Mall Substation",
        "operator": "Rhode Island Energy",
        "operator:wikidata": "Q130232431",
        "power": "substation",
        "ref": "28",
        "substation": "minor_distribution",
        "voltage": "23000;12470"
      },
      "lat": 41.7212706,
      "lon": -71.4726454
    },
    {
      "type": "way",
      "id": 189797587,
      "center": {
        "lat": 41.510959,
        "lon": -71.3197046
      },
      "tags": {
        "alt_name": "Gate Two Substation",
        "barrier": "fence",
        "frequency": "60",
        "name": "Gate II Substation",
        "operator": "Rhode Island Energy",
        "operator:wikidata": "Q130232431",
        "power": "substation",
        "ref": "38",
        "substation": "distribution",
        "voltage": "69000;23000"
      },
      "lat": 41.510959,
      "lon": -71.3197046
    },
    {
      "type": "way",
      "id": 189797598,
      "center": {
        "lat": 41.5286533,
        "lon": -71.3102765
      },
      "tags": {
        "barrier": "fence",
        "frequency": "60",
        "name": "Navy Substation",
        "operator": "Naval Facilities Engineering Systems Command",
        "operator:wikidata": "Q6981810",
        "power": "substation",
        "substation": "distribution",
        "voltage": "69000;13800"
      },
      "lat": 41.5286533,
      "lon": -71.3102765
    },
    {
      "type": "way",
      "id": 238459873,
      "center": {
        "lat": 41.7862494,
        "lon": -71.422395
      },
      "tags": {
        "addr:city": "Providence",
        "addr:housenumber": "252",
        "addr:postcode": "02907",
        "addr:state": "RI",
        "addr:street": "Narragansett Avenue",
        "barrier": "fence",
        "frequency": "60",
        "name": "Elmwood Outdoor Substation",
        "operator": "Rhode Island Energy",
        "operator:wikidata": "Q130232431",
        "power": "substation",
        "ref": "7",
        "substation": "minor_distribution",
        "voltage": "23000;12470"
      },
      "lat": 41.7862494,
      "lon": -71.422395
    },
    {
      "type": "way",
      "id": 238481457,
      "center": {
        "lat": 41.4413724,
        "lon": -71.4874617
      },
      "tags": {
        "barrier": "fence",
        "name": "Wakefield Substation",
        "operator": "Rhode Island Energy",
        "operator:wikidata": "Q130232431",
        "power": "substation",
        "ref": "17",
        "substation": "minor_distribution",
        "voltage": "34500;12470"
      },
      "lat": 41.4413724,
      "lon": -71.4874617
    },
    {
      "type": "way",
      "id": 240021867,
      "center": {
        "lat": 41.7324711,
        "lon": -71.4409108
      },
      "tags": {
        "name": "Warwick Substation",
        "operator": "Amtrak",
        "operator:wikidata": "Q23239",
        "power": "substation",
        "substation": "traction",
        "voltage": "115000;50000"
      },
      "lat": 41.7324711,
      "lon": -71.4409108
    },
    {
      "type": "way",
      "id": 244177814,
      "center": {
        "lat": 41.7184339,
        "lon": -71.4853485
      },
      "tags": {
        "addr:city": "Warwick",
        "addr:housenumber": "19",
        "addr:postcode": "02886",
        "addr:state": "RI",
        "addr:street": "Commonwealth Avenue",
        "barrier": "fence",
        "frequency": "60",
        "name": "Natick Substation",
        "operator": "Rhode Island Energy",
        "operator:wikidata": "Q130232431",
        "power": "substation",
        "ref": "29",
        "substation": "minor_distribution",
        "voltage": "23000;12470"
      },
      "lat": 41.7184339,
      "lon": -71.4853485
    },
    {
      "type": "way",
      "id": 313200793,
      "center": {
        "lat": 41.6553828,
        "lon": -71.5754058
      },
      "tags": {
        "barrier": "fence",
        "frequency": "60",
        "name": "Hopkins Hill Substation",
        "operator": "Rhode Island Energy",
        "operator:wikidata": "Q130232431",
        "power": "substation",
        "ref": "63",
        "substation": "minor_distribution",
        "voltage": "34500;12470"
      },
      "lat": 41.6553828,
      "lon": -71.5754058
    },
    {
      "type": "way",
      "id": 364213090,
      "center": {
        "lat": 41.776825,
        "lon": -71.4233549
      },
      "tags": {
        "barrier": "fence",
        "power": "substation",
        "substation": "industrial",
        "voltage": "23000"
      },
      "lat": 41.776825,
      "lon": -71.4233549
    },
    {
      "type": "way",
      "id": 377213141,
      "center": {
        "lat": 41.8546227,
        "lon": -71.4473832
      },
      "tags": {
        "addr:city": "North Providence",
        "addr:housenumber": "3",
        "addr:postcode": "02904",
        "addr:state": "RI",
        "addr:street": "Smithfield Road",
        "barrier": "fence",
        "frequency": "60",
        "location": "outdoor",
        "name": "Geneva Substation",
        "operator": "Rhode Island Energy",
        "operator:wikidata": "Q130232431",
        "power": "substation",
        "ref": "71",
        "substation": "minor_distribution",
        "voltage": "23000;4160"
      },
      "lat": 41.8546227,
      "lon": -71.4473832
    },
    {
      "type": "way",
      "id": 430850712,
      "center": {
        "lat": 41.7004106,
        "lon": -71.3952316
      },
      "tags": {
        "barrier": "fence",
        "frequency": "60",
        "name": "Warwick Substation",
        "operator": "Rhode Island Energy",
        "operator:wikidata": "Q130232431",
        "power": "substation",
        "ref": "52",
        "substation": "minor_distribution",
        "voltage": "23000;12470"
      },
      "lat": 41.7004106,
      "lon": -71.3952316
    },
    {
      "type": "way",
      "id": 442843155,
      "center": {
        "lat": 41.8415164,
        "lon": -71.4212031
      },
      "tags": {
        "barrier": "fence",
        "frequency": "60",
        "name": "Admiral Street Substation",
        "operator": "Rhode Island Energy",
        "operator:wikidata": "Q130232431",
        "power": "substation",
        "ref": "9",
        "substation": "distribution",
        "voltage": "115000;23000;12470;11500"
      },
      "lat": 41.8415164,
      "lon": -71.4212031
    },
    {
      "type": "way",
      "id": 699229461,
      "center": {
        "lat": 41.9129656,
        "lon": -71.3848777
      },
      "tags": {
        "addr:city": "Cumberland",
        "addr:housenumber": "275",
        "addr:postcode": "02864",
        "addr:state": "RI",
        "addr:street": "Dexter Street",
        "barrier": "fence",
        "frequency": "60",
        "name": "Valley Substation",
        "operator": "Rhode Island Energy",
        "operator:wikidata": "Q130232431",
        "power": "substation",
        "ref": "102",
        "substation": "distribution",
        "voltage": "115000;23000;13800"
      },
      "lat": 41.9129656,
      "lon": -71.3848777
    },
    {
      "type": "way",
      "id": 705005518,
      "center": {
        "lat": 41.8451079,
        "lon": -71.3667248
      },
      "tags": {
        "barrier": "fence",
        "frequency": "60",
        "name": "Phillipsdale Substation",
        "operator": "Rhode Island Energy",
        "operator:wikidata": "Q130232431",
        "power": "substation",
        "ref": "20",
        "substation": "distribution",
        "voltage": "115000;23000;12470"
      },
      "lat": 41.8451079,
      "lon": -71.3667248
    },
    {
      "type": "way",
      "id": 759382730,
      "center": {
        "lat": 41.5253133,
        "lon": -71.3772034
      },
      "tags": {
        "addr:city": "Jamestown",
        "addr:housenumber": "179",
        "addr:postcode": "02835",
        "addr:state": "RI",
        "addr:street": "Tasshtassuc Road",
        "barrier": "fence",
        "frequency": "60",
        "name": "Eldered Substation",
        "operator": "Rhode Island Energy",
        "operator:wikidata": "Q130232431",
        "power": "substation",
        "ref": "45",
        "substation": "minor_distribution",
        "voltage": "23000;4160"
      },
      "lat": 41.5253133,
      "lon": -71.3772034
    },
    {
      "type": "way",
      "id": 771423916,
      "center": {
        "lat": 41.8471001,
        "lon": -71.3952261
      },
      "tags": {
        "addr:city": "Providence",
        "addr:housenumber": "266",
        "addr:postcode": "02906",
        "addr:state": "RI",
        "addr:street": "Rochambeau Avenue",
        "building": "industrial",
        "name": "Rochambeau Avenue Substation",
        "operator": "Rhode Island Energy",
        "operator:wikidata": "Q130232431",
        "power": "substation",
        "ref": "37",
        "substation": "minor_distribution",
        "voltage": "23000;4160"
      },
      "lat": 41.8471001,
      "lon": -71.3952261
    },
    {
      "type": "way",
      "id": 802545604,
      "center": {
        "lat": 41.6964329,
        "lon": -71.5486243
      },
      "tags": {
        "barrier": "fence",
        "frequency": "60",
        "name": "Anthony Substation",
        "operator": "Rhode Island Energy",
        "operator:wikidata": "Q130232431",
        "power": "substation",
        "ref": "64",
        "substation": "minor_distribution",
        "voltage": "34500;23000;12470"
      },
      "lat": 41.6964329,
      "lon": -71.5486243
    },
    {
      "type": "way",
      "id": 865060040,
      "center": {
        "lat": 41.4912611,
        "lon": -71.5308302
      },
      "tags": {
        "barrier": "fence",
        "frequency": "60",
        "name": "Substation 4",
        "operator": "Univerity of Rhode Island Facilities Operations Utilities Department",
        "power": "substation",
        "substation": "minor_distribution",
        "voltage": "34500;4160"
      },
      "lat": 41.4912611,
      "lon": -71.5308302
    },
    {
      "type": "way",
      "id": 865060041,
      "center": {
        "lat": 41.488545,
        "lon": -71.5311187
      },
      "tags": {
        "barrier": "fence",
        "frequency": "60",
        "name": "Substation 2A",
        "operator": "Univerity of Rhode Island Facilities Operations Utilities Department",
        "power": "substation",
        "substation": "minor_distribution",
        "voltage": "34500;4160"
      },
      "lat": 41.488545,
      "lon": -71.5311187
    },
    {
      "type": "way",
      "id": 882873769,
      "center": {
        "lat": 41.630668,
        "lon": -71.494088
      },
      "tags": {
        "barrier": "fence",
        "frequency": "60",
        "power": "substation",
        "substation": "industrial",
        "voltage": "34500;4160"
      },
      "lat": 41.630668,
      "lon": -71.494088
    },
    {
      "type": "way",
      "id": 882873771,
      "center": {
        "lat": 41.6344869,
        "lon": -71.4639904
      },
      "tags": {
        "name": "East Greenwich Paralleling Station",
        "operator": "Amtrak",
        "operator:wikidata": "Q23239",
        "power": "substation",
        "substation": "traction",
        "voltage": "50000;25000"
      },
      "lat": 41.6344869,
      "lon": -71.4639904
    },
    {
      "type": "way",
      "id": 900944642,
      "center": {
        "lat": 41.9012078,
        "lon": -71.5309388
      },
      "tags": {
        "name": "Farnum Pike Substation",
        "operator": "Rhode Island Energy",
        "operator:wikidata": "Q130232431",
        "power": "substation",
        "substation": "distribution",
        "voltage": "115000"
      },
      "lat": 41.9012078,
      "lon": -71.5309388
    },
    {
      "type": "way",
      "id": 900968409,
      "center": {
        "lat": 41.8013673,
        "lon": -71.5154306
      },
      "tags": {
        "name": "Shunpike Substation",
        "operator": "Rhode Island Energy",
        "operator:wikidata": "Q130232431",
        "power": "substation",
        "substation": "distribution",
        "voltage": "115000"
      },
      "lat": 41.8013673,
      "lon": -71.5154306
    },
    {
      "type": "way",
      "id": 900971636,
      "center": {
        "lat": 41.7568117,
        "lon": -71.5218049
      },
      "tags": {
        "name": "Wert Cranston Substation",
        "operator": "Rhode Island Energy",
        "operator:wikidata": "Q130232431",
        "power": "substation",
        "substation": "distribution",
        "voltage": "115000"
      },
      "lat": 41.7568117,
      "lon": -71.5218049
    },
    {
      "type": "way",
      "id": 903444191,
      "center": {
        "lat": 41.470402,
        "lon": -71.3205839
      },
      "tags": {
        "barrier": "fence",
        "name": "Harrison Substation",
        "operator": "Rhode Island Energy",
        "operator:wikidata": "Q130232431",
        "power": "substation",
        "ref": "32",
        "substation": "minor_distribution",
        "voltage": "23000;4160"
      },
      "lat": 41.470402,
      "lon": -71.3205839
    },
    {
      "type": "way",
      "id": 906925428,
      "center": {
        "lat": 41.6945589,
        "lon": -71.2684416
      },
      "tags": {
        "barrier": "fence",
        "frequency": "60",
        "name": "Bristol RI Substation",
        "operator": "Rhode Island Energy",
        "operator:wikidata": "Q130232431",
        "power": "substation",
        "ref": "51",
        "substation": "distribution",
        "voltage": "115000;23000;12470"
      },
      "lat": 41.6945589,
      "lon": -71.2684416
    },
    {
      "type": "way",
      "id": 975808893,
      "center": {
        "lat": 41.815796,
        "lon": -71.406029
      },
      "tags": {
        "power": "substation"
      },
      "lat": 41.815796,
      "lon": -71.406029
    },
    {
      "type": "way",
      "id": 975808894,
      "center": {
        "lat": 41.8153264,
        "lon": -71.4063598
      },
      "tags": {
        "power": "substation"
      },
      "lat": 41.8153264,
      "lon": -71.4063598
    },
    {
      "type": "way",
      "id": 975808895,
      "center": {
        "lat": 41.8151053,
        "lon": -71.4063967
      },
      "tags": {
        "power": "substation"
      },
      "lat": 41.8151053,
      "lon": -71.4063967
    },
    {
      "type": "way",
      "id": 975808896,
      "center": {
        "lat": 41.8154959,
        "lon": -71.4034394
      },
      "tags": {
        "power": "substation"
      },
      "lat": 41.8154959,
      "lon": -71.4034394
    },
    {
      "type": "way",
      "id": 1042046484,
      "center": {
        "lat": 41.8605968,
        "lon": -71.4062597
      },
      "tags": {
        "barrier": "fence",
        "frequency": "60",
        "name": "84B Providence Paralleling Station",
        "power": "substation",
        "substation": "traction",
        "voltage": "25000;50000"
      },
      "lat": 41.8605968,
      "lon": -71.4062597
    },
    {
      "type": "way",
      "id": 1072048570,
      "center": {
        "lat": 41.802813,
        "lon": -71.5231873
      },
      "tags": {
        "name": "Ridgewood Substation",
        "operator": "Rhode Island Energy",
        "operator:wikidata": "Q130232431",
        "power": "substation",
        "substation": "distribution",
        "voltage": "115000"
      },
      "lat": 41.802813,
      "lon": -71.5231873
    },
    {
      "type": "way",
      "id": 1115108081,
      "center": {
        "lat": 41.7091397,
        "lon": -71.5039207
      },
      "tags": {
        "addr:city": "Warwick",
        "addr:housenumber": "375",
        "addr:state": "RI",
        "addr:street": "New London Avenue",
        "barrier": "fence",
        "frequency": "60",
        "name": "New London Ave Substation",
        "operator": "Rhode Island Energy",
        "operator:wikidata": "Q130232431",
        "power": "substation",
        "ref": "150",
        "substation": "distribution",
        "voltage": "115000;12470"
      },
      "lat": 41.7091397,
      "lon": -71.5039207
    },
    {
      "type": "way",
      "id": 1115108083,
      "center": {
        "lat": 41.5805715,
        "lon": -71.4959333
      },
      "tags": {
        "name": "Wickford Junction Substation",
        "operator": "Rhode Island Energy",
        "operator:wikidata": "Q130232431",
        "power": "substation",
        "substation": "distribution",
        "voltage": "115000"
      },
      "lat": 41.5805715,
      "lon": -71.4959333
    },
    {
      "type": "way",
      "id": 1115108084,
      "center": {
        "lat": 41.4124206,
        "lon": -71.7695108
      },
      "tags": {
        "barrier": "fence",
        "frequency": "60",
        "name": "Chase Hill Substation",
        "operator": "Rhode Island Energy",
        "operator:wikidata": "Q130232431",
        "power": "substation",
        "ref": "155",
        "substation": "distribution",
        "voltage": "115000"
      },
      "lat": 41.4124206,
      "lon": -71.7695108
    },
    {
      "type": "way",
      "id": 1115110142,
      "center": {
        "lat": 41.9681219,
        "lon": -71.5256413
      },
      "tags": {
        "name": "Iron Mine Mill Substation",
        "operator": "Rhode Island Energy",
        "operator:wikidata": "Q130232431",
        "power": "substation",
        "substation": "distribution",
        "voltage": "115000"
      },
      "lat": 41.9681219,
      "lon": -71.5256413
    },
    {
      "type": "way",
      "id": 1116159841,
      "center": {
        "lat": 41.9936187,
        "lon": -71.4726632
      },
      "tags": {
        "name": "Highland Park Substation",
        "operator": "Rhode Island Energy",
        "operator:wikidata": "Q130232431",
        "power": "substation",
        "substation": "distribution",
        "voltage": "115000"
      },
      "lat": 41.9936187,
      "lon": -71.4726632
    },
    {
      "type": "way",
      "id": 1116161100,
      "center": {
        "lat": 41.9800163,
        "lon": -71.5212683
      },
      "tags": {
        "barrier": "fence",
        "frequency": "60",
        "name": "Farnum Substation",
        "operator": "Rhode Island Energy",
        "operator:wikidata": "Q130232431",
        "power": "substation",
        "ref": "105",
        "substation": "distribution",
        "voltage": "115000;23000"
      },
      "lat": 41.9800163,
      "lon": -71.5212683
    },
    {
      "type": "way",
      "id": 1150790471,
      "center": {
        "lat": 41.8655117,
        "lon": -71.3656793
      },
      "tags": {
        "addr:city": "Pawtucket",
        "addr:housenumber": "206",
        "addr:postcode": "02861",
        "addr:state": "RI",
        "addr:street": "York Avenue",
        "barrier": "fence",
        "frequency": "60",
        "name": "Dunnel Park Substation",
        "operator": "Rhode Island Energy",
        "operator:wikidata": "Q130232431",
        "power": "substation",
        "ref": "1201",
        "substation": "distribution",
        "voltage": "115000;13800"
      },
      "lat": 41.8655117,
      "lon": -71.3656793
    },
    {
      "type": "way",
      "id": 1150833067,
      "center": {
        "lat": 41.5149135,
        "lon": -71.3173067
      },
      "tags": {
        "addr:city": "Newport",
        "addr:housenumber": "286",
        "addr:postcode": "02840",
        "addr:state": "RI",
        "addr:street": "Connell Highway",
        "barrier": "fence",
        "frequency": "60",
        "name": "Newport Substation",
        "operator": "Rhode Island Energy",
        "operator:wikidata": "Q130232431",
        "power": "substation",
        "ref": "203",
        "substation": "distribution",
        "voltage": "69000;13800"
      },
      "lat": 41.5149135,
      "lon": -71.3173067
    },
    {
      "type": "way",
      "id": 1162286688,
      "center": {
        "lat": 41.8190276,
        "lon": -71.4064934
      },
      "tags": {
        "name": "South Street Substation",
        "operator": "Rhode Island Energy",
        "operator:wikidata": "Q130232431",
        "power": "substation",
        "ref": "1",
        "substation": "distribution",
        "voltage": "115000;23000;11500;4160"
      },
      "lat": 41.8190276,
      "lon": -71.4064934
    },
    {
      "type": "way",
      "id": 1170997604,
      "center": {
        "lat": 41.4376551,
        "lon": -71.6898439
      },
      "tags": {
        "power": "substation"
      },
      "lat": 41.4376551,
      "lon": -71.6898439
    },
    {
      "type": "way",
      "id": 1313581593,
      "center": {
        "lat": 41.4336886,
        "lon": -71.4830961
      },
      "tags": {
        "barrier": "fence",
        "name": "Dillon's Corner Substation",
        "operator": "Rhode Island Energy",
        "operator:wikidata": "Q130232431",
        "power": "substation",
        "ref": "165",
        "substation": "transmission",
        "voltage": "34500"
      },
      "lat": 41.4336886,
      "lon": -71.4830961
    },
    {
      "type": "way",
      "id": 1313591004,
      "center": {
        "lat": 41.4694885,
        "lon": -71.514032
      },
      "tags": {
        "barrier": "fence",
        "frequency": "60",
        "name": "Peacedale Substation",
        "operator": "Rhode Island Energy",
        "operator:wikidata": "Q130232431",
        "power": "substation",
        "ref": "59",
        "substation": "minor_distribution",
        "voltage": "34500;12470"
      },
      "lat": 41.4694885,
      "lon": -71.514032
    },
    {
      "type": "way",
      "id": 1366686158,
      "center": {
        "lat": 41.3435659,
        "lon": -71.76895
      },
      "tags": {
        "barrier": "fence",
        "frequency": "60",
        "name": "Langworthy Corner Substation",
        "operator": "Rhode Island Energy",
        "operator:wikidata": "Q130232431",
        "power": "substation",
        "substation": "minor_distribution",
        "voltage": "34500;12470"
      },
      "lat": 41.3435659,
      "lon": -71.76895
    },
    {
      "type": "way",
      "id": 1418539465,
      "center": {
        "lat": 41.8141272,
        "lon": -71.3530675
      },
      "tags": {
        "barrier": "fence",
        "frequency": "60",
        "name": "Waterman Avenue Substation",
        "operator": "Rhode Island Energy",
        "operator:wikidata": "Q130232431",
        "power": "substation",
        "ref": "78",
        "substation": "minor_distribution",
        "voltage": "23000;12470"
      },
      "lat": 41.8141272,
      "lon": -71.3530675
    },
    {
      "type": "way",
      "id": 1425959836,
      "center": {
        "lat": 41.8168023,
        "lon": -71.4057686
      },
      "tags": {
        "barrier": "fence",
        "location": "outdoor",
        "name": "Point Street Substation",
        "operator": "Rhode Island Energy",
        "operator:wikidata": "Q130232431",
        "power": "substation",
        "substation": "distribution",
        "voltage": "115000"
      },
      "lat": 41.8168023,
      "lon": -71.4057686
    },
    {
      "type": "way",
      "id": 1430418382,
      "center": {
        "lat": 41.897358,
        "lon": -71.3815094
      },
      "tags": {
        "power": "substation",
        "substation": "industrial",
        "voltage": "13800"
      },
      "lat": 41.897358,
      "lon": -71.3815094
    },
    {
      "type": "way",
      "id": 1430602008,
      "center": {
        "lat": 41.7981551,
        "lon": -71.4288369
      },
      "tags": {
        "barrier": "fence",
        "frequency": "60",
        "name": "Elmwood Paralleling Station",
        "power": "substation",
        "substation": "traction",
        "voltage": "50000;25000"
      },
      "lat": 41.7981551,
      "lon": -71.4288369
    },
    {
      "type": "way",
      "id": 1430633200,
      "center": {
        "lat": 41.6304987,
        "lon": -71.4940718
      },
      "tags": {
        "barrier": "fence",
        "frequency": "60",
        "power": "substation",
        "substation": "industrial",
        "voltage": "34500;4160"
      },
      "lat": 41.6304987,
      "lon": -71.4940718
    },
    {
      "type": "way",
      "id": 1482383296,
      "center": {
        "lat": 41.9146756,
        "lon": -71.361316
      },
      "tags": {
        "addr:city": "Attleboro",
        "addr:housenumber": "511",
        "addr:postcode": "02703",
        "addr:state": "MA",
        "addr:street": "Washington Street",
        "barrier": "fence",
        "frequency": "60",
        "name": "South Attleboro Substation",
        "operator": "National Grid",
        "operator:wikidata": "Q1465461",
        "power": "substation",
        "ref": "5",
        "substation": "minor_distribution",
        "voltage": "23000;4160"
      },
      "lat": 41.9146756,
      "lon": -71.361316
    },
    {
      "type": "way",
      "id": 1484417680,
      "center": {
        "lat": 41.7379619,
        "lon": -71.3158694
      },
      "tags": {
        "addr:city": "Barrington",
        "addr:housenumber": "236",
        "addr:postcode": "02806",
        "addr:state": "RI",
        "addr:street": "Maple Avenue",
        "barrier": "fence",
        "frequency": "60",
        "name": "Barrington Substation",
        "operator": "Rhode Island Energy",
        "operator:wikidata": "Q130232431",
        "power": "substation",
        "ref": "4",
        "substation": "minor_distribution",
        "voltage": "23000;12470"
      },
      "lat": 41.7379619,
      "lon": -71.3158694
    },
    {
      "type": "way",
      "id": 1484419565,
      "center": {
        "lat": 41.7609694,
        "lon": -71.345237
      },
      "tags": {
        "addr:city": "East Providence",
        "addr:housenumber": "54",
        "addr:postcode": "02915",
        "addr:state": "RI",
        "addr:street": "Hilton Avenue",
        "name": "Kent Corners Substation",
        "operator": "Rhode Island Energy",
        "operator:wikidata": "Q130232431",
        "power": "substation",
        "ref": "47",
        "substation": "minor_distribution",
        "voltage": "23000;4160"
      },
      "lat": 41.7609694,
      "lon": -71.345237
    },
    {
      "type": "way",
      "id": 1484430160,
      "center": {
        "lat": 41.7798271,
        "lon": -71.3476073
      },
      "tags": {
        "name": "Forbes Street Substation",
        "operator": "Rhode Island Energy",
        "operator:wikidata": "Q130232431",
        "power": "substation",
        "substation": "generation",
        "voltage": "23000"
      },
      "lat": 41.7798271,
      "lon": -71.3476073
    },
    {
      "type": "way",
      "id": 1484791998,
      "center": {
        "lat": 41.6792412,
        "lon": -71.2590925
      },
      "tags": {
        "frequency": "60",
        "name": "Dixon Corporation Substation",
        "power": "substation",
        "substation": "industrial",
        "voltage": "23000"
      },
      "lat": 41.6792412,
      "lon": -71.2590925
    },
    {
      "type": "way",
      "id": 1485171123,
      "center": {
        "lat": 41.8512145,
        "lon": -71.3504176
      },
      "tags": {
        "barrier": "fence",
        "frequency": "60",
        "power": "substation",
        "substation": "industrial",
        "voltage": "23000"
      },
      "lat": 41.8512145,
      "lon": -71.3504176
    },
    {
      "type": "way",
      "id": 1485171124,
      "center": {
        "lat": 41.8520105,
        "lon": -71.3499477
      },
      "tags": {
        "barrier": "fence",
        "frequency": "60",
        "power": "substation",
        "substation": "industrial",
        "voltage": "23000"
      },
      "lat": 41.8520105,
      "lon": -71.3499477
    },
    {
      "type": "way",
      "id": 1485171125,
      "center": {
        "lat": 41.8501995,
        "lon": -71.3499529
      },
      "tags": {
        "barrier": "fence",
        "frequency": "60",
        "power": "substation",
        "substation": "industrial",
        "voltage": "23000"
      },
      "lat": 41.8501995,
      "lon": -71.3499529
    },
    {
      "type": "way",
      "id": 1485171131,
      "center": {
        "lat": 41.8595033,
        "lon": -71.3480117
      },
      "tags": {
        "addr:housenumber": "200",
        "addr:street": "Narragansett Park Drive",
        "frequency": "60",
        "power": "substation",
        "substation": "industrial",
        "voltage": "23000;480"
      },
      "lat": 41.8595033,
      "lon": -71.3480117
    },
    {
      "type": "way",
      "id": 1485173175,
      "center": {
        "lat": 41.8152015,
        "lon": -71.3520998
      },
      "tags": {
        "frequency": "60",
        "power": "substation",
        "substation": "industrial",
        "voltage": "23000"
      },
      "lat": 41.8152015,
      "lon": -71.3520998
    },
    {
      "type": "way",
      "id": 1485877160,
      "center": {
        "lat": 41.8268481,
        "lon": -71.4271593
      },
      "tags": {
        "barrier": "fence",
        "frequency": "60",
        "name": "Harris Avenue Substation",
        "operator": "Rhode Island Energy",
        "operator:wikidata": "Q130232431",
        "power": "substation",
        "ref": "12",
        "substation": "minor_distribution",
        "voltage": "11500;4160"
      },
      "lat": 41.8268481,
      "lon": -71.4271593
    },
    {
      "type": "way",
      "id": 1485888105,
      "center": {
        "lat": 41.8930462,
        "lon": -71.3858729
      },
      "tags": {
        "frequency": "60",
        "name": "Central Falls Substation",
        "operator": "Rhode Island Energy",
        "operator:wikidata": "Q130232431",
        "power": "substation",
        "ref": "104",
        "substation": "minor_distribution",
        "voltage": "13800;4160"
      },
      "lat": 41.8930462,
      "lon": -71.3858729
    },
    {
      "type": "way",
      "id": 1486048502,
      "center": {
        "lat": 41.8881214,
        "lon": -71.4014423
      },
      "tags": {
        "barrier": "fence",
        "name": "Crossman Street Substation",
        "operator": "Rhode Island Energy",
        "operator:wikidata": "Q130232431",
        "power": "substation",
        "ref": "111",
        "substation": "minor_distribution",
        "voltage": "13800;4160"
      },
      "lat": 41.8881214,
      "lon": -71.4014423
    },
    {
      "type": "way",
      "id": 1486049976,
      "center": {
        "lat": 41.8765415,
        "lon": -71.3963461
      },
      "tags": {
        "barrier": "fence",
        "frequency": "60",
        "name": "Centre Street Substation",
        "operator": "Rhode Island Energy",
        "operator:wikidata": "Q130232431",
        "power": "substation",
        "ref": "106",
        "substation": "minor_distribution",
        "voltage": "13800;4160"
      },
      "lat": 41.8765415,
      "lon": -71.3963461
    },
    {
      "type": "way",
      "id": 1486734588,
      "center": {
        "lat": 41.8095314,
        "lon": -71.4277148
      },
      "tags": {
        "addr:city": "Providence",
        "addr:housenumber": "86",
        "addr:postcode": "02907",
        "addr:state": "RI",
        "addr:street": "Sprague Street",
        "barrier": "fence",
        "frequency": "60",
        "name": "Sprague Street Substation",
        "operator": "Rhode Island Energy",
        "operator:wikidata": "Q130232431",
        "power": "substation",
        "ref": "36",
        "substation": "minor_distribution",
        "voltage": "23000;4160"
      },
      "lat": 41.8095314,
      "lon": -71.4277148
    },
    {
      "type": "way",
      "id": 1486764685,
      "center": {
        "lat": 41.7638077,
        "lon": -71.4275432
      },
      "tags": {
        "barrier": "fence",
        "frequency": "60",
        "power": "substation",
        "substation": "industrial",
        "voltage": "23000"
      },
      "lat": 41.7638077,
      "lon": -71.4275432
    },
    {
      "type": "way",
      "id": 1486924141,
      "center": {
        "lat": 41.7731139,
        "lon": -71.4239214
      },
      "tags": {
        "barrier": "fence",
        "frequency": "60",
        "power": "substation",
        "substation": "industrial",
        "voltage": "23000"
      },
      "lat": 41.7731139,
      "lon": -71.4239214
    },
    {
      "type": "way",
      "id": 1486924146,
      "center": {
        "lat": 41.7679213,
        "lon": -71.4256168
      },
      "tags": {
        "frequency": "60",
        "power": "substation",
        "substation": "industrial",
        "voltage": "23000"
      },
      "lat": 41.7679213,
      "lon": -71.4256168
    },
    {
      "type": "way",
      "id": 1486929061,
      "center": {
        "lat": 41.7360262,
        "lon": -71.4387569
      },
      "tags": {
        "barrier": "fence",
        "frequency": "60",
        "power": "substation",
        "substation": "industrial",
        "voltage": "23000"
      },
      "lat": 41.7360262,
      "lon": -71.4387569
    },
    {
      "type": "way",
      "id": 1486934692,
      "center": {
        "lat": 41.7378807,
        "lon": -71.4419297
      },
      "tags": {
        "barrier": "fence",
        "frequency": "60",
        "power": "substation",
        "substation": "industrial",
        "voltage": "23000"
      },
      "lat": 41.7378807,
      "lon": -71.4419297
    },
    {
      "type": "way",
      "id": 1487050750,
      "center": {
        "lat": 41.761725,
        "lon": -71.4263262
      },
      "tags": {
        "barrier": "fence",
        "frequency": "60",
        "power": "substation",
        "substation": "industrial",
        "voltage": "23000"
      },
      "lat": 41.761725,
      "lon": -71.4263262
    },
    {
      "type": "way",
      "id": 1487195704,
      "center": {
        "lat": 41.7833438,
        "lon": -71.4600941
      },
      "tags": {
        "barrier": "fence",
        "frequency": "60",
        "name": "Knightsville Substation",
        "operator": "Rhode Island Energy",
        "operator:wikidata": "Q130232431",
        "power": "substation",
        "ref": "66",
        "substation": "minor_distribution",
        "voltage": "23000;12470"
      },
      "lat": 41.7833438,
      "lon": -71.4600941
    },
    {
      "type": "way",
      "id": 1487195713,
      "center": {
        "lat": 41.7974919,
        "lon": -71.4398518
      },
      "tags": {
        "barrier": "fence",
        "frequency": "60",
        "name": "Huntington Park Substation",
        "operator": "Rhode Island Energy",
        "operator:wikidata": "Q130232431",
        "power": "substation",
        "ref": "67",
        "substation": "minor_distribution",
        "voltage": "23000;;12470;4160"
      },
      "lat": 41.7974919,
      "lon": -71.4398518
    },
    {
      "type": "way",
      "id": 1487414920,
      "center": {
        "lat": 41.6795293,
        "lon": -71.5758746
      },
      "tags": {
        "addr:city": "Coventry",
        "addr:housenumber": "990",
        "addr:postcode": "02816",
        "addr:state": "RI",
        "addr:street": "Tiogue Avenue",
        "barrier": "fence",
        "frequency": "60",
        "name": "Tiogue Substation",
        "operator": "Rhode Island Energy",
        "operator:wikidata": "Q130232431",
        "power": "substation",
        "ref": "100",
        "substation": "minor_distribution",
        "voltage": "34500;12470"
      },
      "lat": 41.6795293,
      "lon": -71.5758746
    },
    {
      "type": "way",
      "id": 1488448597,
      "center": {
        "lat": 41.6272915,
        "lon": -71.469849
      },
      "tags": {
        "power": "substation",
        "substation": "industrial",
        "voltage": "34500"
      },
      "lat": 41.6272915,
      "lon": -71.469849
    },
    {
      "type": "way",
      "id": 1488650954,
      "center": {
        "lat": 41.5932081,
        "lon": -71.4270463
      },
      "tags": {
        "barrier": "fence",
        "frequency": "60",
        "power": "substation",
        "substation": "industrial",
        "voltage": "34500"
      },
      "lat": 41.5932081,
      "lon": -71.4270463
    },
    {
      "type": "way",
      "id": 1488674772,
      "center": {
        "lat": 41.5991133,
        "lon": -71.4331366
      },
      "tags": {
        "frequency": "60",
        "power": "substation",
        "substation": "industrial",
        "voltage": "34500"
      },
      "lat": 41.5991133,
      "lon": -71.4331366
    },
    {
      "type": "way",
      "id": 1488674776,
      "center": {
        "lat": 41.6003427,
        "lon": -71.434724
      },
      "tags": {
        "barrier": "fence",
        "power": "substation",
        "substation": "industrial",
        "voltage": "34500"
      },
      "lat": 41.6003427,
      "lon": -71.434724
    },
    {
      "type": "way",
      "id": 1489435959,
      "center": {
        "lat": 41.4158203,
        "lon": -71.7377629
      },
      "tags": {
        "operator": "Revity Energy LLC",
        "power": "substation",
        "substation": "generation",
        "voltage": "34500"
      },
      "lat": 41.4158203,
      "lon": -71.7377629
    },
    {
      "type": "way",
      "id": 1489568867,
      "center": {
        "lat": 41.6956383,
        "lon": -71.5464142
      },
      "tags": {
        "power": "substation",
        "substation": "industrial",
        "voltage": "12470"
      },
      "lat": 41.6956383,
      "lon": -71.5464142
    },
    {
      "type": "way",
      "id": 1490401540,
      "center": {
        "lat": 41.7156775,
        "lon": -71.4283895
      },
      "tags": {
        "frequency": "60",
        "power": "substation",
        "substation": "industrial",
        "voltage": "23000"
      },
      "lat": 41.7156775,
      "lon": -71.4283895
    },
    {
      "type": "way",
      "id": 1491110626,
      "center": {
        "lat": 41.8732086,
        "lon": -71.4988293
      },
      "tags": {
        "barrier": "fence",
        "frequency": "60",
        "power": "substation",
        "substation": "industrial",
        "voltage": "23000"
      },
      "lat": 41.8732086,
      "lon": -71.4988293
    },
    {
      "type": "way",
      "id": 1491110628,
      "center": {
        "lat": 41.8744004,
        "lon": -71.4991914
      },
      "tags": {
        "barrier": "fence",
        "frequency": "60",
        "power": "substation",
        "substation": "industrial",
        "voltage": "23000"
      },
      "lat": 41.8744004,
      "lon": -71.4991914
    },
    {
      "type": "way",
      "id": 1491135667,
      "center": {
        "lat": 41.8475981,
        "lon": -71.6773454
      },
      "tags": {
        "barrier": "fence",
        "frequency": "60",
        "name": "Chopmist Substation",
        "operator": "Rhode Island Energy",
        "operator:wikidata": "Q130232431",
        "power": "substation",
        "ref": "34",
        "substation": "minor_distribution",
        "voltage": "23000;12470"
      },
      "lat": 41.8475981,
      "lon": -71.6773454
    },
    {
      "type": "way",
      "id": 1491615097,
      "center": {
        "lat": 41.801998,
        "lon": -71.4375706
      },
      "tags": {
        "barrier": "fence",
        "power": "substation",
        "substation": "industrial",
        "voltage": "23000"
      },
      "lat": 41.801998,
      "lon": -71.4375706
    },
    {
      "type": "way",
      "id": 1491649858,
      "center": {
        "lat": 41.8005826,
        "lon": -71.4332626
      },
      "tags": {
        "barrier": "fence",
        "power": "substation",
        "substation": "industrial",
        "voltage": "23000"
      },
      "lat": 41.8005826,
      "lon": -71.4332626
    },
    {
      "type": "way",
      "id": 1491649859,
      "center": {
        "lat": 41.800851,
        "lon": -71.4353059
      },
      "tags": {
        "barrier": "fence",
        "power": "substation",
        "substation": "industrial",
        "voltage": "23000"
      },
      "lat": 41.800851,
      "lon": -71.4353059
    },
    {
      "type": "way",
      "id": 1491673410,
      "center": {
        "lat": 41.7988102,
        "lon": -71.4380843
      },
      "tags": {
        "barrier": "fence",
        "power": "substation",
        "substation": "industrial",
        "voltage": "23000"
      },
      "lat": 41.7988102,
      "lon": -71.4380843
    },
    {
      "type": "way",
      "id": 1491673412,
      "center": {
        "lat": 41.7993252,
        "lon": -71.4363182
      },
      "tags": {
        "barrier": "fence",
        "power": "substation",
        "substation": "industrial",
        "voltage": "23000"
      },
      "lat": 41.7993252,
      "lon": -71.4363182
    },
    {
      "type": "way",
      "id": 1491673414,
      "center": {
        "lat": 41.8006355,
        "lon": -71.4367503
      },
      "tags": {
        "barrier": "fence",
        "power": "substation",
        "substation": "industrial",
        "voltage": "23000"
      },
      "lat": 41.8006355,
      "lon": -71.4367503
    },
    {
      "type": "way",
      "id": 1491673415,
      "center": {
        "lat": 41.7998841,
        "lon": -71.4382665
      },
      "tags": {
        "barrier": "fence",
        "power": "substation",
        "substation": "industrial",
        "voltage": "23000"
      },
      "lat": 41.7998841,
      "lon": -71.4382665
    },
    {
      "type": "way",
      "id": 1491673418,
      "center": {
        "lat": 41.7965718,
        "lon": -71.434699
      },
      "tags": {
        "barrier": "fence",
        "power": "substation",
        "substation": "industrial",
        "voltage": "23000"
      },
      "lat": 41.7965718,
      "lon": -71.434699
    },
    {
      "type": "way",
      "id": 1491673420,
      "center": {
        "lat": 41.7970854,
        "lon": -71.4343836
      },
      "tags": {
        "barrier": "fence",
        "power": "substation",
        "substation": "industrial",
        "voltage": "23000"
      },
      "lat": 41.7970854,
      "lon": -71.4343836
    },
    {
      "type": "way",
      "id": 1491673422,
      "center": {
        "lat": 41.7980392,
        "lon": -71.4340313
      },
      "tags": {
        "barrier": "fence",
        "power": "substation",
        "substation": "industrial",
        "voltage": "23000"
      },
      "lat": 41.7980392,
      "lon": -71.4340313
    },
    {
      "type": "way",
      "id": 1491673427,
      "center": {
        "lat": 41.7951925,
        "lon": -71.4378622
      },
      "tags": {
        "barrier": "fence",
        "power": "substation",
        "substation": "industrial",
        "voltage": "23000"
      },
      "lat": 41.7951925,
      "lon": -71.4378622
    },
    {
      "type": "way",
      "id": 1491673428,
      "center": {
        "lat": 41.7955138,
        "lon": -71.438209
      },
      "tags": {
        "barrier": "fence",
        "power": "substation",
        "substation": "industrial",
        "voltage": "23000"
      },
      "lat": 41.7955138,
      "lon": -71.438209
    },
    {
      "type": "way",
      "id": 1491677133,
      "center": {
        "lat": 41.8158023,
        "lon": -71.4416415
      },
      "tags": {
        "addr:city": "Providence",
        "addr:housenumber": "55",
        "addr:postcode": "02909",
        "addr:state": "RI",
        "addr:street": "Dike Street",
        "barrier": "fence",
        "name": "Olneyville Substation",
        "operator": "Rhode Island Energy",
        "operator:wikidata": "Q130232431",
        "power": "substation",
        "ref": "6",
        "substation": "minor_distribution",
        "voltage": "11500;4160"
      },
      "lat": 41.8158023,
      "lon": -71.4416415
    },
    {
      "type": "way",
      "id": 1491684586,
      "center": {
        "lat": 41.8353746,
        "lon": -71.4056789
      },
      "tags": {
        "addr:city": "Providence",
        "addr:housenumber": "83",
        "addr:postcode": "02906",
        "addr:state": "RI",
        "addr:street": "Olney Street",
        "building": "industrial",
        "name": "Lippitt Hill Substation",
        "operator": "Rhode Island Energy",
        "operator:wikidata": "Q130232431",
        "power": "substation",
        "ref": "79",
        "substation": "minor_distribution",
        "voltage": "23000;12470"
      },
      "lat": 41.8353746,
      "lon": -71.4056789
    },
    {
      "type": "way",
      "id": 1491686096,
      "center": {
        "lat": 41.8260207,
        "lon": -71.3909924
      },
      "tags": {
        "addr:city": "Providence",
        "addr:housenumber": "82",
        "addr:postcode": "02906",
        "addr:state": "RI",
        "addr:street": "East George Street",
        "barrier": "fence",
        "frequency": "60",
        "name": "East George Street Substation",
        "operator": "Rhode Island Energy",
        "operator:wikidata": "Q130232431",
        "power": "substation",
        "ref": "77",
        "substation": "minor_distribution",
        "voltage": "23000;4160"
      },
      "lat": 41.8260207,
      "lon": -71.3909924
    },
    {
      "type": "way",
      "id": 1491687213,
      "center": {
        "lat": 41.7946126,
        "lon": -71.4037401
      },
      "tags": {
        "barrier": "fence",
        "frequency": "60",
        "name": "Fields Point Substation",
        "operator": "Rhode Island Energy",
        "operator:wikidata": "Q130232431",
        "power": "substation",
        "ref": "10",
        "substation": "minor_distribution",
        "voltage": "11500"
      },
      "lat": 41.7946126,
      "lon": -71.4037401
    },
    {
      "type": "way",
      "id": 1491688339,
      "center": {
        "lat": 41.7659304,
        "lon": -71.3996133
      },
      "tags": {
        "barrier": "fence",
        "power": "substation",
        "substation": "industrial",
        "voltage": "23000"
      },
      "lat": 41.7659304,
      "lon": -71.3996133
    },
    {
      "type": "way",
      "id": 1491819199,
      "center": {
        "lat": 41.4812702,
        "lon": -71.3147313
      },
      "tags": {
        "addr:city": "Newport",
        "addr:housenumber": "447",
        "addr:postcode": "02840",
        "addr:state": "RI",
        "addr:street": "Thames Street",
        "frequency": "60",
        "name": "West Howard Substation",
        "operator": "Rhode Island Energy",
        "operator:wikidata": "Q130232431",
        "power": "substation",
        "ref": "154",
        "substation": "minor_distribution",
        "voltage": "23000;4160"
      },
      "lat": 41.4812702,
      "lon": -71.3147313
    },
    {
      "type": "way",
      "id": 1491823183,
      "center": {
        "lat": 41.4825134,
        "lon": -71.3037681
      },
      "tags": {
        "addr:city": "Newport",
        "addr:housenumber": "4",
        "addr:postcode": "02840",
        "addr:state": "RI",
        "addr:street": "Merton Road",
        "barrier": "fence",
        "frequency": "60",
        "name": "Merton Substation",
        "operator": "Rhode Island Energy",
        "operator:wikidata": "Q130232431",
        "power": "substation",
        "ref": "51",
        "substation": "minor_distribution",
        "voltage": "23000;4160"
      },
      "lat": 41.4825134,
      "lon": -71.3037681
    },
    {
      "type": "way",
      "id": 1491831757,
      "center": {
        "lat": 41.4975218,
        "lon": -71.307377
      },
      "tags": {
        "barrier": "wall",
        "name": "Hospital Substation",
        "operator": "Rhode Island Energy",
        "operator:wikidata": "Q130232431",
        "power": "substation",
        "ref": "146",
        "substation": "minor_distribution",
        "voltage": "23000;4160"
      },
      "lat": 41.4975218,
      "lon": -71.307377
    },
    {
      "type": "way",
      "id": 1491831758,
      "center": {
        "lat": 41.4963206,
        "lon": -71.3128328
      },
      "tags": {
        "barrier": "fence",
        "frequency": "60",
        "name": "Kingston Substation",
        "operator": "Rhode Island Energy",
        "operator:wikidata": "Q130232431",
        "power": "substation",
        "ref": "131",
        "substation": "minor_distribution",
        "voltage": "23000;4160"
      },
      "lat": 41.4963206,
      "lon": -71.3128328
    },
    {
      "type": "way",
      "id": 1492607286,
      "center": {
        "lat": 41.8757858,
        "lon": -71.3840917
      },
      "tags": {
        "barrier": "fence",
        "frequency": "60",
        "name": "Pawtucket 2 Substation",
        "operator": "Rhode Island Energy",
        "operator:wikidata": "Q130232431",
        "power": "substation",
        "ref": "148",
        "substation": "minor_distribution",
        "voltage": "13800;4160"
      },
      "lat": 41.8757858,
      "lon": -71.3840917
    },
    {
      "type": "way",
      "id": 1492876351,
      "center": {
        "lat": 41.8515537,
        "lon": -71.3653161
      },
      "tags": {
        "barrier": "fence",
        "power": "substation",
        "substation": "industrial",
        "voltage": "23000"
      },
      "lat": 41.8515537,
      "lon": -71.3653161
    },
    {
      "type": "way",
      "id": 1492876352,
      "center": {
        "lat": 41.5858719,
        "lon": -71.2799299
      },
      "tags": {
        "power": "substation"
      },
      "lat": 41.5858719,
      "lon": -71.2799299
    },
    {
      "type": "way",
      "id": 1495871892,
      "center": {
        "lat": 41.4889544,
        "lon": -71.5371712
      },
      "tags": {
        "barrier": "fence",
        "frequency": "60",
        "name": "Substation 3",
        "operator": "Univerity of Rhode Island Facilities Operations Utilities Department",
        "power": "substation",
        "substation": "minor_distribution",
        "voltage": "34500;4160"
      },
      "lat": 41.4889544,
      "lon": -71.5371712
    },
    {
      "type": "way",
      "id": 1497923702,
      "center": {
        "lat": 41.8764338,
        "lon": -71.5015294
      },
      "tags": {
        "barrier": "fence",
        "power": "substation",
        "substation": "industrial",
        "voltage": "23000"
      },
      "lat": 41.8764338,
      "lon": -71.5015294
    },
    {
      "type": "way",
      "id": 1498000500,
      "center": {
        "lat": 41.8460324,
        "lon": -71.3672978
      },
      "tags": {
        "barrier": "fence",
        "power": "substation",
        "substation": "industrial",
        "voltage": "23000"
      },
      "lat": 41.8460324,
      "lon": -71.3672978
    },
    {
      "type": "way",
      "id": 1498016861,
      "center": {
        "lat": 41.843767,
        "lon": -71.3684985
      },
      "tags": {
        "barrier": "fence",
        "power": "substation",
        "substation": "industrial",
        "voltage": "23000"
      },
      "lat": 41.843767,
      "lon": -71.3684985
    },
    {
      "type": "relation",
      "id": 11735202,
      "center": {
        "lat": 41.5820333,
        "lon": -71.4954039
      },
      "tags": {
        "frequency": "60",
        "location": "outdoor",
        "name": "Lafayette Substation",
        "operator": "Rhode Island Energy",
        "operator:wikidata": "Q130232431",
        "power": "substation",
        "ref": "30",
        "substation": "minor_distribution",
        "type": "multipolygon",
        "voltage": "34500;12470"
      },
      "lat": 41.5820333,
      "lon": -71.4954039
    },
    {
      "type": "relation",
      "id": 20366316,
      "center": {
        "lat": 41.4945438,
        "lon": -71.3750292
      },
      "tags": {
        "addr:city": "Jamestown",
        "addr:housenumber": "13",
        "addr:postcode": "02835",
        "addr:state": "RI",
        "addr:street": "Clarke Street",
        "frequency": "60",
        "name": "Clarke Street Substation",
        "operator": "Rhode Island Energy",
        "operator:wikidata": "Q130232431",
        "power": "substation",
        "ref": "65",
        "substation": "minor_distribution",
        "type": "multipolygon",
        "voltage": "23000;4160"
      },
      "lat": 41.4945438,
      "lon": -71.3750292
    }
  ]
}
