{
  "version": 0.6,
  "generator": "Overpass API 0.7.62.11 87bfad18",
  "osm3s": {
    "timestamp_osm_base": "2026-04-24T20:51:16Z",
    "timestamp_areas_base": "2026-04-24T15:53:36Z",
    "copyright": "The data included in this document is from www.openstreetmap.org. The data is made available under ODbL."
  },
  "elements": [
    {
      "type": "node",
      "id": 9979007234,
      "lat": 28.5707,
      "lon": -96.8333,
      "tags": {
        "fixme": "position",
        "name": "BP Chemicals Green Lake Plant",
        "operator": "INEOS Nitriles Greenlake",
        "plant:method": "combustion",
        "plant:output:electricity": "38.8 MW",
        "plant:source": "waste",
        "power": "plant",
        "ref:US:EIA": "50404",
        "source": "U.S. Energy Information Administration - EIA-860 - 2021",
        "start_date": "1989-03"
      }
    },
    {
      "type": "node",
      "id": 9979007235,
      "lat": 28.675088,
      "lon": -96.956014,
      "tags": {
        "fixme": "position",
        "name": "Victoria Texas Plant",
        "operator": "Invista",
        "plant:method": "combustion",
        "plant:output:electricity": "102.4 MW",
        "plant:output:hot_water": "yes",
        "plant:source": "gas",
        "power": "plant",
        "ref:US:EIA": "10790",
        "source": "U.S. Energy Information Administration - EIA-860 - 2021",
        "start_date": "1987-04"
      }
    },
    {
      "type": "node",
      "id": 9979007236,
      "lat": 28.5105,
      "lon": -96.7706,
      "tags": {
        "fixme": "position",
        "name": "Union Carbide Seadrift Cogen",
        "operator": "Union Carbide Corp-Seadrift",
        "plant:method": "combustion",
        "plant:output:electricity": "168 MW",
        "plant:output:hot_water": "yes",
        "plant:source": "gas",
        "power": "plant",
        "ref:US:EIA": "50150",
        "source": "U.S. Energy Information Administration - EIA-860 - 2021",
        "start_date": "1964-01"
      }
    },
    {
      "type": "way",
      "id": 29186062,
      "center": {
        "lat": 32.7251793,
        "lon": -96.9364304
      },
      "tags": {
        "landuse": "industrial",
        "name": "Mountain Creek Generating Station",
        "operator": "Exelon",
        "operator:wikidata": "Q1383669",
        "plant:method": "combustion",
        "plant:output:electricity": "808 MW",
        "plant:source": "gas",
        "power": "plant",
        "ref:US:EIA": "3453",
        "source": "U.S. Energy Information Administration - EIA-860 - 2019",
        "start_date": "1945-12"
      },
      "lat": 32.7251793,
      "lon": -96.9364304
    },
    {
      "type": "way",
      "id": 39899843,
      "center": {
        "lat": 28.7953553,
        "lon": -96.0479122
      },
      "tags": {
        "landuse": "industrial",
        "name": "South Texas Project Electric Generating Station",
        "operator": "South Texas Project Nuclear Operating Company",
        "owner": "Austin Energy; CPS Energy; NRG Energy",
        "plant:method": "fission",
        "plant:output:electricity": "2708.6 MW",
        "plant:source": "nuclear",
        "power": "plant",
        "ref:US:EIA": "6251",
        "short_name": "STP",
        "source": "U.S. Energy Information Administration - EIA-860 - 2020",
        "start_date": "1988-08",
        "wikidata": "Q371357"
      },
      "lat": 28.7953553,
      "lon": -96.0479122
    },
    {
      "type": "way",
      "id": 39979635,
      "center": {
        "lat": 29.7499919,
        "lon": -94.9237804
      },
      "tags": {
        "landuse": "industrial",
        "name": "Cedar Bayou Station",
        "operator": "NRG Energy",
        "operator:wikidata": "Q6955139",
        "plant:method": "combustion",
        "plant:output:electricity": "2065.5 MW",
        "plant:source": "gas",
        "power": "plant",
        "ref:US:EIA": "56806;3460",
        "source": "U.S. Energy Information Administration - EIA-860 - 2020",
        "start_date": "1970-12",
        "wikidata": "Q17761995"
      },
      "lat": 29.7499919,
      "lon": -94.9237804
    },
    {
      "type": "way",
      "id": 43706421,
      "center": {
        "lat": 29.477737,
        "lon": -95.6325809
      },
      "tags": {
        "addr:city": "Thompsons",
        "addr:housenumber": "2500",
        "addr:postcode": "77481",
        "addr:state": "TX",
        "addr:street": "Y U Jones Road",
        "landuse": "industrial",
        "name": "W. A. Parish Electric Generating Station",
        "operator": "NRG Energy",
        "operator:wikidata": "Q6955139",
        "plant:method": "combustion",
        "plant:output:electricity": "4008.4 MW",
        "plant:source": "coal;gas",
        "power": "plant",
        "ref:US:EIA": "3470",
        "source": "U.S. Energy Information Administration - EIA-860 - 2021",
        "start_date": "1958-06",
        "wikidata": "Q12010297"
      },
      "lat": 29.477737,
      "lon": -95.6325809
    },
    {
      "type": "way",
      "id": 94615598,
      "center": {
        "lat": 29.9110389,
        "lon": -96.752254
      },
      "tags": {
        "landuse": "industrial",
        "name": "Fayette Power Project",
        "operator": "Lower Colorado River Authority",
        "operator:short": "LCRA",
        "operator:wikidata": "Q16155608",
        "plant:method": "combustion",
        "plant:output:electricity": "1690 MW",
        "plant:source": "coal",
        "power": "plant",
        "ref:US:EIA": "6179",
        "source": "http://www.lcra.org/energy/power/facilities/fayette.html",
        "start_date": "1979-06",
        "wikidata": "Q5439027"
      },
      "lat": 29.9110389,
      "lon": -96.752254
    },
    {
      "type": "way",
      "id": 100396239,
      "center": {
        "lat": 31.420253,
        "lon": -96.2535598
      },
      "tags": {
        "landuse": "industrial",
        "name": "Limestone Electric Generating Station",
        "operator": "NRG Energy",
        "operator:wikidata": "Q6955139",
        "plant:method": "combustion",
        "plant:output:electricity": "1849.8 MW",
        "plant:source": "coal",
        "power": "plant",
        "ref:US:EIA": "298",
        "source": "U.S. Energy Information Administration - EIA-860 - 2021",
        "start_date": "1985-12",
        "wikidata": "Q19379448"
      },
      "lat": 31.420253,
      "lon": -96.2535598
    },
    {
      "type": "way",
      "id": 111781027,
      "center": {
        "lat": 29.3051544,
        "lon": -98.4022558
      },
      "tags": {
        "name": "Blue Wing Solar Farm",
        "operator": "Duke Energy",
        "operator:wikidata": "Q1264404",
        "plant:method": "photovoltaic",
        "plant:output:electricity": "13.9 MW",
        "plant:source": "solar",
        "power": "plant",
        "ref:US:EIA": "57197",
        "source": "U.S. Energy Information Administration - EIA-860 - 2020",
        "start_date": "2010-11",
        "wikidata": "Q4930024"
      },
      "lat": 29.3051544,
      "lon": -98.4022558
    },
    {
      "type": "way",
      "id": 121051560,
      "center": {
        "lat": 29.3517685,
        "lon": -98.5767166
      },
      "tags": {
        "addr:housenumber": "7718",
        "addr:postcode": "78211",
        "addr:street": "Quintana Road",
        "landuse": "industrial",
        "name": "Leon Creek Power Plant",
        "operator": "CPS Energy",
        "plant:method": "combustion",
        "plant:output:electricity": "192 MW",
        "plant:source": "gas",
        "power": "plant",
        "ref:US:EIA": "3609",
        "source": "U.S. Energy Information Administration - EIA-860 - 2020",
        "start_date": "1948",
        "wikidata": "Q19379225"
      },
      "lat": 29.3517685,
      "lon": -98.5767166
    },
    {
      "type": "way",
      "id": 125729472,
      "center": {
        "lat": 28.9271982,
        "lon": -99.0922019
      },
      "tags": {
        "landuse": "industrial",
        "name": "Pearsall Power Plant",
        "operator": "South Texas Electric Cooperative",
        "plant:method": "combustion",
        "plant:output:electricity": "201.6 MW",
        "plant:source": "gas",
        "power": "plant",
        "ref:US:EIA": "3630",
        "source": "U.S. Energy Information Administration - EIA-860 - 2020",
        "start_date": "1961-05"
      },
      "lat": 28.9271982,
      "lon": -99.0922019
    },
    {
      "type": "way",
      "id": 126175792,
      "center": {
        "lat": 28.7035258,
        "lon": -98.4748862
      },
      "tags": {
        "landuse": "industrial",
        "name": "San Miguel Power Plant",
        "operator": "South Texas Electric Cooperative",
        "plant:method": "combustion",
        "plant:output:electricity": "410 MW",
        "plant:source": "coal",
        "power": "plant",
        "ref:US:EIA": "6183",
        "source": "U.S. Energy Information Administration - EIA-860 - 2020",
        "start_date": "1982-01",
        "wikidata": "Q19387550"
      },
      "lat": 28.7035258,
      "lon": -98.4748862
    },
    {
      "type": "way",
      "id": 126452423,
      "center": {
        "lat": 29.9429584,
        "lon": -95.5313929
      },
      "tags": {
        "landuse": "industrial",
        "name": "T. H. Wharton Power Plant",
        "old_name": "Houston Light & Power - Wharton Station",
        "operator": "NRG Energy",
        "operator:wikidata": "Q6955139",
        "plant:method": "combustion",
        "plant:output:electricity": "1189.9 MW",
        "plant:source": "gas",
        "power": "plant",
        "ref:US:EIA": "3469",
        "source": "U.S. Energy Information Administration - EIA-860 - 2020",
        "start_date": "1960-06",
        "wikidata": "Q19391778"
      },
      "lat": 29.9429584,
      "lon": -95.5313929
    },
    {
      "type": "way",
      "id": 127240417,
      "center": {
        "lat": 31.179469,
        "lon": -96.4937413
      },
      "tags": {
        "landuse": "industrial",
        "name": "Oak Grove Power Plant",
        "note": "Burns lignite coal from Kosse Mine",
        "operator": "Luminant",
        "plant:method": "combustion",
        "plant:output:electricity": "1795.4 MW",
        "plant:source": "coal",
        "power": "plant",
        "ref:US:EIA": "6180",
        "source": "U.S. Energy Information Administration - EIA-860 - 2021",
        "start_date": "2010-04",
        "wikidata": "Q54871308"
      },
      "lat": 31.179469,
      "lon": -96.4937413
    },
    {
      "type": "way",
      "id": 127241425,
      "center": {
        "lat": 31.0906274,
        "lon": -96.6906886
      },
      "tags": {
        "alt_name": "Major Oak Power",
        "landuse": "industrial",
        "name": "Twin Oaks Power Station",
        "old_name": "TNP One",
        "operator": "Lonestar Generation",
        "plant:method": "combustion",
        "plant:output:electricity": "349.2 MW",
        "plant:source": "coal",
        "power": "plant",
        "ref:US:EIA": "7030",
        "source": "U.S. Energy Information Administration - EIA-860 - 2021",
        "start_date": "1990-09",
        "wikidata": "Q19393605"
      },
      "lat": 31.0906274,
      "lon": -96.6906886
    },
    {
      "type": "way",
      "id": 129320296,
      "center": {
        "lat": 29.772112,
        "lon": -94.9033342
      },
      "tags": {
        "name": "Baytown Energy Center",
        "operator": "Calpine",
        "plant:method": "combustion",
        "plant:output:electricity": "932.9 MW",
        "plant:output:hot_water": "yes",
        "plant:source": "gas",
        "plant:type": "combined_cycle",
        "power": "plant",
        "ref:US:EIA": "55327",
        "source": "U.S. Energy Information Administration - EIA-860 - 2020",
        "start_date": "2002-06",
        "wikidata": "Q11960362"
      },
      "lat": 29.772112,
      "lon": -94.9033342
    },
    {
      "type": "way",
      "id": 161996058,
      "center": {
        "lat": 30.3909832,
        "lon": -97.907181
      },
      "tags": {
        "building": "yes",
        "plant:output:electricity": "yes",
        "plant:source": "hydro",
        "power": "plant",
        "type": "site"
      },
      "lat": 30.3909832,
      "lon": -97.907181
    },
    {
      "type": "way",
      "id": 165669467,
      "center": {
        "lat": 32.8476746,
        "lon": -94.5488462
      },
      "tags": {
        "landuse": "industrial",
        "name": "Wilkes Power Plant",
        "operator": "Southwestern Electric Power Co",
        "plant:method": "combustion",
        "plant:output:electricity": "882 MW",
        "plant:source": "gas",
        "power": "plant",
        "ref:US:EIA": "3478",
        "source": "U.S. Energy Information Administration - EIA-860 - 2021",
        "start_date": "1964-05",
        "wikidata": "Q8002475"
      },
      "lat": 32.8476746,
      "lon": -94.5488462
    },
    {
      "type": "way",
      "id": 168087476,
      "center": {
        "lat": 34.1660047,
        "lon": -102.4116788
      },
      "tags": {
        "landuse": "industrial",
        "name": "Plant X",
        "operator": "Southwestern Public Service Co",
        "plant:method": "combustion",
        "plant:output:electricity": "190.4 MW",
        "plant:source": "gas",
        "power": "plant",
        "ref:US:EIA": "3485",
        "source": "U.S. Energy Information Administration - EIA-860m - 2025",
        "start_date": "1952-01",
        "wikidata": "Q7201499",
        "wikipedia": "en:Plant X"
      },
      "lat": 34.1660047,
      "lon": -102.4116788
    },
    {
      "type": "way",
      "id": 173858670,
      "center": {
        "lat": 28.9252291,
        "lon": -95.3259059
      },
      "tags": {
        "landuse": "industrial",
        "name": "Freeport LNG Liquefaction",
        "power": "plant",
        "utility": "gas"
      },
      "lat": 28.9252291,
      "lon": -95.3259059
    },
    {
      "type": "way",
      "id": 174016471,
      "center": {
        "lat": 29.7804521,
        "lon": -97.9905309
      },
      "tags": {
        "landuse": "industrial",
        "name": "Hays Energy Project",
        "operator": "Hays Energy, LLC",
        "plant:method": "combustion",
        "plant:output:electricity": "989 MW",
        "plant:source": "gas",
        "power": "plant",
        "ref:US:EIA": "55144",
        "source": "U.S. Energy Information Administration - EIA-860 - 2020",
        "start_date": "2002-04",
        "wikidata": "Q11974568"
      },
      "lat": 29.7804521,
      "lon": -97.9905309
    },
    {
      "type": "way",
      "id": 192621268,
      "center": {
        "lat": 29.5375972,
        "lon": -97.9320549
      },
      "tags": {
        "building": "yes",
        "name": "Nolte Power Plant",
        "operator": "Guadalupe Blanco River Authority",
        "plant:output:electricity": "2.4 MW",
        "plant:source": "hydro",
        "power": "plant",
        "ref:US:EIA": "3585",
        "source": "U.S. Energy Information Administration - EIA-860 - 2020",
        "start_date": "1927-01"
      },
      "lat": 29.5375972,
      "lon": -97.9320549
    },
    {
      "type": "way",
      "id": 201333184,
      "center": {
        "lat": 34.1864973,
        "lon": -102.5714996
      },
      "tags": {
        "barrier": "fence",
        "fence_type": "chain",
        "landuse": "industrial",
        "name": "Tolk Generating Station",
        "operator": "Southwestern Public Service Co",
        "plant:method": "combustion",
        "plant:output:electricity": "1135.8 MW",
        "plant:source": "coal",
        "power": "plant",
        "ref:US:EIA": "6194",
        "source": "U.S. Energy Information Administration - EIA-860 - 2021",
        "start_date": "1982-01",
        "wikidata": "Q12006589"
      },
      "lat": 34.1864973,
      "lon": -102.5714996
    },
    {
      "type": "way",
      "id": 205129452,
      "center": {
        "lat": 30.5931489,
        "lon": -95.9181805
      },
      "tags": {
        "landuse": "industrial",
        "name": "Tenaska Frontier Generating Station",
        "note": "Switchable between ERCOT and MISO grids",
        "operator": "Tenaska",
        "plant:method": "combustion",
        "plant:output:electricity": "939.7 MW",
        "plant:source": "gas",
        "plant:type": "combined_cycle",
        "power": "plant",
        "ref:US:EIA": "55062",
        "source": "U.S. Energy Information Administration - EIA-860 - 2020",
        "start_date": "2000-05",
        "website": "https://www.tenaska.com/power-generation/plants-projects/",
        "wikidata": "Q19392129"
      },
      "lat": 30.5931489,
      "lon": -95.9181805
    },
    {
      "type": "way",
      "id": 260510595,
      "center": {
        "lat": 33.2129735,
        "lon": -97.1470511
      },
      "tags": {
        "addr:city": "Denton",
        "addr:housenumber": "1320",
        "addr:postcode": "76201",
        "addr:state": "TX",
        "addr:street": "Sycamore Street",
        "building": "yes",
        "landuse": "industrial",
        "name": "Power Plant (PWRP)",
        "operator": "University of North Texas",
        "power": "plant",
        "source": "esri/USA_NAD_Addresses",
        "website": "https://facilities.unt.edu/power-plant"
      },
      "lat": 33.2129735,
      "lon": -97.1470511
    },
    {
      "type": "way",
      "id": 263231710,
      "center": {
        "lat": 30.4196987,
        "lon": -95.0113026
      },
      "tags": {
        "landuse": "industrial",
        "name": "San Jacinto Peaking Power Facility",
        "operator": "East Texas Electric Cooperative",
        "plant:method": "combustion",
        "plant:output:electricity": "170 MW",
        "plant:source": "gas",
        "power": "plant",
        "ref:US:EIA": "56603",
        "source": "U.S. Energy Information Administration - EIA-860 - 2020",
        "start_date": "2001-07"
      },
      "lat": 30.4196987,
      "lon": -95.0113026
    },
    {
      "type": "way",
      "id": 293287877,
      "center": {
        "lat": 33.6970032,
        "lon": -95.5576468
      },
      "tags": {
        "landuse": "industrial",
        "name": "Paris Energy Center",
        "operator": "Paris Generation LP",
        "plant:method": "combustion",
        "plant:output:electricity": "265.6 MW",
        "plant:source": "gas",
        "plant:type": "combined_cycle",
        "power": "plant",
        "ref:US:EIA": "50109",
        "source": "https://goo.gl/maps/KKStbsxKZqPc7Xfg7",
        "start_date": "1989-07",
        "wikidata": "Q19385095"
      },
      "lat": 33.6970032,
      "lon": -95.5576468
    },
    {
      "type": "way",
      "id": 303473140,
      "center": {
        "lat": 26.5573933,
        "lon": -99.1640416
      },
      "tags": {
        "building": "yes",
        "name": "Falcon Power Plant (United States Unit)",
        "operator": "International Bound & Wtr Comm",
        "plant:output:electricity": "31.5 MW",
        "plant:source": "hydro",
        "power": "plant",
        "ref:US:EIA": "6410",
        "source": "U.S. Energy Information Administration - EIA-860 - 2020",
        "start_date": "1954-10",
        "wikidata": "Q2188401"
      },
      "lat": 26.5573933,
      "lon": -99.1640416
    },
    {
      "type": "way",
      "id": 318453564,
      "center": {
        "lat": 29.2725559,
        "lon": -98.4450283
      },
      "tags": {
        "addr:city": "San Antonio",
        "addr:housenumber": "2361",
        "addr:postcode": "78214",
        "addr:state": "TX",
        "addr:street": "Blue Wing Road",
        "barrier": "fence",
        "name": "Alamo 1 Solar Farm",
        "operator": "OCI Solar Power",
        "plant:method": "photovoltaic",
        "plant:output:electricity": "41.7 MW",
        "plant:source": "solar",
        "power": "plant",
        "ref:US:EIA": "58537",
        "source": "U.S. Energy Information Administration - EIA-860 - 2020",
        "start_date": "2013-12"
      },
      "lat": 29.2725559,
      "lon": -98.4450283
    },
    {
      "type": "way",
      "id": 318453565,
      "center": {
        "lat": 29.2417345,
        "lon": -98.417614
      },
      "tags": {
        "alt_name": "SunEdison Rabel Road",
        "name": "William R. Sinkin Centennial Solar Farm 1",
        "operator": "SunEdison",
        "plant:method": "photovoltaic",
        "plant:output:electricity": "10 MW",
        "plant:source": "solar",
        "power": "plant",
        "ref:US:EIA": "58068",
        "start_date": "2012-02-15"
      },
      "lat": 29.2417345,
      "lon": -98.417614
    },
    {
      "type": "way",
      "id": 318453566,
      "center": {
        "lat": 29.2341544,
        "lon": -98.4287203
      },
      "tags": {
        "alt_name": "SunEdison Valley Road",
        "name": "William R. Sinkin Centennial Solar Farm 2",
        "operator": "SunEdison",
        "plant:method": "photovoltaic",
        "plant:output:electricity": "10 MW",
        "plant:source": "solar",
        "power": "plant",
        "ref:US:EIA": "58027",
        "start_date": "2012-02-15"
      },
      "lat": 29.2341544,
      "lon": -98.4287203
    },
    {
      "type": "way",
      "id": 318454824,
      "center": {
        "lat": 29.2261584,
        "lon": -98.6732905
      },
      "tags": {
        "name": "Somerset Solar Farm",
        "operator": "SunEdison",
        "operator:wikidata": "Q946713",
        "plant:method": "photovoltaic",
        "plant:output:electricity": "10.6 MW",
        "plant:source": "solar",
        "power": "plant",
        "ref:US:EIA": "58009",
        "source": "U.S. Energy Information Administration - EIA-860 - 2020",
        "start_date": "2012-04-01"
      },
      "lat": 29.2261584,
      "lon": -98.6732905
    },
    {
      "type": "way",
      "id": 337225056,
      "center": {
        "lat": 29.7036919,
        "lon": -95.3977826
      },
      "tags": {
        "landuse": "industrial",
        "name": "Thermal Energy Cooporation Central Plant",
        "operator": "Thermal Energy Cooporation",
        "plant:method": "combustion",
        "plant:output:cold_water": "yes",
        "plant:output:electricity": "48 MW",
        "plant:output:steam": "yes",
        "plant:source": "gas",
        "power": "plant",
        "ref:US:EIA": "57504",
        "source": "U.S. Energy Information Administration - EIA-860 - 2020",
        "start_date": "2010-09"
      },
      "lat": 29.7036919,
      "lon": -95.3977826
    },
    {
      "type": "way",
      "id": 339274388,
      "center": {
        "lat": 29.5940374,
        "lon": -98.0407397
      },
      "tags": {
        "building": "yes",
        "name": "Abbott TP 3",
        "operator": "Guadalupe Blanco River Authority",
        "plant:output:electricity": "2.8 MW",
        "plant:source": "hydro",
        "power": "plant",
        "ref:US:EIA": "3581",
        "source": "U.S. Energy Information Administration - EIA-860 - 2020",
        "start_date": "1927-01"
      },
      "lat": 29.5940374,
      "lon": -98.0407397
    },
    {
      "type": "way",
      "id": 340408023,
      "center": {
        "lat": 29.469797,
        "lon": -98.3331683
      },
      "tags": {
        "addr:city": "Converse",
        "addr:housenumber": "8203",
        "addr:postcode": "78109",
        "addr:state": "TX",
        "addr:street": "Binz-Engleman Road",
        "barrier": "fence",
        "name": "Alamo 2 Solar Farm",
        "operator": "OCI Solar Power",
        "plant:method": "photovoltaic",
        "plant:output:electricity": "4.4 MW",
        "plant:source": "solar",
        "power": "plant",
        "ref:US:EIA": "58716",
        "source": "U.S. Energy Information Administration - EIA-860 - 2020",
        "start_date": "2014-03"
      },
      "lat": 29.469797,
      "lon": -98.3331683
    },
    {
      "type": "way",
      "id": 340408024,
      "center": {
        "lat": 29.4796433,
        "lon": -98.299742
      },
      "tags": {
        "barrier": "fence",
        "name": "Alamo 3",
        "operator": "Consolidated Edison",
        "plant:method": "photovoltaic",
        "plant:output:electricity": "5.5 MW",
        "plant:source": "solar",
        "power": "plant",
        "ref:US:EIA": "59204",
        "source": "U.S. Energy Information Administration - EIA-860 - 2020",
        "start_date": "2015-01"
      },
      "lat": 29.4796433,
      "lon": -98.299742
    },
    {
      "type": "way",
      "id": 341093670,
      "center": {
        "lat": 29.8704883,
        "lon": -98.1947308
      },
      "tags": {
        "building": "yes",
        "name": "Canyon Power Plant",
        "operator": "Guadalupe Blanco River Authority",
        "plant:output:electricity": "6 MW",
        "plant:source": "hydro",
        "power": "plant",
        "ref:US:EIA": "791",
        "source": "U.S. Energy Information Administration - EIA-860 - 2020",
        "start_date": "1989-01"
      },
      "lat": 29.8704883,
      "lon": -98.1947308
    },
    {
      "type": "way",
      "id": 342660063,
      "center": {
        "lat": 29.6245719,
        "lon": -98.1413467
      },
      "tags": {
        "landuse": "industrial",
        "name": "Guadalupe Power Partners Generating Station",
        "operator": "Guadalupe Power Partners LP",
        "plant:method": "combustion",
        "plant:output:electricity": "1088.2 MW",
        "plant:source": "gas",
        "plant:type": "combined_cycle",
        "power": "plant",
        "ref:US:EIA": "55153",
        "source": "U.S. Energy Information Administration - EIA-860 - 2020",
        "start_date": "2000-10",
        "wikidata": "Q11973110"
      },
      "lat": 29.6245719,
      "lon": -98.1413467
    },
    {
      "type": "way",
      "id": 347013546,
      "center": {
        "lat": 31.9841207,
        "lon": -106.4306452
      },
      "tags": {
        "name": "Newman Power Station",
        "operator": "El Paso Electric",
        "plant:method": "combustion",
        "plant:output:electricity": "882 MW",
        "plant:source": "gas",
        "power": "plant",
        "ref:US:EIA": "3456",
        "source": "U.S. Energy Information Administration - EIA-860 - 2021",
        "start_date": "1960-05",
        "wikidata": "Q11991269"
      },
      "lat": 31.9841207,
      "lon": -106.4306452
    },
    {
      "type": "way",
      "id": 353237302,
      "center": {
        "lat": 32.3991272,
        "lon": -97.4085149
      },
      "tags": {
        "addr:housenumber": "831",
        "addr:street": "Sparks Drive",
        "landuse": "industrial",
        "name": "Johnson County Power Plant",
        "operator": "Brazos Electric Power Coop Inc",
        "plant:method": "combustion",
        "plant:output:electricity": "278 MW",
        "plant:source": "gas",
        "plant:type": "combined_cycle",
        "power": "plant",
        "ref:US:EIA": "54817",
        "source": "U.S. Energy Information Administration - EIA-860 - 2019",
        "start_date": "1996-09",
        "wikidata": "Q11979086"
      },
      "lat": 32.3991272,
      "lon": -97.4085149
    },
    {
      "type": "way",
      "id": 364021573,
      "center": {
        "lat": 29.7219675,
        "lon": -95.3416155
      },
      "tags": {
        "building": "yes",
        "landuse": "industrial",
        "name": "Central Power Plant",
        "power": "plant"
      },
      "lat": 29.7219675,
      "lon": -95.3416155
    },
    {
      "type": "way",
      "id": 368891147,
      "center": {
        "lat": 32.4299804,
        "lon": -97.054367
      },
      "tags": {
        "landuse": "industrial",
        "name": "Midlothian Energy Facility",
        "plant:method": "combustion",
        "plant:output:electricity": "1650 MW",
        "plant:source": "gas",
        "power": "plant",
        "ref:US:EIA": "55091",
        "source": "U.S. Energy Information Administration - EIA-860 - 2019",
        "start_date": "2000-05",
        "wikidata": "Q11989344"
      },
      "lat": 32.4299804,
      "lon": -97.054367
    },
    {
      "type": "way",
      "id": 374895678,
      "center": {
        "lat": 29.7239951,
        "lon": -95.3636351
      },
      "tags": {
        "building": "yes",
        "landuse": "industrial",
        "name": "Satelite Thermal Plant",
        "plant:output:cold_water": "yes",
        "plant:output:electricity": "no",
        "power": "plant"
      },
      "lat": 29.7239951,
      "lon": -95.3636351
    },
    {
      "type": "way",
      "id": 384302014,
      "center": {
        "lat": 30.3222654,
        "lon": -97.6896824
      },
      "tags": {
        "plant:method": "photovoltaic",
        "plant:output:electricity": "yes",
        "plant:source": "solar",
        "power": "plant"
      },
      "lat": 30.3222654,
      "lon": -97.6896824
    },
    {
      "type": "way",
      "id": 402581609,
      "center": {
        "lat": 30.2374802,
        "lon": -97.5080928
      },
      "tags": {
        "addr:city": "Webberville",
        "addr:postcode": "78653",
        "addr:state": "TX",
        "alt_name": "FRV AE Solar",
        "barrier": "fence",
        "developer": "Fotowatio Renewable Ventures",
        "industrial": "power_panels",
        "name": "Webberville Solar Project",
        "note": "35 MW DC before inverter; 30 MW AC output to grid",
        "operator": "RES America",
        "plant:method": "photovoltaic",
        "plant:output:electricity": "30 MW",
        "plant:source": "solar",
        "power": "plant",
        "ref:US:EIA": "57699",
        "source": "U.S. Energy Information Administration - EIA-860 - 2020",
        "start_date": "2011-12",
        "technology": "c-Si",
        "wikidata": "Q7978704"
      },
      "lat": 30.2374802,
      "lon": -97.5080928
    },
    {
      "type": "way",
      "id": 402680483,
      "center": {
        "lat": 31.842486,
        "lon": -102.3158567
      },
      "tags": {
        "landuse": "industrial",
        "name": "Quail Run Energy Center",
        "operator": "CER Quail Run Energy Partners LP",
        "plant:method": "combustion",
        "plant:output:electricity": "550.4 MW",
        "plant:source": "gas",
        "plant:type": "combined_cycle",
        "power": "plant",
        "ref:US:EIA": "56349",
        "source": "U.S. Energy Information Administration - EIA-860 - 2021",
        "start_date": "2002-05",
        "wikidata": "Q19385965"
      },
      "lat": 31.842486,
      "lon": -102.3158567
    },
    {
      "type": "way",
      "id": 405055524,
      "center": {
        "lat": 32.0706023,
        "lon": -102.585975
      },
      "tags": {
        "landuse": "industrial",
        "name": "Ector County Energy Center",
        "operator": "Invenergy",
        "plant:output:electricity": "358.8 MW",
        "plant:source": "gas",
        "power": "plant",
        "ref:US:EIA": "58471",
        "source": "U.S. Energy Information Administration - EIA-860 - 2021",
        "start_date": "2015-08"
      },
      "lat": 32.0706023,
      "lon": -102.585975
    },
    {
      "type": "way",
      "id": 407980441,
      "center": {
        "lat": 31.368121,
        "lon": -94.7422098
      },
      "tags": {
        "addr:city": "Lufkin",
        "addr:housenumber": "2000",
        "addr:postcode": "75904",
        "addr:state": "TX",
        "addr:street": "Kurth Drive",
        "landuse": "industrial",
        "name": "Aspen Power",
        "note": "Plant was built in 2011. A sharp drop in electricity prices shortly after completion caused the plant to become economically nonviable, so the plant foreclosed. It is currently mothballed and up for sale.",
        "phone": "+1 936 875 5510",
        "plant:output:electricity": "50 MW",
        "plant:source": "biomass",
        "power": "plant",
        "start_date": "2011",
        "website": "https://www.certusfin.com/wp-content/uploads/2018/04/Aspen-Power.pdf"
      },
      "lat": 31.368121,
      "lon": -94.7422098
    },
    {
      "type": "way",
      "id": 417130549,
      "center": {
        "lat": 32.2585119,
        "lon": -94.5733125
      },
      "tags": {
        "landuse": "industrial",
        "name": "Martin Lake Power Plant",
        "operator": "Luminant Generation Company LLC",
        "plant:method": "combustion",
        "plant:output:electricity": "2379.6 MW",
        "plant:source": "coal",
        "power": "plant",
        "ref:US:EIA": "6146",
        "source": "U.S. Energy Information Administration - EIA-860 - 2021",
        "start_date": "1977-05",
        "wikidata": "Q21946840"
      },
      "lat": 32.2585119,
      "lon": -94.5733125
    },
    {
      "type": "way",
      "id": 419366188,
      "center": {
        "lat": 31.4747597,
        "lon": -96.9487046
      },
      "tags": {
        "name": "Sandy Creek Energy Station",
        "operator": "Sandy Creek Energy Associates LP",
        "plant:method": "combustion",
        "plant:output:electricity": "1008 MW",
        "plant:source": "coal",
        "power": "plant",
        "ref:US:EIA": "56611",
        "source": "U.S. Energy Information Administration - EIA-860 - 2021",
        "start_date": "2013-05"
      },
      "lat": 31.4747597,
      "lon": -96.9487046
    },
    {
      "type": "way",
      "id": 419984534,
      "center": {
        "lat": 31.8389553,
        "lon": -102.3256188
      },
      "tags": {
        "landuse": "industrial",
        "name": "Odessa Ector Power Partners",
        "operator": "LaFrontera Holdings LLC",
        "plant:method": "combustion",
        "plant:output:electricity": "1152.8 MW",
        "plant:source": "gas",
        "plant:type": "combined_cycle",
        "power": "plant",
        "ref:US:EIA": "55215",
        "source": "U.S. Energy Information Administration - EIA-860 - 2021",
        "start_date": "2001-07",
        "wikidata": "Q11993203"
      },
      "lat": 31.8389553,
      "lon": -102.3256188
    },
    {
      "type": "way",
      "id": 420139935,
      "center": {
        "lat": 29.4724297,
        "lon": -95.6234236
      },
      "tags": {
        "landuse": "industrial",
        "name": "Brazos Valley Generating Facility",
        "operator": "Calpine",
        "operator:wikidata": "Q5023914",
        "plant:method": "combustion",
        "plant:output:electricity": "675.6 MW",
        "plant:source": "gas",
        "plant:type": "combined_cycle",
        "power": "plant",
        "ref:US:EIA": "55357",
        "source": "U.S. Energy Information Administration - EIA-860 - 2020",
        "start_date": "2003-05",
        "wikidata": "Q17750879"
      },
      "lat": 29.4724297,
      "lon": -95.6234236
    },
    {
      "type": "way",
      "id": 422731518,
      "center": {
        "lat": 31.8592191,
        "lon": -97.3570083
      },
      "tags": {
        "landuse": "industrial",
        "name": "Bosque Energy Center",
        "operator": "Calpine",
        "operator:wikidata": "Q5023914",
        "plant:method": "combustion",
        "plant:output:electricity": "762 MW",
        "plant:source": "gas",
        "power": "plant",
        "ref:US:EIA": "55172",
        "start_date": "2000-07",
        "wikidata": "Q17750791"
      },
      "lat": 31.8592191,
      "lon": -97.3570083
    },
    {
      "type": "way",
      "id": 422731519,
      "center": {
        "lat": 29.7188239,
        "lon": -95.232688
      },
      "tags": {
        "landuse": "industrial",
        "name": "Channel Energy Center",
        "operator": "Calpine",
        "operator:wikidata": "Q5023914",
        "plant:method": "combustion",
        "plant:output:electricity": "923.8 MW",
        "plant:output:hot_water": "yes",
        "plant:source": "gas",
        "power": "plant",
        "ref:US:EIA": "55299",
        "source": "U.S. Energy Information Administration - EIA-860 - 2020",
        "start_date": "2001-07",
        "wikidata": "Q11963432"
      },
      "lat": 29.7188239,
      "lon": -95.232688
    },
    {
      "type": "way",
      "id": 422731520,
      "center": {
        "lat": 29.7136221,
        "lon": -95.1345642
      },
      "tags": {
        "landuse": "industrial",
        "name": "Deer Park Energy Center",
        "operator": "Calpine",
        "operator:wikidata": "Q5023914",
        "plant:method": "combustion",
        "plant:output:electricity": "1176 MW",
        "plant:output:hot_water": "yes",
        "plant:source": "gas",
        "plant:type": "combined_cycle",
        "power": "plant",
        "ref:US:EIA": "55464",
        "source": "U.S. Energy Information Administration - EIA-860 - 2020",
        "start_date": "2003-06",
        "wikidata": "Q19372444"
      },
      "lat": 29.7136221,
      "lon": -95.1345642
    },
    {
      "type": "way",
      "id": 422731521,
      "center": {
        "lat": 31.890604,
        "lon": -96.1120151
      },
      "tags": {
        "landuse": "industrial",
        "name": "Freestone Energy Center",
        "operator": "Calpine",
        "operator:wikidata": "Q5023914",
        "plant:method": "combustion",
        "plant:output:electricity": "1036 MW",
        "plant:source": "gas",
        "power": "plant",
        "ref:US:EIA": "55226",
        "start_date": "2002-06",
        "wikidata": "Q11970133"
      },
      "lat": 31.890604,
      "lon": -96.1120151
    },
    {
      "type": "way",
      "id": 422731522,
      "center": {
        "lat": 26.3384176,
        "lon": -98.1908521
      },
      "tags": {
        "landuse": "industrial",
        "name": "Magic Valley Generating Station",
        "operator": "Calpine",
        "operator:wikidata": "Q5023914",
        "plant:method": "combustion",
        "plant:output:electricity": "801 MW",
        "plant:source": "gas",
        "power": "plant",
        "ref:US:EIA": "55123",
        "source": "U.S. Energy Information Administration - EIA-860 - 2020",
        "start_date": "2002-02",
        "wikidata": "Q19380840"
      },
      "lat": 26.3384176,
      "lon": -98.1908521
    },
    {
      "type": "way",
      "id": 422731523,
      "center": {
        "lat": 29.7254053,
        "lon": -95.1765286
      },
      "tags": {
        "landuse": "industrial",
        "name": "Pasadena Power Plant",
        "operator": "Calpine",
        "operator:wikidata": "Q5023914",
        "operator:wikipedia": "en:Calpine",
        "plant:method": "combustion",
        "plant:output:electricity": "815 MW",
        "plant:output:hot_water": "yes",
        "plant:source": "gas",
        "power": "plant",
        "ref:US:EIA": "55047",
        "source": "U.S. Energy Information Administration - EIA-860 - 2020",
        "start_date": "1998-06",
        "wikidata": "Q11994825"
      },
      "lat": 29.7254053,
      "lon": -95.1765286
    },
    {
      "type": "way",
      "id": 422732475,
      "center": {
        "lat": 27.8147294,
        "lon": -97.4287429
      },
      "tags": {
        "landuse": "industrial",
        "name": "Corpus Christi Energy Center",
        "operator": "Calpine",
        "operator:wikidata": "Q5023914",
        "plant:method": "combustion",
        "plant:output:electricity": "593.3 MW",
        "plant:output:hot_water": "yes",
        "plant:source": "gas",
        "power": "plant",
        "ref:US:EIA": "55206",
        "source": "U.S. Energy Information Administration - EIA-860 - 2020",
        "start_date": "2002-10",
        "wikidata": "Q17762754"
      },
      "lat": 27.8147294,
      "lon": -97.4287429
    },
    {
      "type": "way",
      "id": 422732476,
      "center": {
        "lat": 26.3417341,
        "lon": -98.1747539
      },
      "tags": {
        "landuse": "industrial",
        "name": "Hidalgo Energy Center",
        "operator": "Calpine;Brownsville Public Utilities Board",
        "plant:method": "combustion",
        "plant:output:electricity": "551.3 MW",
        "plant:source": "gas",
        "power": "plant",
        "ref:US:EIA": "55545",
        "source": "U.S. Energy Information Administration - EIA-860 - 2020",
        "start_date": "2000-06",
        "wikidata": "Q11975313"
      },
      "lat": 26.3417341,
      "lon": -98.1747539
    },
    {
      "type": "way",
      "id": 422852282,
      "center": {
        "lat": 30.0230296,
        "lon": -93.8769384
      },
      "tags": {
        "landuse": "industrial",
        "name": "Sabine Power Plant",
        "operator": "Entergy",
        "operator:wikidata": "Q1344587",
        "plant:method": "combustion",
        "plant:output:electricity": "1591.8 MW",
        "plant:source": "gas",
        "power": "plant",
        "ref:US:EIA": "3459",
        "source": "U.S. Energy Information Administration - EIA-860 - 2019",
        "start_date": "1962-01",
        "wikidata": "Q11999047"
      },
      "lat": 30.0230296,
      "lon": -93.8769384
    },
    {
      "type": "way",
      "id": 426353553,
      "center": {
        "lat": 30.2575136,
        "lon": -93.7365826
      },
      "tags": {
        "landuse": "industrial",
        "name": "Cottonwood Energy Project",
        "operator": "Cottonwood Energy Co LP",
        "plant:method": "combustion",
        "plant:output:electricity": "1220 MW",
        "plant:source": "gas",
        "plant:type": "combined_cycle",
        "power": "plant",
        "ref:US:EIA": "55358",
        "source": "U.S. Energy Information Administration - EIA-860 - 2019",
        "start_date": "2003-07",
        "wikidata": "Q17762813"
      },
      "lat": 30.2575136,
      "lon": -93.7365826
    },
    {
      "type": "way",
      "id": 427460107,
      "center": {
        "lat": 28.8294432,
        "lon": -100.5523975
      },
      "tags": {
        "building": "electricity",
        "name": "Eagle Pass Power Plant",
        "operator": "Maverick Cty Water Control & Improvement",
        "plant:output:electricity": "9.6 MW",
        "plant:source": "hydro",
        "power": "plant",
        "ref:US:EIA": "3437",
        "source": "U.S. Energy Information Administration - EIA-860 - 2020",
        "start_date": "1932-08"
      },
      "lat": 28.8294432,
      "lon": -100.5523975
    },
    {
      "type": "way",
      "id": 449155822,
      "center": {
        "lat": 32.4041434,
        "lon": -97.6991413
      },
      "tags": {
        "landuse": "industrial",
        "name": "DeCordova Power Plant",
        "operator": "Luminant",
        "plant:method": "combustion",
        "plant:output:electricity": "356 MW",
        "plant:source": "gas",
        "power": "plant",
        "ref:US:EIA": "8063",
        "wikidata": "Q11965001"
      },
      "lat": 32.4041434,
      "lon": -97.6991413
    },
    {
      "type": "way",
      "id": 449466232,
      "center": {
        "lat": 33.1020428,
        "lon": -97.9576927
      },
      "tags": {
        "landuse": "industrial",
        "name": "Jack County Power Station",
        "operator": "Brazos Electric",
        "plant:method": "combustion",
        "plant:output:electricity": "1200 MW",
        "plant:source": "gas",
        "power": "plant",
        "ref:US:EIA": "55230",
        "start_date": "2006-02",
        "wikidata": "Q11977799"
      },
      "lat": 33.1020428,
      "lon": -97.9576927
    },
    {
      "type": "way",
      "id": 451971706,
      "center": {
        "lat": 27.5668224,
        "lon": -99.5079636
      },
      "tags": {
        "landuse": "industrial",
        "name": "Laredo Power Plant",
        "operator": "CPS Energy",
        "plant:method": "combustion",
        "plant:output:electricity": "263.6 MW",
        "plant:source": "gas",
        "power": "plant",
        "ref:US:EIA": "3439",
        "source": "U.S. Energy Information Administration - EIA-860 - 2020;https://www.lmtonline.com/local/article/cps-energy-expands-talen-energy-gas-plant-19490005.php",
        "start_date": "1951-05",
        "was:operator": "Talen Texas, LLC",
        "wikidata": "Q11983226"
      },
      "lat": 27.5668224,
      "lon": -99.5079636
    },
    {
      "type": "way",
      "id": 459061986,
      "center": {
        "lat": 31.9989514,
        "lon": -102.8338923
      },
      "tags": {
        "landuse": "industrial",
        "name": "Notrees Windpower Hybrid",
        "note": "36 MW/24 MWh battery storage",
        "operator": "Duke Energy Renewables Services",
        "plant:output:electricity": "36 MW",
        "plant:source": "battery",
        "power": "plant",
        "ref:US:EIA": "56961",
        "start_date": "2012-12"
      },
      "lat": 31.9989514,
      "lon": -102.8338923
    },
    {
      "type": "way",
      "id": 459614011,
      "center": {
        "lat": 29.2167348,
        "lon": -99.7053427
      },
      "tags": {
        "alt_name": "Downie Ranch Solar",
        "name": "Alamo 5",
        "operator": "Consolidated Edison",
        "plant:method": "photovoltaic",
        "plant:output:electricity": "100 MW",
        "plant:source": "solar",
        "power": "plant",
        "ref:US:EIA": "59205",
        "source": "U.S. Energy Information Administration - EIA-860 - 2020",
        "start_date": "2015-12"
      },
      "lat": 29.2167348,
      "lon": -99.7053427
    },
    {
      "type": "way",
      "id": 459877999,
      "center": {
        "lat": 31.5838585,
        "lon": -102.9636818
      },
      "tags": {
        "landuse": "industrial",
        "name": "Permian Basin Power Plant",
        "operator": "Luminant",
        "plant:method": "combustion",
        "plant:output:electricity": "447 MW",
        "plant:source": "gas",
        "power": "plant",
        "ref:US:EIA": "3494",
        "source": "U.S. Energy Information Administration - EIA-860 - 2021",
        "start_date": "1958-06",
        "wikidata": "Q11995341"
      },
      "lat": 31.5838585,
      "lon": -102.9636818
    },
    {
      "type": "way",
      "id": 460356978,
      "center": {
        "lat": 29.4493827,
        "lon": -101.0558004
      },
      "tags": {
        "name": "Amistad Power Plant",
        "operator": "International Boundary and Water Commission",
        "plant:output:electricity": "66 MW",
        "plant:source": "hydro",
        "power": "plant",
        "ref:US:EIA": "6128",
        "source": "U.S. Energy Information Administration - EIA-860 - 2020",
        "start_date": "1983-06",
        "wikidata": "Q15179838"
      },
      "lat": 29.4493827,
      "lon": -101.0558004
    },
    {
      "type": "way",
      "id": 460794187,
      "center": {
        "lat": 32.0176435,
        "lon": -94.6202004
      },
      "tags": {
        "landuse": "industrial",
        "name": "Tenaska Gateway Generating Station",
        "note": "Switchable between ERCOT and SPP grids",
        "operator": "Tenaska",
        "plant:method": "combustion",
        "plant:output:electricity": "939.6 MW",
        "plant:source": "gas",
        "plant:type": "combined_cycle",
        "power": "plant",
        "ref:US:EIA": "55132",
        "source": "U.S. Energy Information Administration - EIA-860 - 2021",
        "start_date": "2001-07",
        "wikidata": "Q12005472"
      },
      "lat": 32.0176435,
      "lon": -94.6202004
    },
    {
      "type": "way",
      "id": 460979363,
      "center": {
        "lat": 32.1267945,
        "lon": -96.1015613
      },
      "tags": {
        "landuse": "industrial",
        "name": "Trinidad Power Plant",
        "operator": "Luminant",
        "plant:method": "combustion",
        "plant:output:electricity": "244 MW",
        "plant:source": "gas",
        "power": "plant",
        "ref:US:EIA": "3507",
        "start_date": "1965-05"
      },
      "lat": 32.1267945,
      "lon": -96.1015613
    },
    {
      "type": "way",
      "id": 462426909,
      "center": {
        "lat": 31.0547233,
        "lon": -97.3135712
      },
      "tags": {
        "landuse": "industrial",
        "name": "Panda Temple Power Station",
        "operator": "PPG - O&M Panda Temple Power LLC",
        "plant:method": "combustion",
        "plant:output:electricity": "1540 MW",
        "plant:source": "gas",
        "power": "plant",
        "ref:US:EIA": "58001",
        "source": "U.S. Energy Information Administration - EIA-860 - 2019"
      },
      "lat": 31.0547233,
      "lon": -97.3135712
    },
    {
      "type": "way",
      "id": 462426910,
      "center": {
        "lat": 31.072611,
        "lon": -97.3417698
      },
      "tags": {
        "plant:method": "photovoltaic",
        "plant:output:electricity": "yes",
        "plant:source": "solar",
        "power": "plant"
      },
      "lat": 31.072611,
      "lon": -97.3417698
    },
    {
      "type": "way",
      "id": 462642572,
      "center": {
        "lat": 30.2099124,
        "lon": -97.6135968
      },
      "tags": {
        "addr:housenumber": "1101",
        "addr:postcode": "78617",
        "addr:street": "Fallwell Lane",
        "landuse": "industrial",
        "name": "Sand Hill Energy Center",
        "operator": "Austin Energy",
        "plant:method": "combustion",
        "plant:output:electricity": "696.4 MW",
        "plant:source": "gas",
        "power": "plant",
        "ref:US:EIA": "7900",
        "source": "U.S. Energy Information Administration - EIA-860 - 2020",
        "start_date": "2001-06",
        "wikidata": "Q11999356"
      },
      "lat": 30.2099124,
      "lon": -97.6135968
    },
    {
      "type": "way",
      "id": 462642757,
      "center": {
        "lat": 30.1456789,
        "lon": -97.5490628
      },
      "tags": {
        "landuse": "industrial",
        "name": "Bastrop Energy Center",
        "operator": "Bastrop Energy Partners",
        "plant:method": "combustion",
        "plant:output:electricity": "618.7 MW",
        "plant:source": "gas",
        "power": "plant",
        "ref:US:EIA": "55168",
        "source": "U.S. Energy Information Administration - EIA-860 - 2020",
        "start_date": "2002-05",
        "wikidata": "Q11960336"
      },
      "lat": 30.1456789,
      "lon": -97.5490628
    },
    {
      "type": "way",
      "id": 463732504,
      "center": {
        "lat": 35.6959971,
        "lon": -101.3605911
      },
      "tags": {
        "landuse": "industrial",
        "name": "Blackhawk Station",
        "operator": "Borger Energy Associates",
        "plant:method": "combustion",
        "plant:output:electricity": "243.9 MW",
        "plant:output:hot_water": "yes",
        "plant:output:steam": "yes",
        "plant:source": "gas",
        "power": "plant",
        "ref:US:EIA": "55064",
        "source": "U.S. Energy Information Administration - EIA-860 - 2021",
        "start_date": "1999-06"
      },
      "lat": 35.6959971,
      "lon": -101.3605911
    },
    {
      "type": "way",
      "id": 463732741,
      "center": {
        "lat": 35.3017357,
        "lon": -101.7509242
      },
      "tags": {
        "landuse": "industrial",
        "name": "Harrington Generating Station",
        "operator": "Southwestern Public Service Co",
        "plant:method": "combustion",
        "plant:output:electricity": "1080 MW",
        "plant:source": "coal",
        "power": "plant",
        "ref:US:EIA": "6193",
        "source": "U.S. Energy Information Administration - EIA-860 - 2021",
        "start_date": "1976-01",
        "wikidata": "Q11974356"
      },
      "lat": 35.3017357,
      "lon": -101.7509242
    },
    {
      "type": "way",
      "id": 463732742,
      "center": {
        "lat": 35.2870905,
        "lon": -101.75095
      },
      "tags": {
        "landuse": "industrial",
        "name": "Nichols Generating Station",
        "operator": "Southwestern Public Service Co",
        "plant:method": "combustion",
        "plant:output:electricity": "474.7 MW",
        "plant:source": "gas",
        "power": "plant",
        "ref:US:EIA": "3484",
        "source": "U.S. Energy Information Administration - EIA-860 - 2021",
        "start_date": "1960-01",
        "wikidata": "Q11991312"
      },
      "lat": 35.2870905,
      "lon": -101.75095
    },
    {
      "type": "way",
      "id": 465695766,
      "center": {
        "lat": 33.526052,
        "lon": -101.7386958
      },
      "tags": {
        "barrier": "fence",
        "landuse": "industrial",
        "name": "Jones Generating Station",
        "operator": "Southwestern Public Service Co",
        "plant:method": "combustion",
        "plant:output:electricity": "860.4 MW",
        "plant:source": "gas",
        "power": "plant",
        "ref:US:EIA": "3482",
        "source": "U.S. Energy Information Administration - EIA-860 - 2021",
        "start_date": "1971-01",
        "wikidata": "Q19376424"
      },
      "lat": 33.526052,
      "lon": -101.7386958
    },
    {
      "type": "way",
      "id": 467959231,
      "center": {
        "lat": 32.7475339,
        "lon": -100.9543194
      },
      "tags": {
        "landuse": "industrial",
        "name": "EG178 Facility",
        "operator": "Kinder Morgan Production Company LP",
        "plant:method": "combustion",
        "plant:output:electricity": "153.9 MW",
        "plant:output:steam": "yes",
        "plant:source": "gas",
        "plant:type": "combined_cycle",
        "power": "plant",
        "ref:US:EIA": "56233",
        "source": "U.S. Energy Information Administration - EIA-860 - 2021",
        "start_date": "2005-06"
      },
      "lat": 32.7475339,
      "lon": -100.9543194
    },
    {
      "type": "way",
      "id": 468019587,
      "center": {
        "lat": 32.2733827,
        "lon": -101.4224696
      },
      "tags": {
        "alt_name": "C R Wing Cogen Plant",
        "landuse": "industrial",
        "name": "Power Resources Cogeneration Plant",
        "old_operator": "Falcon Seaboard",
        "operator": "Berkshire Hathaway Energy",
        "plant:method": "combustion",
        "plant:output:electricity": "230 MW",
        "plant:output:hot_water": "yes",
        "plant:output:steam": "yes",
        "plant:source": "gas",
        "plant:type": "combined_cycle",
        "power": "plant",
        "ref:US:EIA": "52176",
        "source": "U.S. Energy Information Administration - EIA-860 - 2021",
        "start_date": "1987-07",
        "wikidata": "Q116714242"
      },
      "lat": 32.2733827,
      "lon": -101.4224696
    },
    {
      "type": "way",
      "id": 490163553,
      "center": {
        "lat": 33.8643213,
        "lon": -101.8379637
      },
      "tags": {
        "landuse": "industrial",
        "name": "Antelope Elk Energy Center",
        "note": "All generators except Elk 3 can be connected to either SPP grid or ERCOT grid",
        "operator": "Golden Spread Electric Cooperative",
        "plant:method": "combustion",
        "plant:output:electricity": "766.8 MW",
        "plant:source": "gas",
        "power": "plant",
        "ref:US:EIA": "57865;58835",
        "source": "U.S. Energy Information Administration - EIA-860 - 2021",
        "start_date": "2011-06"
      },
      "lat": 33.8643213,
      "lon": -101.8379637
    },
    {
      "type": "way",
      "id": 493980715,
      "center": {
        "lat": 31.1736405,
        "lon": -93.5652695
      },
      "tags": {
        "name": "Toledo Bend Power Plant",
        "operator": "Sabine River Authority",
        "plant:output:electricity": "81 MW",
        "plant:source": "hydro",
        "power": "plant",
        "ref:US:EIA": "6595",
        "source": "U.S. Energy Information Administration - EIA-860 - 2020",
        "start_date": "1969-02",
        "wikidata": "Q65204184"
      },
      "lat": 31.1736405,
      "lon": -93.5652695
    },
    {
      "type": "way",
      "id": 496987908,
      "center": {
        "lat": 30.7215298,
        "lon": -96.4596481
      },
      "tags": {
        "landuse": "industrial",
        "name": "Dansby Power Plant",
        "official_name": "Roland C. Dansby Power Plant",
        "operator": "Bryan Texas Utilities",
        "plant:method": "combustion",
        "plant:output:electricity": "203.2 MW",
        "plant:source": "gas",
        "power": "plant",
        "ref:US:EIA": "6243",
        "source": "U.S. Energy Information Administration - EIA-860 - 2020",
        "start_date": "1978-09"
      },
      "lat": 30.7215298,
      "lon": -96.4596481
    },
    {
      "type": "way",
      "id": 500535879,
      "center": {
        "lat": 30.9597603,
        "lon": -103.3545792
      },
      "tags": {
        "name": "Barilla Solar",
        "operator": "First Solar",
        "plant:method": "photovoltaic",
        "plant:output:electricity": "30.2 MW",
        "plant:source": "solar",
        "power": "plant",
        "ref:US:EIA": "58710",
        "source": "U.S. Energy Information Administration - EIA-860 - 2021",
        "start_date": "2015-06"
      },
      "lat": 30.9597603,
      "lon": -103.3545792
    },
    {
      "type": "way",
      "id": 500541709,
      "center": {
        "lat": 32.7001183,
        "lon": -97.3108515
      },
      "tags": {
        "addr:housenumber": "3298",
        "addr:street": "Yuma Street",
        "description": "Abandoned",
        "landuse": "industrial",
        "plant:method": "combustion",
        "plant:output:electricity": "yes",
        "plant:source": "waste",
        "power": "plant"
      },
      "lat": 32.7001183,
      "lon": -97.3108515
    },
    {
      "type": "way",
      "id": 503264100,
      "center": {
        "lat": 30.4565312,
        "lon": -103.4809555
      },
      "tags": {
        "name": "SolaireHolman 1",
        "operator": "Solairedirect",
        "plant:method": "photovoltaic",
        "plant:output:electricity": "50 MW",
        "plant:source": "solar",
        "power": "plant",
        "ref:US:EIA": "60989",
        "start_date": "2017"
      },
      "lat": 30.4565312,
      "lon": -103.4809555
    },
    {
      "type": "way",
      "id": 503420911,
      "center": {
        "lat": 29.590984,
        "lon": -104.3304073
      },
      "tags": {
        "alt_name": "FRV Bryan Solar",
        "name": "Acacia Solar",
        "plant:method": "photovoltaic",
        "plant:output:electricity": "10 MW",
        "plant:source": "solar",
        "power": "plant",
        "ref:US:EIA": "58488",
        "start_date": "2012"
      },
      "lat": 29.590984,
      "lon": -104.3304073
    },
    {
      "type": "way",
      "id": 504555597,
      "center": {
        "lat": 30.5573746,
        "lon": -98.3720716
      },
      "tags": {
        "landuse": "industrial",
        "name": "Thomas C. Ferguson Power Plant",
        "operator": "Lower Colorado River Authority",
        "operator:short": "LCRA",
        "operator:wikidata": "Q16155608",
        "plant:method": "combustion",
        "plant:output:electricity": "574.6 MW",
        "plant:source": "gas",
        "power": "plant",
        "ref:US:EIA": "4937",
        "source": "U.S. Energy Information Administration - EIA-860 - 2020",
        "start_date": "1974-08",
        "wikidata": "Q7788133",
        "wikipedia": "en:Thomas C. Ferguson Power Plant"
      },
      "lat": 30.5573746,
      "lon": -98.3720716
    },
    {
      "type": "way",
      "id": 504607152,
      "center": {
        "lat": 30.5561513,
        "lon": -98.2569939
      },
      "tags": {
        "alt_name": "Marble Falls Power Plant",
        "landuse": "industrial",
        "name": "Starcke Power Plant",
        "operator": "Lower Colorado River Authority",
        "operator:short": "LCRA",
        "operator:wikidata": "Q16155608",
        "plant:output:electricity": "39.6 MW",
        "plant:source": "hydro",
        "power": "plant",
        "ref:US:EIA": "3599",
        "source": "U.S. Energy Information Administration - EIA-860 - 2020",
        "start_date": "1951-09"
      },
      "lat": 30.5561513,
      "lon": -98.2569939
    },
    {
      "type": "way",
      "id": 504607276,
      "center": {
        "lat": 30.5563174,
        "lon": -98.338302
      },
      "tags": {
        "alt_name": "Granite Shoals Power Plant",
        "landuse": "industrial",
        "name": "Wirtz Power Plant",
        "operator": "Lower Colorado River Authority",
        "operator:short": "LCRA",
        "operator:wikidata": "Q16155608",
        "plant:output:electricity": "54 MW",
        "plant:source": "hydro",
        "power": "plant",
        "ref:US:EIA": "3597",
        "source": "U.S. Energy Information Administration - EIA-860 - 2020",
        "start_date": "1951",
        "wikidata": "Q14711411"
      },
      "lat": 30.5563174,
      "lon": -98.338302
    },
    {
      "type": "way",
      "id": 504634990,
      "center": {
        "lat": 30.7509954,
        "lon": -98.4177435
      },
      "tags": {
        "name": "Buchanan Power Plant",
        "operator": "Lower Colorado River Authority",
        "operator:short": "LCRA",
        "operator:wikidata": "Q16155608",
        "plant:output:electricity": "54.9 MW",
        "plant:source": "hydro",
        "power": "plant",
        "ref:US:EIA": "3595",
        "source": "U.S. Energy Information Administration - EIA-860 - 2020",
        "start_date": "1938"
      },
      "lat": 30.7509954,
      "lon": -98.4177435
    },
    {
      "type": "way",
      "id": 504635016,
      "center": {
        "lat": 30.7314146,
        "lon": -98.3854673
      },
      "tags": {
        "name": "Inks Power Plant",
        "operator": "Lower Colorado River Authority",
        "operator:short": "LCRA",
        "operator:wikidata": "Q16155608",
        "plant:output:electricity": "15 MW",
        "plant:source": "hydro",
        "power": "plant",
        "ref:US:EIA": "3598",
        "source": "U.S. Energy Information Administration - EIA-860 - 2020",
        "start_date": "1938"
      },
      "lat": 30.7314146,
      "lon": -98.3854673
    },
    {
      "type": "way",
      "id": 504849079,
      "center": {
        "lat": 31.1148391,
        "lon": -97.8472431
      },
      "tags": {
        "name": "Phantom Solar",
        "note": "Power is sold to Fort Hood under 30 year agreement",
        "operator": "Apex Clean Energy",
        "plant:method": "photovoltaic",
        "plant:output:electricity": "15.4 MW",
        "plant:source": "solar",
        "power": "plant",
        "ref:US:EIA": "60774",
        "source": "U.S. Energy Information Administration - EIA-860 - 2021",
        "start_date": "2017-04"
      },
      "lat": 31.1148391,
      "lon": -97.8472431
    },
    {
      "type": "way",
      "id": 508017023,
      "center": {
        "lat": 31.8649043,
        "lon": -97.3716905
      },
      "tags": {
        "name": "Lake Whitney Power Plant",
        "operator": "U.S. Army Corps of Engineers",
        "plant:output:electricity": "48 MW",
        "plant:source": "hydro",
        "power": "plant",
        "ref:US:EIA": "6414",
        "start_date": "1953"
      },
      "lat": 31.8649043,
      "lon": -97.3716905
    },
    {
      "type": "way",
      "id": 508684688,
      "center": {
        "lat": 30.389919,
        "lon": -97.9080527
      },
      "tags": {
        "landuse": "industrial",
        "name": "Marshall Ford Power Plant",
        "operator": "Lower Colorado River Authority",
        "operator:short": "LCRA",
        "operator:wikidata": "Q16155608",
        "plant:output:electricity": "108 MW",
        "plant:source": "hydro",
        "power": "plant",
        "ref:US:EIA": "3600",
        "source": "U.S. Energy Information Administration - EIA-860 - 2020",
        "start_date": "1941",
        "wikidata": "Q6751639"
      },
      "lat": 30.389919,
      "lon": -97.9080527
    },
    {
      "type": "way",
      "id": 508764501,
      "center": {
        "lat": 30.2936365,
        "lon": -97.7848585
      },
      "tags": {
        "landuse": "industrial",
        "name": "Tom Miller Power Plant",
        "operator": "Lower Colorado River Authority",
        "operator:short": "LCRA",
        "operator:wikidata": "Q16155608",
        "plant:output:electricity": "18 MW",
        "plant:source": "hydro",
        "power": "plant",
        "ref:US:EIA": "3594",
        "source": "U.S. Energy Information Administration - EIA-860 - 2020",
        "start_date": "1940",
        "wikidata": "Q7816897"
      },
      "lat": 30.2936365,
      "lon": -97.7848585
    },
    {
      "type": "way",
      "id": 509273328,
      "center": {
        "lat": 30.3062937,
        "lon": -97.6142437
      },
      "tags": {
        "landuse": "industrial",
        "name": "Decker Creek Power Station",
        "operator": "Austin Energy",
        "plant:method": "combustion",
        "plant:output:electricity": "611 MW",
        "plant:source": "gas",
        "power": "plant",
        "ref:US:EIA": "3548",
        "source": "U.S. Energy Information Administration - EIA-860 - 2020",
        "start_date": "1971-07",
        "wikidata": "Q11965000"
      },
      "lat": 30.3062937,
      "lon": -97.6142437
    },
    {
      "type": "way",
      "id": 510839027,
      "center": {
        "lat": 30.0248639,
        "lon": -96.9934992
      },
      "tags": {
        "landuse": "industrial",
        "name": "Winchester Power Park",
        "operator": "Lower Colorado River Authority",
        "operator:short": "LCRA",
        "operator:wikidata": "Q16155608",
        "plant:method": "combustion",
        "plant:output:electricity": "242 MW",
        "plant:source": "gas",
        "power": "plant",
        "ref:US:EIA": "56674",
        "source": "https://www.industryabout.com/country-territories-3/873-usa/fossil-fuels-energy/54582-winchester-gas-power-plant",
        "start_date": "2010-05"
      },
      "lat": 30.0248639,
      "lon": -96.9934992
    },
    {
      "type": "way",
      "id": 512042697,
      "center": {
        "lat": 26.4505602,
        "lon": -98.1771126
      },
      "tags": {
        "landuse": "industrial",
        "name": "Red Gate Power Plant",
        "operator": "South Texas Electric Cooperative",
        "plant:method": "combustion",
        "plant:output:electricity": "224.4 MW",
        "plant:source": "gas",
        "power": "plant",
        "ref:US:EIA": "59391",
        "source": "U.S. Energy Information Administration - EIA-860 - 2020",
        "start_date": "2016-12"
      },
      "lat": 26.4505602,
      "lon": -98.1771126
    },
    {
      "type": "way",
      "id": 512644989,
      "center": {
        "lat": 26.2086081,
        "lon": -98.3986958
      },
      "tags": {
        "alt_name": "Energia Buenavista",
        "landuse": "industrial",
        "name": "Frontera Energy Center",
        "note": "Designed to be switchable between ERCOT and CFE power grids. Began exporting power exclusively to CFE in 2016.",
        "operator": "Frontera Generation Limited Partnership",
        "plant:method": "combustion",
        "plant:output:electricity": "529 MW",
        "plant:source": "gas",
        "plant:type": "combined_cycle",
        "power": "plant",
        "ref:US:EIA": "55098",
        "source": "U.S. Energy Information Administration - EIA-860 - 2024",
        "start_date": "1999-06"
      },
      "lat": 26.2086081,
      "lon": -98.3986958
    },
    {
      "type": "way",
      "id": 513680414,
      "center": {
        "lat": 25.9132609,
        "lon": -97.5221479
      },
      "tags": {
        "landuse": "industrial",
        "name": "Silas Ray Power Plant",
        "operator": "Brownsville Public Utilities Board",
        "plant:method": "combustion",
        "plant:output:electricity": "142.5 MW",
        "plant:source": "gas",
        "power": "plant",
        "ref:US:EIA": "3559",
        "source": "U.S. Energy Information Administration - EIA-860 - 2020",
        "start_date": "1952-05"
      },
      "lat": 25.9132609,
      "lon": -97.5221479
    },
    {
      "type": "way",
      "id": 514740376,
      "center": {
        "lat": 27.8918631,
        "lon": -97.2719984
      },
      "tags": {
        "landuse": "industrial",
        "name": "Corpus Christi LNG Terminal",
        "operator": "Cheniere Energy",
        "power": "plant",
        "utility": "gas"
      },
      "lat": 27.8918631,
      "lon": -97.2719984
    },
    {
      "type": "way",
      "id": 514740384,
      "center": {
        "lat": 27.8831437,
        "lon": -97.2462599
      },
      "tags": {
        "landuse": "industrial",
        "name": "Ingleside Cogeneration Plant",
        "operator": "Chemours;Occidental Petroleum",
        "plant:output:electricity": "517 MW",
        "plant:output:hot_water": "yes",
        "plant:output:steam": "yes",
        "plant:source": "gas",
        "power": "plant",
        "ref:US:EIA": "55313",
        "source": "U.S. Energy Information Administration - EIA-860 - 2020",
        "start_date": "1999-07",
        "wikidata": "Q19375636"
      },
      "lat": 27.8831437,
      "lon": -97.2462599
    },
    {
      "type": "way",
      "id": 514740385,
      "center": {
        "lat": 27.8894866,
        "lon": -97.2588695
      },
      "tags": {
        "name": "Gregory Cogeneration Plant",
        "operator": "NRG Energy",
        "plant:output:electricity": "432 MW",
        "plant:output:steam": "yes",
        "plant:source": "gas",
        "plant:type": "combined_cycle",
        "power": "plant",
        "ref:US:EIA": "55086",
        "source": "U.S. Energy Information Administration - EIA-860 - 2020",
        "start_date": "2000-07",
        "wikidata": "Q17778427"
      },
      "lat": 27.8894866,
      "lon": -97.2588695
    },
    {
      "type": "way",
      "id": 515325972,
      "center": {
        "lat": 28.7221937,
        "lon": -97.2122753
      },
      "tags": {
        "landuse": "industrial",
        "name": "Coleto Creek Power Station",
        "operator": "Dynegy",
        "plant:method": "combustion",
        "plant:output:electricity": "622.4 MW",
        "plant:source": "coal",
        "power": "plant",
        "ref:US:EIA": "6178",
        "source": "U.S. Energy Information Administration - EIA-860 - 2020",
        "start_date": "1980-06",
        "wikidata": "Q11963966"
      },
      "lat": 28.7221937,
      "lon": -97.2122753
    },
    {
      "type": "way",
      "id": 515589164,
      "center": {
        "lat": 28.6480255,
        "lon": -96.5454596
      },
      "tags": {
        "landuse": "industrial",
        "name": "Point Comfort Power Plant",
        "operator": "Peaker Power, LLC",
        "plant:method": "combustion",
        "plant:output:electricity": "121 MW",
        "plant:source": "gas",
        "power": "plant",
        "ref:US:EIA": "60459",
        "source": "https://opengovus.com/texas-taxpayer/32059942634",
        "start_date": "2017-07"
      },
      "lat": 28.6480255,
      "lon": -96.5454596
    },
    {
      "type": "way",
      "id": 515589171,
      "center": {
        "lat": 28.6950098,
        "lon": -96.5433441
      },
      "tags": {
        "landuse": "industrial",
        "name": "Formosa Cogeneration Plant",
        "operator": "Formosa Plastics",
        "plant:method": "combustion",
        "plant:output:electricity": "689.4 MW",
        "plant:output:hot_water": "yes",
        "plant:source": "gas",
        "power": "plant",
        "ref:US:EIA": "10554",
        "source": "U.S. Energy Information Administration - EIA-860 - 2020",
        "start_date": "1987-03",
        "wikidata": "Q17773318"
      },
      "lat": 28.6950098,
      "lon": -96.5433441
    },
    {
      "type": "way",
      "id": 515589291,
      "center": {
        "lat": 28.6487094,
        "lon": -96.5398378
      },
      "tags": {
        "landuse": "industrial",
        "name": "CFB Power Plant",
        "operator": "Formosa Plastics",
        "plant:method": "combustion",
        "plant:output:electricity": "310 MW",
        "plant:source": "gas",
        "power": "plant",
        "ref:US:EIA": "56708",
        "source": "U.S. Energy Information Administration - EIA-860 - 2020",
        "start_date": "2012-03"
      },
      "lat": 28.6487094,
      "lon": -96.5398378
    },
    {
      "type": "way",
      "id": 515655227,
      "center": {
        "lat": 28.8936767,
        "lon": -97.1340979
      },
      "tags": {
        "landuse": "industrial",
        "name": "Sam Rayburn Power Plant",
        "operator": "South Texas Electric Cooperative",
        "plant:method": "combustion",
        "plant:output:electricity": "215.2 MW",
        "plant:source": "gas",
        "power": "plant",
        "ref:US:EIA": "3631",
        "source": "U.S. Energy Information Administration - EIA-860 - 2020",
        "start_date": "1963-03"
      },
      "lat": 28.8936767,
      "lon": -97.1340979
    },
    {
      "type": "way",
      "id": 515655407,
      "center": {
        "lat": 28.7877361,
        "lon": -97.0098926
      },
      "tags": {
        "landuse": "industrial",
        "name": "Victoria Power Station",
        "operator": "Rockland Capital",
        "plant:method": "combustion",
        "plant:output:electricity": "376.9 MW",
        "plant:source": "gas",
        "power": "plant",
        "ref:US:EIA": "3443",
        "source": "U.S. Energy Information Administration - EIA-860 - 2020",
        "start_date": "1955-03"
      },
      "lat": 28.7877361,
      "lon": -97.0098926
    },
    {
      "type": "way",
      "id": 517717765,
      "center": {
        "lat": 32.079675,
        "lon": -97.7652585
      },
      "tags": {
        "name": "Walnut Springs Solar",
        "operator": "Cypress Creek Renewables",
        "plant:method": "photovoltaic",
        "plant:output:electricity": "5 MW",
        "plant:source": "solar",
        "power": "plant",
        "ref:US:EIA": "61370",
        "source": "U.S. Energy Information Administration - EIA-860 - 2021",
        "start_date": "2016-12"
      },
      "lat": 32.079675,
      "lon": -97.7652585
    },
    {
      "type": "way",
      "id": 519171305,
      "center": {
        "lat": 32.3966389,
        "lon": -94.4353847
      },
      "tags": {
        "landuse": "industrial",
        "name": "Harrison County Power Project",
        "operator": "Northeast Texas Elec Coop, Inc",
        "plant:method": "combustion",
        "plant:output:electricity": "570 MW",
        "plant:source": "gas",
        "plant:type": "combined_cycle",
        "power": "plant",
        "ref:US:EIA": "55664",
        "source": "U.S. Energy Information Administration - EIA-860 - 2021",
        "start_date": "2003-06",
        "wikidata": "Q11974357"
      },
      "lat": 32.3966389,
      "lon": -94.4353847
    },
    {
      "type": "way",
      "id": 520305123,
      "center": {
        "lat": 29.5507425,
        "lon": -96.538739
      },
      "tags": {
        "landuse": "industrial",
        "name": "Sky Global Power One",
        "operator": "Sky Global Partners",
        "plant:output:electricity": "51 MW",
        "plant:source": "gas",
        "power": "plant",
        "ref:US:EIA": "59938",
        "source": "U.S. Energy Information Administration - EIA-860 - 2020",
        "start_date": "2016-05"
      },
      "lat": 29.5507425,
      "lon": -96.538739
    },
    {
      "type": "way",
      "id": 520385174,
      "center": {
        "lat": 29.2634347,
        "lon": -95.900308
      },
      "tags": {
        "landuse": "industrial",
        "name": "Newgulf Cogeneration Plant",
        "operator": "Wharton County Generation LLC",
        "plant:method": "combustion",
        "plant:output:electricity": "85 MW",
        "plant:source": "gas",
        "power": "plant",
        "ref:US:EIA": "50137",
        "source": "U.S. Energy Information Administration - EIA-860 - 2020;https://www.gem.wiki/Newgulf_cogeneration_power_station",
        "start_date": "1984-04"
      },
      "lat": 29.2634347,
      "lon": -95.900308
    },
    {
      "type": "way",
      "id": 520385241,
      "center": {
        "lat": 29.2881575,
        "lon": -96.0687245
      },
      "tags": {
        "landuse": "industrial",
        "name": "Colorado Bend Power Plant",
        "operator": "Exelon",
        "operator:wikidata": "Q1383669",
        "plant:method": "combustion",
        "plant:output:electricity": "580.1 MW",
        "plant:source": "gas",
        "power": "plant",
        "ref:US:EIA": "56350",
        "source": "U.S. Energy Information Administration - EIA-860 - 2020",
        "start_date": "2002-05",
        "wikidata": "Q11963984"
      },
      "lat": 29.2881575,
      "lon": -96.0687245
    },
    {
      "type": "way",
      "id": 521857228,
      "center": {
        "lat": 29.4920709,
        "lon": -94.9842056
      },
      "tags": {
        "alt_name": "P. H. Robinson Peaker Plant",
        "landuse": "industrial",
        "name": "Bacliff",
        "operator": "NRG Energy",
        "operator:wikidata": "Q6955139",
        "plant:method": "combustion",
        "plant:output:electricity": "427.2 MW",
        "plant:source": "gas",
        "power": "plant",
        "ref:US:EIA": "60264",
        "source": "U.S. Energy Information Administration - EIA-860 - 2020",
        "start_date": "2018-07"
      },
      "lat": 29.4920709,
      "lon": -94.9842056
    },
    {
      "type": "way",
      "id": 534143847,
      "center": {
        "lat": 32.4324441,
        "lon": -96.8693854
      },
      "tags": {
        "plant:method": "photovoltaic",
        "plant:output:electricity": "yes",
        "plant:source": "solar",
        "power": "plant"
      },
      "lat": 32.4324441,
      "lon": -96.8693854
    },
    {
      "type": "way",
      "id": 544828059,
      "center": {
        "lat": 31.9407046,
        "lon": -94.9921037
      },
      "tags": {
        "landuse": "industrial",
        "name": "Stryker Creek Power Plant",
        "operator": "Luminant Generation Company LLC",
        "plant:output:electricity": "713.4 MW",
        "plant:source": "gas;oil",
        "power": "plant",
        "ref:US:EIA": "3504",
        "source": "U.S. Energy Information Administration - EIA-860 - 2021",
        "start_date": "1958-06",
        "wikidata": "Q12003668"
      },
      "lat": 31.9407046,
      "lon": -94.9921037
    },
    {
      "type": "way",
      "id": 579695442,
      "center": {
        "lat": 31.0696651,
        "lon": -102.8328822
      },
      "tags": {
        "name": "Buckthorn Solar",
        "operator": "NRG Energy",
        "plant:method": "photovoltaic",
        "plant:output:electricity": "154 MW",
        "plant:source": "solar",
        "power": "plant",
        "ref:US:EIA": "60044",
        "source": "U.S. Energy Information Administration - EIA-860 - 2021",
        "start_date": "2018-05"
      },
      "lat": 31.0696651,
      "lon": -102.8328822
    },
    {
      "type": "way",
      "id": 579799484,
      "center": {
        "lat": 31.2615729,
        "lon": -102.2771955
      },
      "tags": {
        "alt_name": "Upton County Solar 2",
        "barrier": "fence",
        "name": "Castle Gap Solar Hybrid",
        "operator": "Upton County Solar 2 LLC",
        "plant:method": "photovoltaic",
        "plant:output:electricity": "189.9 MW",
        "plant:source": "solar;battery",
        "power": "plant",
        "ref": "CGAP",
        "ref:US:EIA": "60123",
        "source": "U.S. Energy Information Administration - EIA-860 - 2022",
        "start_date": "2018-05"
      },
      "lat": 31.2615729,
      "lon": -102.2771955
    },
    {
      "type": "way",
      "id": 579799496,
      "center": {
        "lat": 31.251591,
        "lon": -102.267903
      },
      "tags": {
        "alt_name": "Upton County Solar 1",
        "barrier": "fence",
        "name": "Upton County Solar",
        "operator": "Consolidated Edison Development Inc.",
        "plant:method": "photovoltaic",
        "plant:output:electricity": "150 MW",
        "plant:source": "solar",
        "power": "plant",
        "ref:US:EIA": "60581",
        "source": "U.S. Energy Information Administration - EIA-860 - 2021",
        "start_date": "2017-12"
      },
      "lat": 31.251591,
      "lon": -102.267903
    },
    {
      "type": "way",
      "id": 583388823,
      "center": {
        "lat": 29.0725006,
        "lon": -95.744652
      },
      "tags": {
        "landuse": "industrial",
        "name": "Sweeny Cogeneration",
        "operator": "Sweeny Cogeneration LP",
        "plant:method": "combustion",
        "plant:output:electricity": "572 MW",
        "plant:output:hot_water": "yes",
        "plant:source": "gas",
        "power": "plant",
        "ref:US:EIA": "55015",
        "source": "U.S. Energy Information Administration - EIA-860 - 2020",
        "start_date": "1997-08",
        "wikidata": "Q19391446"
      },
      "lat": 29.0725006,
      "lon": -95.744652
    },
    {
      "type": "way",
      "id": 584370755,
      "center": {
        "lat": 29.3778465,
        "lon": -94.933197
      },
      "tags": {
        "alt_name": "South Houston Green Power",
        "landuse": "industrial",
        "name": "Green Power 2 Power Plant",
        "operator": "Marathon",
        "plant:method": "combustion",
        "plant:output:electricity": "861 MW",
        "plant:output:hot_water": "yes",
        "plant:source": "gas",
        "power": "plant",
        "ref:US:EIA": "55470",
        "source": "https://www.industryabout.com/country-territories-3/873-usa/fossil-fuels-energy/11802-green-power-2-gas-power-plant",
        "start_date": "2003-12",
        "wikidata": "Q11972513"
      },
      "lat": 29.3778465,
      "lon": -94.933197
    },
    {
      "type": "way",
      "id": 584370756,
      "center": {
        "lat": 29.3786301,
        "lon": -94.9431181
      },
      "tags": {
        "landuse": "industrial",
        "name": "Texas City Power Plant",
        "operator": "Calpine",
        "operator:wikidata": "Q5023914",
        "plant:method": "combustion",
        "plant:output:electricity": "450 MW",
        "plant:output:hot_water": "yes",
        "plant:source": "gas",
        "power": "plant",
        "ref:US:EIA": "52088",
        "source": "U.S. Energy Information Administration - EIA-860 - 2020",
        "start_date": "1987-05",
        "wikidata": "Q12005676"
      },
      "lat": 29.3786301,
      "lon": -94.9431181
    },
    {
      "type": "way",
      "id": 584370758,
      "center": {
        "lat": 29.3761492,
        "lon": -94.9465007
      },
      "tags": {
        "landuse": "industrial",
        "name": "Texas City Plant Union Carbide",
        "operator": "Union Carbide Corp-Texas City",
        "plant:output:electricity": "45 MW",
        "plant:output:hot_water": "yes",
        "plant:source": "steam",
        "power": "plant",
        "ref:US:EIA": "50153",
        "source": "U.S. Energy Information Administration - EIA-860 - 2021",
        "start_date": "1996-02"
      },
      "lat": 29.3761492,
      "lon": -94.9465007
    },
    {
      "type": "way",
      "id": 585023319,
      "center": {
        "lat": 29.5623244,
        "lon": -95.0892647
      },
      "tags": {
        "landuse": "industrial",
        "name": "Johnson Space Center Combined Heat & Power",
        "operator": "National Aeronautics and Space Administration",
        "plant:method": "combustion",
        "plant:output:electricity": "11.9 MW",
        "plant:output:steam": "yes",
        "plant:source": "gas",
        "power": "plant",
        "ref:US:EIA": "62762",
        "start_date": "2017"
      },
      "lat": 29.5623244,
      "lon": -95.0892647
    },
    {
      "type": "way",
      "id": 585050903,
      "center": {
        "lat": 29.545587,
        "lon": -97.756519
      },
      "tags": {
        "name": "SunHub Generation Station",
        "operator": "Guadalupe Valley Electric Cooperative",
        "plant:method": "photovoltaic",
        "plant:output:electricity": "2.0 MW",
        "plant:source": "solar",
        "power": "plant",
        "start_date": "2017"
      },
      "lat": 29.545587,
      "lon": -97.756519
    },
    {
      "type": "way",
      "id": 585622300,
      "center": {
        "lat": 29.6262749,
        "lon": -95.0467352
      },
      "tags": {
        "landuse": "industrial",
        "name": "Bayou Cogen Plant",
        "operator": "Air Liquide Large Industries U S LP",
        "plant:method": "combustion",
        "plant:output:electricity": "318.4 MW",
        "plant:output:steam": "yes",
        "plant:source": "gas",
        "power": "plant",
        "ref:US:EIA": "10298",
        "source": "https://www.industryabout.com/country-territories-3/873-usa/fossil-fuels-energy/11767-bayou-gas-power-plant",
        "start_date": "1984-12"
      },
      "lat": 29.6262749,
      "lon": -95.0467352
    },
    {
      "type": "way",
      "id": 585787416,
      "center": {
        "lat": 29.6470687,
        "lon": -95.4519193
      },
      "tags": {
        "landuse": "industrial",
        "name": "Friendswood Energy",
        "operator": "Quantum Utility Generation",
        "plant:method": "combustion",
        "plant:output:electricity": "121.5 MW",
        "plant:source": "gas",
        "power": "plant",
        "ref:US:EIA": "60468",
        "source": "U.S. Energy Information Administration - EIA-860 - 2020",
        "start_date": "2017"
      },
      "lat": 29.6470687,
      "lon": -95.4519193
    },
    {
      "type": "way",
      "id": 604028349,
      "center": {
        "lat": 30.3036786,
        "lon": -94.2525715
      },
      "tags": {
        "barrier": "fence",
        "landuse": "industrial",
        "name": "Hardin County Peaking Power Facility",
        "operator": "East Texas Electric Cooperative",
        "plant:method": "combustion",
        "plant:output:electricity": "150 MW",
        "plant:source": "gas",
        "power": "plant",
        "ref:US:EIA": "56604",
        "start_date": "2010"
      },
      "lat": 30.3036786,
      "lon": -94.2525715
    },
    {
      "type": "way",
      "id": 609606074,
      "center": {
        "lat": 31.8202353,
        "lon": -106.2151819
      },
      "tags": {
        "name": "Montana Solar Facility",
        "operator": "El Paso Electric Co",
        "plant:method": "photovoltaic",
        "plant:output:electricity": "3 MW",
        "plant:source": "solar",
        "power": "plant",
        "ref:US:EIA": "60300",
        "source": "U.S. Energy Information Administration - EIA-860 - 2021",
        "start_date": "2017-05"
      },
      "lat": 31.8202353,
      "lon": -106.2151819
    },
    {
      "type": "way",
      "id": 609606075,
      "center": {
        "lat": 31.8239224,
        "lon": -106.211303
      },
      "tags": {
        "landuse": "industrial",
        "name": "Montana Power Station",
        "operator": "El Paso Electric Co",
        "plant:method": "combustion",
        "plant:output:electricity": "527.2 MW",
        "plant:source": "gas",
        "power": "plant",
        "ref:US:EIA": "58562",
        "source": "https://www.epelectric.com/files/html/Montana_Power_Plant/EPE_Montana_Power_Station_Presentation_12-2012.pdf",
        "start_date": "2015-03"
      },
      "lat": 31.8239224,
      "lon": -106.211303
    },
    {
      "type": "way",
      "id": 613955261,
      "center": {
        "lat": 29.7029655,
        "lon": -95.0719164
      },
      "tags": {
        "addr:city": "La Porte",
        "addr:housenumber": "10202",
        "addr:postcode": "77571",
        "addr:state": "TX",
        "addr:street": "Strang Road",
        "barrier": "fence",
        "landuse": "industrial",
        "name": "Exelon LaPorte Generating Station",
        "operator": "Exelon",
        "operator:wikidata": "Q1383669",
        "operator:wikipedia": "en:Exelon",
        "plant:method": "combustion",
        "plant:output:electricity": "236 MW",
        "plant:source": "gas",
        "power": "plant",
        "ref:US:EIA": "55365",
        "source": "https://www.industryabout.com/country-territories-3/873-usa/fossil-fuels-energy/11819-la-porte-extex-gas-power-plant",
        "start_date": "2001-07"
      },
      "lat": 29.7029655,
      "lon": -95.0719164
    },
    {
      "type": "way",
      "id": 614079726,
      "center": {
        "lat": 29.6949769,
        "lon": -95.0413198
      },
      "tags": {
        "landuse": "industrial",
        "name": "San Jacinto Steam Electric Station",
        "operator": "NRG Texas Power LLC",
        "plant:method": "combustion",
        "plant:output:electricity": "176.4 MW",
        "plant:source": "gas",
        "power": "plant",
        "ref:US:EIA": "7325",
        "source": "https://www.industryabout.com/country-territories-3/873-usa/fossil-fuels-energy/11869-san-jacinto-gas-power-plant",
        "start_date": "1995-04",
        "wikidata": "Q11999347"
      },
      "lat": 29.6949769,
      "lon": -95.0413198
    },
    {
      "type": "way",
      "id": 624148225,
      "center": {
        "lat": 32.7281246,
        "lon": -97.2176401
      },
      "tags": {
        "landuse": "industrial",
        "name": "Handley Power Plant",
        "operator": "Exelon Power",
        "plant:method": "combustion",
        "plant:output:electricity": "1265 MW",
        "plant:source": "gas",
        "power": "plant",
        "ref:US:EIA": "3491",
        "source": "U.S. Energy Information Administration - EIA-860 - 2019",
        "start_date": "1948-04",
        "wikidata": "Q19373530"
      },
      "lat": 32.7281246,
      "lon": -97.2176401
    },
    {
      "type": "way",
      "id": 664324521,
      "center": {
        "lat": 33.5770381,
        "lon": -96.6152931
      },
      "tags": {
        "landuse": "industrial",
        "name": "Rayburn Energy Station",
        "operator": "Rayburn Energy Station LLC",
        "plant:method": "combustion",
        "plant:output:electricity": "803.2 MW",
        "plant:source": "gas",
        "plant:type": "combined_cycle",
        "power": "plant",
        "ref:US:EIA": "58005",
        "source": "U.S. Energy Information Administration - EIA-860 - 2021",
        "start_date": "2014-08"
      },
      "lat": 33.5770381,
      "lon": -96.6152931
    },
    {
      "type": "way",
      "id": 683998447,
      "center": {
        "lat": 33.0551447,
        "lon": -94.8421618
      },
      "tags": {
        "landuse": "industrial",
        "name": "J. Robert Welsh Power Plant",
        "operator": "Southwestern Electric Power",
        "plant:method": "combustion",
        "plant:output:electricity": "1116 MW",
        "plant:source": "coal",
        "power": "plant",
        "ref:US:EIA": "6139",
        "source": "U.S. Energy Information Administration - EIA-860 - 2021",
        "start_date": "1977-03",
        "wikidata": "Q6106964"
      },
      "lat": 33.0551447,
      "lon": -94.8421618
    },
    {
      "type": "way",
      "id": 685920224,
      "center": {
        "lat": 33.6321946,
        "lon": -95.5892477
      },
      "tags": {
        "landuse": "industrial",
        "name": "Lamar Power Project",
        "operator": "LaFrontera Holdings LLC",
        "plant:output:electricity": "1112.6 MW",
        "plant:source": "gas",
        "power": "plant",
        "ref:US:EIA": "55097",
        "source": "U.S. Energy Information Administration - EIA-860 - 2021",
        "start_date": "2000-05",
        "wikidata": "Q11983008"
      },
      "lat": 33.6321946,
      "lon": -95.5892477
    },
    {
      "type": "way",
      "id": 687078209,
      "center": {
        "lat": 32.9742931,
        "lon": -102.7409525
      },
      "tags": {
        "landuse": "industrial",
        "name": "Mustang Station Power Plant",
        "operator": "Golden Spread Electric Cooperative",
        "plant:method": "combustion",
        "plant:output:electricity": "993.1 MW",
        "plant:source": "gas",
        "power": "plant",
        "ref:US:EIA": "56326;55065",
        "source": "U.S. Energy Information Administration - EIA-860 - 2021",
        "start_date": "1999-06",
        "wikidata": "Q11990283"
      },
      "lat": 32.9742931,
      "lon": -102.7409525
    },
    {
      "type": "way",
      "id": 689650931,
      "center": {
        "lat": 30.7885355,
        "lon": -95.965867
      },
      "tags": {
        "name": "Midsouth Synergy Solar",
        "operator": "Midsouth Synergy",
        "plant:method": "photovoltaic",
        "plant:output:electricity": "yes",
        "plant:source": "solar",
        "power": "plant",
        "start_date": "2016"
      },
      "lat": 30.7885355,
      "lon": -95.965867
    },
    {
      "type": "way",
      "id": 690742039,
      "center": {
        "lat": 29.6401223,
        "lon": -98.0459814
      },
      "tags": {
        "building": "yes",
        "name": "Dunlap TP 1 Power Plant",
        "operator": "Guadalupe Blanco River Authority",
        "plant:output:electricity": "3.6 MW",
        "plant:source": "hydro",
        "power": "plant",
        "ref:US:EIA": "3582",
        "source": "U.S. Energy Information Administration - EIA-860 - 2020",
        "start_date": "1927-01"
      },
      "lat": 29.6401223,
      "lon": -98.0459814
    },
    {
      "type": "way",
      "id": 694276571,
      "center": {
        "lat": 29.8834381,
        "lon": -95.1109627
      },
      "tags": {
        "addr:city": "Houston",
        "addr:housenumber": "18511",
        "addr:postcode": "77049",
        "addr:state": "TX",
        "addr:street": "Beaumont Hwy",
        "landuse": "industrial",
        "name": "Chamon Power LLC",
        "operator": "Peaker Power, LLC",
        "plant:method": "combustion",
        "plant:output:electricity": "121 MW",
        "plant:source": "gas",
        "power": "plant",
        "ref:US:EIA": "60460",
        "start_date": "2017-10"
      },
      "lat": 29.8834381,
      "lon": -95.1109627
    },
    {
      "type": "way",
      "id": 720392657,
      "center": {
        "lat": 31.7095778,
        "lon": -103.5984799
      },
      "tags": {
        "plant:method": "photovoltaic",
        "plant:output:electricity": "yes",
        "plant:source": "solar",
        "power": "plant"
      },
      "lat": 31.7095778,
      "lon": -103.5984799
    },
    {
      "type": "way",
      "id": 731194239,
      "center": {
        "lat": 32.3197621,
        "lon": -96.6754201
      },
      "tags": {
        "landuse": "industrial",
        "name": "Ennis Power Company",
        "operator": "Ennis Power Company LLC",
        "plant:method": "combustion",
        "plant:output:electricity": "392.9 MW",
        "plant:source": "gas",
        "plant:type": "combined_cycle",
        "power": "plant",
        "ref:US:EIA": "55223",
        "source": "U.S. Energy Information Administration - EIA-860 - 2019",
        "start_date": "2002-05",
        "wikidata": "Q17769710"
      },
      "lat": 32.3197621,
      "lon": -96.6754201
    },
    {
      "type": "way",
      "id": 732209937,
      "center": {
        "lat": 30.1231259,
        "lon": -97.6648561
      },
      "tags": {
        "generator:source": "solar",
        "plant:method": "photovoltaic",
        "plant:output:electricity": "yes",
        "plant:source": "solar",
        "power": "plant"
      },
      "lat": 30.1231259,
      "lon": -97.6648561
    },
    {
      "type": "way",
      "id": 748882245,
      "center": {
        "lat": 31.8323301,
        "lon": -94.9014929
      },
      "tags": {
        "landuse": "industrial",
        "name": "Nacogdoches Power",
        "operator": "Austin Energy",
        "plant:output:electricity": "114 MW",
        "plant:source": "biomass",
        "power": "plant",
        "ref:US:EIA": "55708",
        "source": "U.S. Energy Information Administration - EIA-860 - 2021",
        "start_date": "2012-06"
      },
      "lat": 31.8323301,
      "lon": -94.9014929
    },
    {
      "type": "way",
      "id": 793630216,
      "center": {
        "lat": 30.2335594,
        "lon": -97.5933567
      },
      "tags": {
        "location": "roof",
        "plant:method": "photovoltaic",
        "plant:output:electricity": "yes",
        "plant:source": "solar",
        "power": "plant"
      },
      "lat": 30.2335594,
      "lon": -97.5933567
    },
    {
      "type": "way",
      "id": 793630217,
      "center": {
        "lat": 30.2335105,
        "lon": -97.5933353
      },
      "tags": {
        "location": "roof",
        "plant:method": "photovoltaic",
        "plant:output:electricity": "yes",
        "plant:source": "solar",
        "power": "plant"
      },
      "lat": 30.2335105,
      "lon": -97.5933353
    },
    {
      "type": "way",
      "id": 818970459,
      "center": {
        "lat": 29.8608796,
        "lon": -95.2026422
      },
      "tags": {
        "landuse": "industrial",
        "power": "plant"
      },
      "lat": 29.8608796,
      "lon": -95.2026422
    },
    {
      "type": "way",
      "id": 822266710,
      "center": {
        "lat": 29.5925762,
        "lon": -97.9739048
      },
      "tags": {
        "addr:housenumber": "711",
        "addr:postcode": "78156",
        "addr:street": "Rio Nogales Drive",
        "landuse": "industrial",
        "name": "Rio Nogales Power Project",
        "note": "purchased by CPS in 2012",
        "operator": "CPS Energy",
        "plant:method": "combustion",
        "plant:output:electricity": "940.2 MW",
        "plant:source": "gas",
        "power": "plant",
        "ref:US:EIA": "55137",
        "source": "U.S. Energy Information Administration - EIA-860 - 2020",
        "start_date": "2002-05",
        "wikidata": "Q19386645"
      },
      "lat": 29.5925762,
      "lon": -97.9739048
    },
    {
      "type": "way",
      "id": 829757910,
      "center": {
        "lat": 30.4007657,
        "lon": -97.6446524
      },
      "tags": {
        "addr:city": "Austin",
        "addr:housenumber": "12900-A",
        "addr:postcode": "78754",
        "addr:state": "TX",
        "addr:street": "Dessau Ridge Lane",
        "barrier": "fence",
        "location": "surface",
        "plant:method": "photovoltaic",
        "plant:output:electricity": "yes",
        "plant:source": "solar",
        "power": "plant"
      },
      "lat": 30.4007657,
      "lon": -97.6446524
    },
    {
      "type": "way",
      "id": 829775519,
      "center": {
        "lat": 30.4180697,
        "lon": -97.6894976
      },
      "tags": {
        "location": "surface",
        "plant:method": "photovoltaic",
        "plant:output:electricity": "yes",
        "plant:source": "solar",
        "power": "plant"
      },
      "lat": 30.4180697,
      "lon": -97.6894976
    },
    {
      "type": "way",
      "id": 829776672,
      "center": {
        "lat": 30.4156942,
        "lon": -97.6910057
      },
      "tags": {
        "barrier": "fence",
        "location": "surface",
        "plant:method": "photovoltaic",
        "plant:output:electricity": "yes",
        "plant:source": "solar",
        "power": "plant"
      },
      "lat": 30.4156942,
      "lon": -97.6910057
    },
    {
      "type": "way",
      "id": 840218118,
      "center": {
        "lat": 29.6804649,
        "lon": -99.7640757
      },
      "tags": {
        "name": "BEC Community Solar",
        "operator": "SoCore Energy LLC",
        "plant:method": "photovoltaic",
        "plant:output:electricity": "1.5 MW",
        "plant:source": "solar",
        "power": "plant",
        "ref:US:EIA": "61205",
        "source": "U.S. Energy Information Administration - EIA-860 - 2020",
        "start_date": "2017-02"
      },
      "lat": 29.6804649,
      "lon": -99.7640757
    },
    {
      "type": "way",
      "id": 859454297,
      "center": {
        "lat": 29.6359388,
        "lon": -99.7313648
      },
      "tags": {
        "plant:method": "photovoltaic",
        "plant:output:electricity": "yes",
        "plant:source": "solar",
        "power": "plant"
      },